     2.11           OBSERVATION DATA    M                   RINEX VERSION / TYPE
sbf2rin-13.2.0                          09-APR-19 21:29     PGM / RUN BY / DATE 
APS_                                                        MARKER NAME         
Unknown                                                     MARKER NUMBER       
Unknown             Unknown                                 OBSERVER / AGENCY   
3013458             SEPT ALTUS APS3G    4.1.5               REC # / TYPE / VERS 
APS3G               APSAPS-3L       NONE                    ANT # / TYPE        
  1761290.5385 -4078200.4441  4561426.3626                  APPROX POSITION XYZ 
        0.0000        0.0000        0.0000                  ANTENNA: DELTA H/E/N
     1     1                                                WAVELENGTH FACT L1/2
     9    C1    L1    L2    P2    C2    D1    D2    S1    S2# / TYPES OF OBSERV 
For GPS, L2 corresponds to the L2P carrier phase.           COMMENT             
For GLONASS, L2 corresponds to the L2CA carrier phase.      COMMENT             
     1.000                                                  INTERVAL            
  2019     3    19    19    46    7.0000000     GPS         TIME OF FIRST OBS   
  2019     3    19    20    15   56.0000000     GPS         TIME OF LAST OBS    
    27                                                      # OF SATELLITES     
                                                            END OF HEADER       
 19  3 19 19 46  7.0000000  0 12G30G07G08R19R08G27G16R10R18R09R16R01
  25264225.611 6 132764404.19006 103452798.18903  25264228.347 3  25264229.858 6
      3749.483 6      2921.681 3        40.250          20.500
  22932889.986 8 120513150.63908  93906341.73605  22932888.195 5  22932889.534 6
      2440.396 8      1901.607 5        49.250          33.500
  22100502.621 8 116138922.90308  90497851.04806  22100502.453 6  22100505.201 7
      1373.009 8      1069.870 6        49.500          36.750
  21181953.661 7 113309170.72107  88129371.26406                  21181956.838 6
      1081.588 7       841.290 6        42.500          39.500
  24982260.698 6 133778878.30506 104050264.78405                  24982266.100 5
     -1710.645 6     -1330.414 5        37.250          33.000
  22280548.595 8 117085071.41508  91235135.19406  22280549.933 6  22280550.083 7
      -947.354 8      -738.198 6        51.250          39.000
  23829482.630 7 125224774.05407  97577736.86804  23829479.033 4
     -2073.938 7     -1616.059 4        47.000          26.750
  23505872.966 7 125299535.71907  97455217.31005                  23505875.878 5
      3784.508 7      2943.362 5        43.500          34.250
  23213542.708 7 123915463.11407  96378722.47907                  23213548.345 7
     -2813.131 7     -2188.068 7        47.500          45.500
  21118454.664 7 112771367.78307  87711081.91108                  21118457.947 8
      1320.542 7      1027.146 8        47.250          49.250
  23285838.285 6 124388756.68706  96746832.34506                  23285840.060 6
     -2410.066 6     -1874.682 6        39.250          39.500
  25244131.882 6 134944361.10106 104956842.16605                  25244137.758 5
       863.253 6       671.218 5        38.500          33.750
 19  3 19 19 46  8.0000000  0 13G26G30G07G08R19R08G27G16R10R18R09R16
                                R01
  26136095.240 6 137346107.75216
     -2559.073 6                        40.000
  25263511.739 6 132760655.13706 103449876.84603  25263514.814 3  25263516.121 6
      3748.734 6      2921.095 3        40.250          20.500
  22932425.716 8 120510710.89408  93904440.63705  22932423.942 5  22932425.504 6
      2439.311 8      1900.763 5        49.250          33.500
  22100241.483 8 116137550.57408  90496781.70206  22100241.449 6  22100244.176 7
      1371.733 8      1068.885 6        49.500          36.750
  21181751.609 7 113308089.92407  88128530.61906                  21181755.137 6
      1080.136 7       840.088 6        42.250          39.750
  24982580.588 6 133780589.52306 104051595.74005                  24982585.045 5
     -1711.820 6     -1331.463 5        36.750          33.250
  22280728.993 8 117086019.44708  91235873.92006  22280730.287 6  22280730.830 7
      -948.630 8      -739.190 6        51.250          39.000
  23829877.397 7 125226848.44707  97579353.27904  23829873.757 4
     -2074.834 7     -1616.755 4        47.000          26.750
  23505163.061 7 125295751.62307  97452274.15205                  23505166.362 5
      3783.730 7      2942.649 5        43.250          35.250
  23214069.779 7 123918276.88007  96380910.95307                  23214075.601 7
     -2814.387 7     -2188.821 7        47.500          46.000
  21118207.502 7 112770047.86607  87710055.31208                  21118210.639 8
      1319.377 7      1026.236 8        47.250          49.750
  23286289.509 6 124391167.39706  96748707.32306                  23286291.975 6
     -2411.229 6     -1875.480 6        39.250          39.750
  25243970.154 6 134943498.60806 104956171.29805                  25243977.236 5
       861.753 6       669.852 5        38.250          34.250
 19  3 19 19 46  9.0000000  0 13G26G30G07G08R19R08G27G16R10R18R09R16
                                R01
  26136582.284 6 137348666.70306
     -2558.209 6                        40.000
  25262798.300 6 132756906.49806 103446955.83203  25262801.362 3  25262802.657 5
      3749.368 6      2921.572 3        40.000          20.000
  22931961.583 8 120508271.81508  93902540.05605  22931959.806 5  22931961.606 6
      2439.581 8      1900.971 5        49.250          33.250
  22099980.487 8 116136179.03708  90495712.96906  22099980.566 6  22099983.587 7
      1371.976 8      1069.072 6        49.500          36.500
  21181549.565 7 113307010.25807  88127690.88306                  21181553.338 6
      1079.982 7       839.930 6        42.250          40.000
  24982900.294 6 133782301.57206 104052927.32105                  24982904.781 5
     -1711.562 6     -1331.214 5        37.250          33.000
  22280909.570 8 117086968.23708  91236613.23706  22280910.788 6  22280911.709 7
      -948.287 8      -738.922 6        51.250          39.000
  23830272.165 7 125228923.24407  97580970.00404  23830268.566 4
     -2074.206 7     -1616.265 4        47.000          26.750
  23504453.212 7 125291967.90707  97449331.25605                  23504458.309 5
      3784.375 7      2943.023 5        43.250          35.250
  23214597.051 7 123921091.40807  96383100.03807                  23214602.877 7
     -2814.058 7     -2188.620 7        47.250          45.750
  21117960.507 7 112768728.69907  87709029.28108                  21117963.664 8
      1319.614 7      1026.327 8        47.250          49.750
  23286740.840 6 124393578.66906  96750582.75706                  23286743.532 6
     -2410.636 6     -1874.982 6        39.000          39.500
  25243808.904 6 134942637.15506 104955501.26305                  25243816.914 5
       861.636 6       670.119 5        38.000          34.250
 19  3 19 19 46 10.0000000  0 13G26G30G07G08R19R08G27G16R10R18R09R16
                                R01
  26137069.468 6 137351226.42106
     -2559.641 6                        40.250
  25262085.303 6 132753158.73906 103444035.49603  25262088.067 3  25262089.211 5
      3747.713 6      2920.302 3        40.000          19.500
  22931497.598 8 120505833.86708  93900640.35705  22931495.897 5  22931498.026 6
      2437.840 8      1899.615 5        49.250          33.250
  22099719.745 8 116134808.77408  90494645.23306  22099719.910 6  22099723.077 7
      1370.058 8      1067.576 6        49.500          36.500
  21181347.955 7 113305932.22507  88126852.41006                  21181352.154 6
      1077.611 7       838.255 6        42.250          40.000
  24983220.140 6 133784014.96706 104054259.96605                  24983225.002 5
     -1713.481 6     -1332.760 5        37.000          33.250
  22281090.376 8 117087918.27408  91237353.52206  22281091.513 6  22281092.824 7
      -950.211 8      -740.420 6        51.250          39.000
  23830667.136 7 125230998.90607  97582587.40104  23830663.544 4
     -2075.667 7     -1617.400 4        46.750          26.750
  23503743.330 7 125288185.03607  97446389.02505                  23503749.483 5
      3782.880 7      2942.019 5        43.250          35.500
  23215124.475 7 123923907.17807  96385290.08107                  23215130.406 7
     -2815.961 7     -2190.253 7        47.250          45.500
  21117713.628 7 112767410.75707  87708004.21908                  21117716.942 8
      1317.705 7      1024.952 8        47.250          49.500
  23287192.432 6 124395991.02006  96752459.02806                  23287195.395 6
     -2412.413 6     -1876.198 6        38.750          39.750
  25243648.254 6 134941777.21506 104954832.44405                  25243656.704 5
       859.602 6       668.214 5        38.250          34.250
 19  3 19 19 46 11.0000000  0 13G26G30G07G08R19R08G27G16R10R18R09R16
                                R01
  26137556.718 6 137353785.91906
     -2559.733 6                        40.500
  25261372.169 6 132749410.91706 103441115.10803  25261374.696 3  25261375.841 5
      3747.569 6      2920.165 3        40.000          19.250
  22931033.599 8 120503396.11608  93898740.81305  22931032.047 5  22931034.037 6
      2437.417 8      1899.283 5        49.250          33.000
  22099459.048 8 116133438.85108  90493577.76206  22099459.322 6  22099462.486 7
      1369.475 8      1067.121 6        49.500          36.500
  21181146.587 7 113304854.88807  88126014.47906                  21181151.103 6
      1076.710 7       837.351 6        42.250          40.000
  24983540.068 6 133785728.74406 104055592.88005                  24983545.369 5
     -1714.193 6     -1333.055 5        37.250          33.500
  22281271.247 8 117088868.59308  91238094.02906  22281272.301 6  22281273.662 7
      -950.768 8      -740.857 6        51.250          39.000
  23831062.052 7 125233074.50807  97584204.75504  23831058.482 4
     -2075.865 7     -1617.566 4        46.750          26.500
  23503033.492 7 125284402.02807  97443446.69905                  23503040.791 5
      3782.771 7      2941.916 5        43.250          35.250
  23215651.866 7 123926723.24007  96387480.34807                  23215657.865 7
     -2816.489 7     -2190.560 7        47.250          45.250
  21117466.910 7 112766093.07407  87706979.35708                  21117470.274 8
      1317.294 7      1024.617 8        47.250          49.500
  23287643.710 6 124398403.47706  96754335.40406                  23287646.455 6
     -2412.802 6     -1876.769 6        38.750          39.250
  25243487.833 6 134940917.87006 104954164.05005                  25243495.953 5
       858.761 6       668.183 5        38.000          34.500
 19  3 19 19 46 12.0000000  0 13G26G30G07G08R19R08G27G16R10R18R09R16
                                R01
  26138043.755 6 137356345.62106
     -2560.230 6                        40.250
  25260659.186 6 132745663.38306 103438194.96103  25260661.521 3  25260662.968 5
      3746.912 6      2919.664 3        39.750          19.250
  22930569.796 8 120500958.93608  93896841.71005  22930568.282 5  22930570.190 6
      2436.539 8      1898.604 5        49.500          33.000
  22099198.432 8 116132069.63608  90492510.84006  22099198.855 6  22099201.928 7
      1368.536 8      1066.394 6        49.500          36.500
  21180945.297 7 113303778.57207  88125177.32806                  21180949.970 6
      1075.302 7       836.572 6        42.000          40.000
  24983860.291 6 133787443.22806 104056926.38005                  24983865.360 5
     -1715.183 6     -1333.991 5        36.750          33.500
  22281452.178 8 117089819.58408  91238835.06106  22281453.232 6  22281454.674 7
      -951.666 8      -741.557 6        51.250          38.750
  23831457.006 7 125235150.42307  97585822.35204  23831453.492 4
     -2076.380 7     -1617.962 4        46.750          26.500
  23502323.599 7 125280619.29207  97440504.55105                  23502332.297 5
      3782.281 7      2941.916 5        43.250          35.000
  23216179.429 7 123929539.97507  96389671.15407                  23216185.590 7
     -2817.454 7     -2191.292 7        47.250          44.750
  21117220.365 7 112764776.03107  87705954.99408                  21117223.710 8
      1316.392 7      1023.817 8        47.250          49.500
  23288095.108 6 124400816.42606  96756212.14406                  23288098.241 6
     -2413.520 6     -1877.435 6        38.500          38.750
  25243327.218 6                                                  25243334.968 5
       857.513 6       666.902 5        37.000          34.000
 19  3 19 19 46 13.0000000  0 13G26G30G07G08R19R08G27G16R10R18R09R16
                                R01
  26138531.076 6 137358905.93406                                  26138532.033 5
     -2560.831 6                        40.500
  25259946.415 6 132741916.59106 103435275.38703  25259948.498 3  25259949.757 5
      3746.073 6      2919.031 3        40.000          19.250
  22930106.180 8 120498522.73008  93894943.36705  22930104.682 5  22930106.555 6
      2435.430 8      1897.736 5        49.750          33.000
  22098938.064 8 116130701.56308  90491444.80606  22098938.597 6  22098941.651 7
      1367.179 8      1065.329 6        49.500          36.250
  21180744.425 7 113302703.70807  88124341.34306                  21180748.760 6
      1073.897 7       835.104 6        42.250          40.250
  24984180.759 6 133789158.92006 104058260.80205                  24984185.575 5
     -1716.684 6     -1335.314 5        37.000          33.750
  22281633.313 8 117090771.65808  91239576.93506  22281634.368 6  22281636.102 7
      -952.935 8      -742.554 6        51.500          38.750
  23831852.066 7 125237227.05207  97587440.50504  23831848.680 4
     -2077.299 7     -1618.667 4        46.750          26.250
  23501613.891 7 125276837.23207  97437562.93305                  23501622.330 5
      3781.473 7      2941.069 5        43.000          35.500
  23216707.156 7 123932357.78407  96391862.77707                  23216713.556 7
     -2818.678 7     -2192.365 7        47.250          45.000
  21116973.863 7 112763460.02807  87704931.42808                  21116977.398 8
      1315.160 7      1022.911 8        47.250          49.750
  23288546.528 6 124403230.26506  96758089.56006                  23288550.028 6
     -2414.644 6     -1877.890 6        38.500          39.250
  25243167.077 6                                                  25243174.313 5
       855.904 6       665.470 5        37.250          34.000
 19  3 19 19 46 14.0000000  0 13G26G30G07G08R19R08G27G16R10R18R09R16
                                R01
  26139018.448 6 137361466.85106                                  26139018.943 5
     -2560.029 6                        40.500
  25259233.457 6 132738170.58006 103432356.41403  25259235.677 3  25259237.249 5
      3746.679 6      2919.495 3        40.250          19.500
  22929642.821 8 120496087.55808  93893045.82805  22929641.292 5  22929643.040 6
      2435.787 8      1898.016 5        49.500          33.000
  22098677.962 8 116129334.63808  90490379.67106  22098678.572 6  22098681.427 7
      1367.468 8      1065.561 6        49.500          36.500
  21180544.037 7 113301630.36507  88123506.50506                  21180548.287 6
      1073.734 7       835.254 6        42.250          40.000
  24984501.129 6 133790875.79806 104059596.18505                  24984506.121 5
     -1716.267 6     -1335.000 5        37.000          33.500
  22281814.607 8 117091724.84908  91240319.68106  22281815.715 6  22281817.473 7
      -952.641 8      -742.317 6        51.500          39.000
  23832247.337 7 125239304.44107  97589059.24904  23832244.008 4
     -2076.601 7     -1618.129 4        46.500          26.500
  23500904.337 7 125273055.92007  97434621.96605                  23500912.584 5
      3782.053 7      2941.648 5        43.250          35.000
  23217235.099 7 123935176.72507  96394055.28707                  23217242.133 7
     -2818.362 7     -2192.108 7        47.250          44.750
  21116727.680 7 112762145.13807  87703908.74008                  21116731.307 8
      1315.539 7      1023.223 8        47.250          49.500
  23288998.080 6 124405645.00906  96759967.67606                  23289002.135 6
     -2413.906 6     -1877.675 6        38.500          39.250
  25243006.612 6                                                  25243014.127 5
       856.082 6       665.995 5        36.500          34.250
 19  3 19 19 46 15.0000000  0 13G26G30G07G08R19R08G27G16R10R18R09R16
                                R01
  26139505.847 6 137364027.84706                  26139507.924 2  26139505.679 5
     -2560.400 6     -1995.135 2        40.500          15.750
  25258520.848 6 132734424.72806 103429437.56303  25258522.905 3  25258524.225 5
      3746.175 6      2919.124 3        40.000          19.250
  22929179.480 8 120493652.82208  93891148.63405  22929178.001 5  22929179.752 6
      2434.988 8      1897.392 5        49.750          32.750
  22098417.879 8 116127968.28708  90489314.98306  22098418.650 6  22098421.302 7
      1366.593 8      1064.883 6        49.500          36.500
  21180343.697 7 113300557.97207  88122672.41806                  21180347.290 6
      1072.461 7       834.359 6        42.500          39.500
  24984822.396 6 133792593.34306 104060932.01105                  24984827.225 5
     -1717.390 6     -1335.798 5        37.000          32.500
  22281996.076 8 117092678.58208  91241062.85106  22281997.169 6  22281998.994 7
      -953.510 8      -742.990 6        51.750          38.750
  23832642.557 7 125241382.01207  97590678.13404  23832639.348 4
     -2077.004 7     -1618.439 4        46.500          26.500
  23500195.228 7 125269274.69507  97431680.97705                  23500203.103 5
      3781.576 7      2941.974 5        43.250          35.000
  23217763.187 7 123937996.21107  96396248.20907                  23217770.936 7
     -2819.276 7     -2192.922 7        47.250          44.250
  21116481.518 7 112760830.74107  87702886.42908                  21116485.335 8
      1314.584 7      1022.426 8        47.250          49.000
  23289449.782 6 124408060.13206  96761846.10806                  23289454.070 6
     -2414.652 6     -1877.778 6        38.250          38.500
  25242846.858 6 134937492.13506 104951499.53105                  25242853.087 5
       854.690 6       665.004 5        37.000          32.750
 19  3 19 19 46 16.0000000  0 13G26G30G07G08R19R08G27G16R10R18R09R16
                                R01
  26139993.313 6 137366588.98906 107038909.57812  26139995.295 2  26139992.979 5
     -2560.742 6     -1995.377 2        40.500          16.750
  25257808.196 6 132730679.13406 103426518.93103  25257810.155 3  25257811.125 5
      3745.955 6      2918.936 3        40.250          19.000
  22928716.303 8 120491218.61208  93889251.84805  22928714.807 5  22928716.462 6
      2434.416 8      1896.949 5        49.750          32.750
  22098157.968 8 116126602.59808  90488250.80906  22098158.849 6  22098161.490 7
      1365.790 8      1064.252 6        49.500          36.500
  21180143.521 7 113299486.62807  88121839.16106                  21180147.162 6
      1071.325 7       833.247 6        42.750          40.000
  24985142.573 6 133794311.59406 104062268.39705                  24985148.572 5
     -1718.065 6     -1336.083 5        36.750          33.000
  22282177.710 8 117093632.94008  91241806.50506  22282178.748 6  22282180.604 7
      -954.181 8      -743.518 6        51.750          38.750
  23833037.878 7 125243459.85107  97592297.22704  23833034.711 4
     -2077.465 7     -1618.800 4        46.500          26.500
  23499485.986 7 125265493.68507  97428740.18005                  23499493.404 5
      3781.410 7      2941.108 5        43.250          35.500
  23218291.427 7 123940816.32407  96398441.61307                  23218299.126 7
     -2820.017 7     -2193.290 7        47.250          44.250
  21116235.532 7 112759516.94707  87701864.59108                  21116239.211 8
      1314.079 7      1022.007 8        47.000          49.500
  23289901.727 6 124410475.72206  96763724.90006                  23289906.163 6
     -2415.293 6     -1878.595 6        38.500          39.250
  25242687.082 6 134936638.25006 104950835.43905                  25242693.959 5
       853.916 6       664.183 5        37.000          33.500
 19  3 19 19 46 17.0000000  0 13G26G30G07G08R19R08G27G16R10R18R09R16
                                R01
  26140480.832 6 137369150.38006 107040905.45902  26140482.693 2  26140480.730 5
     -2562.152 6     -1996.483 2        40.500          16.250
  25257095.577 6 132726933.90206 103423600.56703  25257097.379 3  25257098.265 5
      3744.639 6      2917.898 3        40.500          18.750
  22928253.264 8 120488785.04708  93887355.56305  22928251.731 5  22928253.424 6
      2432.687 8      1895.592 5        49.750          32.750
  22097898.236 8 116125237.70808  90487187.25806  22097899.195 6  22097901.764 7
      1363.883 8      1062.764 6        49.250          36.500
  21179943.398 7 113298416.44807  88121006.78706                  21179946.915 6
      1068.974 7       831.511 6        42.500          39.500
  24985463.641 6                                                  24985469.373 5
     -1720.127 6     -1337.956 5        37.000          32.750
  22282359.507 8 117094588.04408  91242550.74206  22282360.470 6  22282362.367 7
      -956.081 8      -745.000 6        51.500          38.750
  23833433.345 7 125245538.06607  97593916.61704  23833430.186 4
     -2078.916 7     -1619.944 4        46.500          26.250
  23498776.847 7 125261713.01407  97425799.66305                  23498784.902 5
      3780.077 7      2940.245 5        43.500          35.500
  23218819.919 7 123943637.15107  96400635.58507                  23218826.724 7
     -2821.664 7     -2194.570 7        47.250          43.500
  21115989.618 7 112758203.88107  87700843.31208                  21115993.382 8
      1312.219 7      1020.576 8        47.000          49.250
  23290353.838 6 124412891.86406  96765604.12506                  23290358.656 6
     -2416.753 6     -1879.887 6        38.500          38.750
  25242526.972 6 134935785.36106 104950172.12005                  25242535.158 5
       851.888 6       662.403 5        36.250          33.000
 19  3 19 19 46 18.0000000  0 13G26G30G07G08R19R08G27G16R10R18R09R16
                                R01
  26140968.303 6 137371712.19406 107042901.68102  26140969.992 2  26140968.249 5
     -2561.655 6     -1996.056 2        41.000          16.250
  25256383.014 6 132723189.25606 103420682.66303  25256384.794 3  25256385.582 5
      3744.979 6      2918.178 3        40.250          18.500
  22927790.361 8 120486352.29008  93885459.90805  22927788.806 5  22927790.647 6
      2432.850 8      1895.730 5        49.500          32.750
  22097638.676 8 116123873.75208  90486124.43506  22097639.712 6  22097642.322 7
      1363.875 8      1062.760 6        49.250          36.500
  21179743.555 7 113297347.53807  88120175.41606                  21179747.291 6
      1068.634 7       831.255 6        42.750          40.250
  24985785.198 6                                                  24985790.386 5
     -1719.928 6     -1337.564 5        37.000          33.500
  22282541.451 8 117095544.06708  91243295.69306  22282542.372 6  22282544.235 7
      -956.176 8      -745.073 6        51.500          38.750
  23833828.986 7 125247616.84107  97595536.44404  23833825.804 4
     -2078.641 7     -1619.716 4        46.500          26.250
  23498067.441 7 125257932.86107  97422859.58106                  23498075.986 6
      3780.526 7      2940.132 6        43.500          36.250
  23219348.638 7 123946458.91407  96402830.29807                  23219354.707 7
     -2821.740 7     -2194.756 7        47.500          44.250
  21115744.035 7 112756891.67007  87699822.70408                  21115747.661 8
      1312.292 7      1020.653 8        47.000          50.000
  23290806.347 6 124415308.71906  96767483.90306                  23290811.294 6
     -2416.853 6     -1879.970 6        38.500          39.500
  25242367.723 6 134934933.66806 104949509.68205                  25242376.040 5
       851.797 6       662.691 5        36.250          33.750
 19  3 19 19 46 19.0000000  0 13G26G30G07G08R19R08G27G16R10R18R09R16
                                R01
  26141455.989 6 137374274.29806 107044898.11902  26141457.525 2  26141455.869 5
     -2562.113 6     -1996.445 2        41.500          17.000
  25255670.681 6 132719445.01206 103417765.07103  25255672.223 3  25255673.623 5
      3744.190 6      2917.526 3        40.500          18.500
  22927327.562 8 120483920.20408  93883564.77605  22927325.993 5  22927327.905 6
      2431.897 8      1894.984 5        49.500          32.750
  22097379.267 8 116122510.60408  90485062.24006  22097380.389 6  22097382.884 7
      1362.824 8      1061.943 6        49.250          36.500
  21179544.221 7 113296279.76207  88119344.92506                  21179547.320 6
      1067.284 7       830.257 6        42.500          40.250
  24986106.715 6 133799471.62106 104066281.76405                  24986111.532 5
     -1721.268 6     -1338.745 5        37.000          33.500
  22282723.556 8 117096500.84308  91244041.23306  22282724.393 6  22282726.116 7
      -957.065 8      -745.764 6        51.250          38.750
  23834224.677 7 125249696.02307  97597156.58104  23834221.466 4
     -2079.309 7     -1620.238 4        46.500          26.250
  23497358.376 7 125254153.08007  97419919.72206                  23497367.001 6
      3779.699 7      2939.685 6        43.750          36.750
  23219877.629 7 123949281.44007  96405025.60307                  23219883.167 7
     -2822.761 7     -2195.439 7        47.500          44.500
  21115498.475 7 112755580.19807  87698802.67408                  21115501.910 8
      1311.097 7      1019.746 8        47.000          50.250
  23291258.844 6 124417726.17306  96769364.14106                  23291264.021 6
     -2417.536 6     -1880.302 6        38.250          39.500
  25242208.597 6 134934083.06206 104948848.10005                  25242216.547 5
       850.182 6       660.825 5        36.250          34.000
 19  3 19 19 46 20.0000000  0 13G26G30G07G08R19R08G27G16R10R18R09R16
                                R01
  26141943.791 6 137376837.09906 107046895.09802  26141945.119 2  26141943.472 5
     -2562.655 6     -1996.902 2        41.500          17.250
  25254958.431 6 132715701.59106 103414848.12503  25254959.862 3  25254961.004 5
      3743.643 6      2917.125 3        40.250          18.500
  22926864.986 8 120481489.20408  93881670.49105  22926863.381 5  22926864.930 6
      2430.965 8      1894.260 5        49.500          33.000
  22097120.048 8 116121148.67608  90484000.99806  22097121.290 6  22097123.645 7
      1361.882 8      1061.209 6        49.250          36.750
  21179344.861 7 113295213.48107  88118515.60706                  21179348.068 6
      1066.176 7       829.120 6        42.500          40.250
  24986428.979 6 133801193.77706 104067621.24205                  24986433.144 5
     -1722.148 6     -1339.880 5        37.250          33.250
  22282905.918 8 117097458.80108  91244787.69406  22282906.657 6  22282908.483 7
      -958.037 8      -746.522 6        51.250          39.000
  23834620.609 7 125251776.02207  97598777.35904  23834617.268 4
     -2079.913 7     -1620.709 4        46.750          26.500
  23496649.651 7 125250374.07907  97416980.50506                  23496657.869 6
      3779.212 7      2939.428 6        43.500          36.000
  23220406.716 7 123952105.16907  96407221.81607                  23220412.086 7
     -2823.802 7     -2196.297 7        47.500          44.500
  21115253.130 7 112754269.90207  87697783.55008                  21115256.585 8
      1310.302 7      1019.111 8        46.750          50.250
  23291711.614 6 124420144.58606  96771245.14806                  23291716.213 6
     -2418.316 6     -1881.026 6        38.000          39.750
  25242050.093 6 134933233.94906 104948187.62905                  25242056.690 5
       848.954 6       660.512 5        36.750          34.000
 19  3 19 19 46 21.0000000  0 13G26G30G07G08R19R08G27G16R10R18R09R16
                                R01
  26142431.685 6 137379399.97706 107048892.15702  26142432.607 2  26142431.581 5
     -2562.695 6     -1996.898 2        41.500          17.500
  25254246.297 6 132711958.38106 103411931.33903  25254247.542 3  25254248.481 5
      3743.345 6      2916.889 3        40.250          18.500
  22926402.474 8 120479058.65908  93879776.55805  22926400.890 5  22926402.428 6
      2430.542 8      1893.936 5        49.500          33.000
  22096860.949 8 116119787.34308  90482940.21906  22096862.293 6  22096864.551 7
      1361.216 8      1060.688 6        49.250          37.000
  21179145.792 7 113294148.06307  88117686.94806                  21179149.087 6
      1065.228 7       828.481 6        42.750          40.000
  24986750.987 6 133802916.58406 104068961.18205                  24986755.143 5
     -1722.865 6     -1339.978 5        37.500          33.250
  22283088.338 8 117098417.32208  91245534.59306  22283089.027 6  22283090.932 7
      -958.653 8      -747.004 6        51.000          39.000
  23835016.500 7 125253856.22007  97600398.28904  23835013.114 4
     -2080.121 7     -1620.867 4        46.500          26.750
  23495940.893 7 125246595.24607  97414041.41906                  23495948.838 6
      3778.917 7      2938.962 6        43.500          36.500
  23220935.898 7 123954929.43507  96409418.47007                  23220941.107 7
     -2824.382 7     -2196.717 7        47.750          44.250
  21115007.708 7 112752960.10007  87696764.81908                  21115011.271 8
      1309.668 7      1018.682 8        47.000          50.250
  23292164.485 6 124422563.40806  96773126.42706                  23292168.645 6
     -2418.654 6     -1881.194 6        38.000          39.500
  25241891.325 6 134932385.65006 104947527.89005                  25241898.165 5
       848.003 6       659.319 5        36.750          34.250
 19  3 19 19 46 22.0000000  0 13G26G30G07G08R19R08G27G16R10R18R09R16
                                R01
  26142919.655 6 137381962.75006 107050889.11602  26142920.179 2  26142919.441 5
     -2562.419 6     -1996.696 2        41.750          17.500
  25253534.065 6 132708215.17606 103409014.55103  25253535.181 3  25253536.568 5
      3743.390 6      2916.946 3        40.250          18.500
  22925940.025 8 120476628.41408  93877882.86205  22925938.440 5  22925940.172 6
      2430.360 8      1893.787 5        49.500          33.000
  22096601.910 8 116118426.43408  90481879.77306  22096603.386 6  22096605.614 7
      1360.950 8      1060.485 6        49.500          36.750
  21178946.776 7 113293083.40607  88116858.86906                  21178949.999 6
      1064.376 7       827.983 6        42.500          39.750
  24987072.937 6 133804639.90706 104070301.54805                  24987076.886 5
     -1723.372 6     -1340.468 5        37.500          33.250
  22283270.820 8 117099376.23308  91246281.79606  22283271.479 6  22283273.329 7
      -958.887 8      -747.187 6        51.000          39.000
  23835412.500 7 125255936.44607  97602019.24704  23835408.946 4
     -2080.024 7     -1620.799 4        46.500          26.500
  23495231.982 7 125242816.38507  97411102.28606                  23495239.349 6
      3779.162 7      2939.210 6        43.500          36.000
  23221465.225 7 123957754.08707  96411615.41407                  23221470.289 7
     -2824.634 7     -2196.927 7        47.750          43.500
  21114762.273 7 112751650.69907  87695746.40408                  21114766.061 8
      1309.460 7      1018.398 8        47.000          50.000
  23292617.301 6 124424982.44406  96775007.89406                  23292621.255 6
     -2418.941 6     -1881.370 6        37.750          39.000
  25241733.312 6 134931538.04906 104946868.64205                  25241738.335 5
       847.653 6       659.080 5        36.750          33.750
 19  3 19 19 46 23.0000000  0 13G26G30G07G08R19R08G27G16R10R18R09R16
                                R01
  26143407.662 6 137384526.16806 107052886.58502  26143407.912 2  26143407.103 5
     -2563.330 6     -1997.400 2        41.500          17.500
  25252822.015 6 132704472.76806 103406098.38103  25252822.910 3  25252824.867 5
      3742.211 6      2916.015 3        40.500          19.000
  22925477.728 8 120474199.18908  93875989.95805  22925476.172 5  22925477.967 6
      2428.983 8      1892.712 5        49.500          33.250
  22096343.185 8 116117066.67308  90480820.21806  22096344.698 6  22096346.861 7
      1359.411 8      1059.285 6        49.500          37.000
  21178747.971 7 113292020.21407  88116031.95006                  21178751.250 6
      1062.683 7       826.423 6        42.250          40.000
  24987395.337 6 133806364.42406 104071642.84805                  24987398.991 5
     -1724.904 6     -1341.822 5        37.250          33.750
  22283453.468 8 117100336.25708  91247029.86706  22283454.135 6  22283455.762 7
      -960.351 8      -748.322 6        51.000          39.000
  23835808.492 7 125258017.43107  97603640.79304  23835804.922 4
     -2081.176 7     -1621.697 4        46.500          26.750
  23494523.071 7 125239038.25607  97408163.74906                  23494530.034 6
      3777.993 7      2938.560 6        43.250          36.000
  23221994.723 7 123960579.86007  96413813.24507                  23221999.670 7
     -2826.125 7     -2198.105 7        47.500          43.500
  21114517.189 7 112750342.35507  87694728.79308                  21114521.248 8
      1308.048 7      1017.452 8        47.000          50.250
  23293069.763 6 124427402.36006  96776890.06706                  23293074.379 6
     -2419.957 6     -1882.337 6        37.250          38.750
  25241574.735 6 134930691.87606 104946210.48105                  25241580.757 5
       845.732 6       658.125 5        36.750          34.000
 19  3 19 19 46 24.0000000  0 13G26G30G07G08R19R08G27G16R10R18R09R16
                                R01
  26143895.344 6 137387089.63006 107054884.08302  26143895.592 2  26143894.707 5
     -2562.596 6     -1996.807 2        41.500          17.500
  25252109.702 6 132700730.52206 103403182.35103  25252110.808 3  25252112.984 5
      3742.869 6      2916.518 3        40.500          19.000
  22925015.578 8 120471770.39608  93874097.39505  22925014.008 5  22925015.810 6
      2429.404 8      1893.041 5        49.500          33.250
  22096084.575 8 116115707.49608  90479761.11706  22096086.100 6  22096088.123 7
      1359.714 8      1059.518 6        49.500          37.250
  21178549.407 7 113290957.95007  88115205.73506                  21178552.416 6
      1062.531 7       826.599 6        42.250          40.000
  24987717.250 6 133808089.60006 104072984.61805                  24987721.307 5
     -1724.579 6     -1341.300 5        37.750          33.750
  22283636.254 8 117101296.82008  91247778.36006  22283636.908 6  22283638.368 7
      -960.067 8      -748.105 6        51.000          39.000
  23836204.646 7 125260098.59207  97605262.47404  23836200.946 4
     -2080.399 7     -1621.080 4        46.500          26.750
  23493814.206 7 125235260.23907  97405225.29006                  23493821.578 6
      3778.772 7      2939.173 6        43.500          36.000
  23222524.457 7 123963406.17907  96416011.47707                  23222529.163 7
     -2825.746 7     -2197.719 7        47.750          43.250
  21114272.258 7 112749034.53107  87693711.59508                  21114276.313 8
      1308.347 7      1017.705 8        47.000          50.000
  23293522.931 6 124429822.63206  96778772.51306                  23293527.403 6
     -2419.506 6     -1881.760 6        37.250          38.750
  25241416.918 6 134929846.52206 104945552.98305                  25241421.889 5
       845.782 6       657.660 5        37.000          34.000
 19  3 19 19 46 25.0000000  0 13G26G30G07G08R19R08G27G16R10R18R09R16
                                R01
  26144383.234 6 137389653.16706 107056881.64002  26144383.419 2  26144382.350 5
     -2562.966 6     -1997.112 2        41.750          17.250
  25251397.598 6 132696988.47706 103400266.46803  25251398.702 3  25251400.886 5
      3742.456 6      2916.213 3        40.250          19.000
  22924553.499 8 120469342.06608  93872205.19005  22924551.946 5  22924553.413 6
      2428.642 8      1892.451 5        49.500          33.000
  22095826.182 8 116114348.89508  90478702.46806  22095827.613 6  22095829.348 7
      1358.854 8      1058.849 6        49.750          37.000
  21178350.753 7 113289896.63007  88114380.26106                  21178354.259 6
      1061.483 7       825.586 6        42.500          39.750
  24988039.344 6 133809815.37006 104074326.87905                  24988043.467 5
     -1725.501 6     -1342.104 5        37.750          35.000
  22283819.032 8 117102257.93508  91248527.27906  22283819.775 6  22283821.290 7
      -960.833 8      -748.700 6        51.000          39.000
  23836600.753 7 125262179.95107  97606884.31204  23836597.007 4
     -2080.895 7     -1621.468 4        46.500          26.500
  23493105.447 7 125231482.37007  97402286.97706                  23493113.022 6
      3778.222 7      2938.443 6        43.250          36.250
  23223054.125 8 123966233.06208  96418210.16507                  23223058.637 7
     -2826.560 8     -2198.488 7        48.000          43.250
  21114027.419 7 112747727.21107  87692694.80008                  21114031.510 8
      1307.647 7      1017.000 8        46.750          50.500
  23293976.331 6 124432243.27606  96780655.23106                  23293980.397 6
     -2420.115 6     -1882.411 6        37.000          38.000
  25241258.952 6 134929001.99006 104944896.12305                  25241264.828 5
       844.596 6       656.814 5        37.500          33.750
 19  3 19 19 46 26.0000000  0 13G26G30G07G08R19R08G27G16R10R18R09R16
                                R01
  26144870.986 6 137392216.41906 107058878.98202  26144871.157 2  26144869.911 5
     -2562.390 6     -1996.688 2        41.500          17.500
  25250685.299 6 132693246.24406 103397350.43903  25250686.453 3  25250688.750 5
      3743.144 6      2916.746 3        40.250          19.250
  22924091.443 8 120466913.81908  93870313.04905  22924089.866 5  22924091.301 6
      2428.993 8      1892.721 5        49.500          33.250
  22095567.690 8 116112990.52008  90477643.99206  22095569.158 6  22095570.792 7
      1359.000 8      1058.961 6        49.750          37.250
  21178152.374 7 113288835.92007  88113555.26006                  21178155.871 6
      1061.121 7       825.279 6        42.500          39.500
  24988361.370 6 133811541.42106 104075669.38505                  24988365.523 5
     -1725.372 6     -1342.071 5        38.000          35.000
  22284001.863 8 117103219.23908  91249276.34506  22284002.683 6  22284004.283 7
      -960.588 8      -748.507 6        51.000          39.000
  23836996.849 7 125264261.14207  97608506.01804  23836992.996 4
     -2080.404 7     -1621.093 4        46.500          26.750
  23492396.631 7 125227704.27007  97399348.41406                  23492403.169 6
      3779.017 7      2939.330 6        43.250          36.250
  23223583.887 8 123969060.11608  96420408.96907                  23223588.198 7
     -2826.278 8     -2198.093 7        48.250          43.500
  21113782.662 7 112746420.05407  87691678.11208                  21113786.698 8
      1307.941 7      1017.294 8        47.000          50.500
  23294429.518 6 124434663.94906  96782537.94506                  23294433.381 6
     -2420.029 6     -1882.189 6        36.750          38.250
  25241101.217 6 134928157.92006 104944239.62605                  25241107.751 5
       844.803 6       656.767 5        37.750          34.000
 19  3 19 19 46 27.0000000  0 13G26G30G07G08R19R08G27G16R10R18R09R16
                                R01
  24346606.872 6 127942275.46306  99695288.63902  24346606.973 2  24346606.191 5
     -2564.260 6     -1998.124 2        41.500          17.750
  23451214.029 6 123236962.11606  96028817.34903  23451215.284 3  23451217.208 5
      3741.178 6      2915.199 3        40.250          19.000
  21124872.015 8 111011951.80408  86502810.18305  21124870.423 5  21124871.858 6
      2426.777 8      1891.002 5        49.500          33.000
  20296553.096 8 106659104.92308  83110979.89506  20296554.587 6  20296556.190 7
      1356.753 8      1057.212 6        49.750          37.000
  19379198.507 7 103665645.16907  80628851.31606                  19379201.891 6
      1058.408 7       823.137 6        42.500          39.000
  23189930.597 6 124181028.81706  96585270.67805                  23189935.320 5
     -1727.935 6     -1344.099 5        38.000          34.250
  20485431.272 8 107651667.21308  83884430.61206  20485432.099 6  20485433.571 7
      -962.959 8      -750.353 6        51.000          38.750
  22038640.516 7 115813835.34707  90244537.86304  22038636.719 4
     -2082.238 7     -1622.507 4        46.250          26.500
  21692928.805 7 115635529.00107  89938767.64706                  21692935.547 6
      3777.115 7      2937.750 6        43.250          36.000
  21425362.308 8 114370030.00808  88954496.68007                  21425366.256 7
     -2828.655 8     -2200.046 7        48.500          43.000
  19314781.808 7 103139855.92907  80219906.01708                  19314786.014 8
      1305.588 7      1015.375 8        47.250          50.000
  21496130.819 6 114828474.87906  89311057.58206                  21496134.864 6
     -2422.080 6     -1883.873 6        36.750          37.500
  23442188.362 6                                                  23442194.484 5
       842.198 6       655.104 5        37.500          33.000
 19  3 19 19 46 28.0000000  0 13G26G30G07G08R19R08G27G16R10R18R09R16
                                R01
  24347094.902 6 127944839.71206  99697286.74602  24347094.970 2  24347094.421 5
     -2564.297 6     -1998.134 2        41.500          17.500
  23450502.081 6 123233221.14806  96025902.31903  23450503.393 3  23450505.035 6
      3741.036 6      2915.091 3        40.500          18.750
  21124410.325 8 111009525.34008  86500919.42905  21124408.692 5  21124410.164 6
      2426.282 8      1890.609 5        49.500          33.000
  20296294.985 8 106657748.59808  83109923.01606  20296296.525 6  20296298.222 7
      1356.108 8      1056.707 6        49.750          37.000
  19379000.939 7 103664587.25807  80628028.50306                  19379004.465 6
      1057.568 7       822.617 6        42.750          39.750
  23190253.823 6 124182757.00006  96586614.82105                  23190257.823 5
     -1728.433 6     -1344.247 5        38.500          35.000
  20485614.575 8 107652630.49508  83885181.22006  20485615.381 6  20485616.738 7
      -963.487 8      -750.767 6        51.000          38.750
  22039036.676 7 115815917.78807  90246160.53604  22039032.958 4
     -2082.469 7     -1622.702 4        46.250          26.500
  21692220.026 7 115631752.08807  89935830.03806                  21692227.360 6
      3776.870 7      2937.456 6        43.000          36.500
  21425892.339 8 114372859.04708  88956697.03807                  21425896.071 7
     -2829.277 8     -2200.514 7        48.250          43.250
  19314537.376 7 103138550.70607  80218890.82908                  19314541.471 8
      1305.045 7      1015.083 8        47.250          50.250
  21496584.160 6 114830897.17406  89312941.59806                  21496588.380 6
     -2422.248 6     -1884.082 6        36.750          38.000
  23442031.333 6                                                  23442036.965 5
       841.271 6       654.205 5        38.250          33.000
 19  3 19 19 46 29.0000000  0 13G26G30G07G08R19R08G27G16R10R18R09R16
                                R01
  24347582.882 6 127947403.85106  99699284.77302  24347582.846 2  24347581.639 5
     -2564.004 6     -1997.923 2        41.250          17.750
  23449790.390 6 123229480.22106  96022987.30803  23449791.444 3  23449792.615 6
      3741.152 6      2915.175 3        40.500          19.000
  21123948.571 8 111007099.16608  86499028.90405  21123946.997 5  21123948.367 6
      2426.281 8      1890.613 5        49.500          33.000
  20296037.006 8 106656392.69008  83108866.46306  20296038.548 6  20296040.096 7
      1355.906 8      1056.555 6        49.750          37.000
  19378803.486 7 103663530.13507  80627206.30206                  19378806.988 6
      1056.977 7       822.116 6        42.750          39.750
  23190576.848 6 124184485.70706  96587959.36905                  23190580.166 5
     -1728.718 6     -1344.555 5        38.250          35.750
  20485797.968 8 107653594.15608  83885932.12506  20485798.731 6  20485800.124 7
      -963.661 8      -750.900 6        51.000          38.750
  22039432.957 7 115818000.25107  90247783.23504  22039429.215 4
     -2082.310 7     -1622.574 4        46.000          26.250
  21691511.433 7 115627975.13507  89932892.43606                  21691518.988 6
      3777.161 7      2937.844 6        43.000          36.000
  21426422.451 8 114375688.47408  88958897.69007                  21426426.278 7
     -2829.357 8     -2200.457 7        48.500          42.750
  19314293.106 7 103137245.80207  80217875.90008                  19314297.045 8
      1304.921 7      1015.036 8        47.500          50.000
  21497038.000 6 114833319.65806  89314825.72406                  21497041.674 6
     -2422.394 6     -1884.075 6        36.750          38.250
  23441874.162 6 125310252.53206  97463646.54005                  23441878.778 5
       840.704 6       654.089 5        39.000          33.750
 19  3 19 19 46 30.0000000  0 13G26G30G07G08R19R08G27G16R10R18R09R16
                                R01
  24348070.713 6 127949968.19606  99701282.97903  24348070.763 3  24348069.031 6
     -2564.423 6     -1998.271 3        41.250          18.000
  23449078.683 6 123225739.59906  96020072.53703  23449079.624 3  23449080.290 6
      3740.393 6      2914.591 3        40.250          19.250
  21123487.014 8 111004673.57508  86497138.83705  21123485.423 5  21123486.161 7
      2425.152 8      1889.728 5        49.250          33.250
  20295779.141 8 106655037.48708  83107810.46406  20295780.701 6  20295781.654 8
      1354.774 8      1055.665 6        49.500          37.500
  19378605.962 7 103662474.02707  80626384.88106                  19378609.418 6
      1055.490 7       820.980 6        42.750          40.000
  23190900.394 6 124186215.15606  96589304.50405                  23190903.454 5
     -1729.800 6     -1345.670 5        37.750          35.750
  20485981.433 8 107654558.48308  83886683.55106  20485982.229 6  20485983.206 8
      -964.760 8      -751.766 6        50.750          39.000
  22039829.081 7 115820083.02907  90249406.18404  22039825.535 4
     -2083.101 7     -1623.193 4        46.000          26.750
  21690802.697 7 115624198.46107  89929955.00906                  21690810.675 6
      3776.371 7      2937.226 6        43.250          36.000
  21426952.753 8 114378518.54208  88961098.84607                  21426956.138 7
     -2830.490 8     -2201.439 7        48.500          42.250
  19314049.053 7 103135941.55807  80216861.48508                  19314052.804 8
      1303.848 7      1014.043 8        47.500          49.750
  21497491.648 6 114835742.62006  89316710.25006                  21497495.456 6
     -2423.220 6     -1884.875 6        36.750          38.000
  23441717.420 6 125309412.59106  97462993.24305                  23441721.722 5
       839.440 6       652.886 5        39.000          33.500
 19  3 19 19 46 31.0000000  0 13G26G30G07G08R19R08G27G16R10R18R09R16
                                R01
  24348558.564 6 127952532.69206  99703281.30003  24348558.787 3  24348556.369 6
     -2565.102 6     -1998.787 3        41.000          18.500
  23448366.943 6 123221999.28206  96017158.00403  23448367.791 3  23448368.317 6
      3739.518 6      2913.905 3        40.000          19.500
  21123025.507 8 111002248.53008  86495249.19305  21123023.956 5  21123024.241 7
      2424.212 8      1888.989 5        49.500          33.500
  20295521.404 8 106653682.96308  83106754.99106  20295522.979 6  20295523.372 8
      1353.592 8      1054.749 6        49.750          37.750
  19378408.567 7 103661418.89207  80625564.22106                  19378412.637 6
      1053.985 7       819.752 6        42.500          40.000
  23191223.237 6 124187945.31606  96590650.18705                  23191226.549 5
     -1731.101 6     -1346.374 5        38.250          35.750
  20486165.056 8 107655523.46108  83887435.48406  20486165.843 6  20486166.392 8
      -965.966 8      -752.703 6        51.000          39.250
  22040225.422 7 115822166.08607  90251029.34104  22040221.891 4
     -2083.806 7     -1623.739 4        45.750          26.750
  21690094.222 7 115620422.03907  89927017.82206                  21690102.491 6
      3775.639 7      2936.703 6        43.000          36.000
  21427483.198 8 114381349.25808  88963300.51307                  21427486.539 7
     -2831.685 8     -2202.511 7        48.250          42.500
  19313805.067 7 103134637.92607  80215847.55208                  19313808.656 8
      1302.685 7      1013.173 8        47.500          49.750
  21497945.518 6 114838166.02306  89318595.10206                  21497949.831 6
     -2424.271 6     -1885.343 6        37.000          37.750
  23441561.026 6 125308573.59006  97462340.72205                  23441564.589 5
       837.857 6       651.473 5        38.750          33.750
 19  3 19 19 46 32.0000000  0 13G26G30G07G08R19R08G27G16R10R18R09R16
                                R01
  24349046.518 6 127955097.54306  99705279.88803  24349046.828 3  24349043.588 4
     -2564.406 6     -1998.232 3        40.750          18.250
  23447655.240 6 123218259.39106  96014243.82703  23447656.101 3  23447656.785 5
      3740.406 6      2914.528 3        39.750          19.250
  21122564.144 8 110999824.19908  86493360.10605  21122562.610 5  21122562.125 6
      2424.613 8      1889.311 5        49.000          33.250
  20295263.815 8 106652329.29908  83105700.18706  20295265.413 6  20295265.250 6
      1353.831 8      1054.935 6        49.000          37.500
  19378211.195 7 103660364.94107  80624744.50005                  19378215.746 5
      1054.002 7       819.437 5        42.250          31.750
  23191546.195 6 124189676.37606  96591998.13504                  23191551.681 4
     -1730.857 6     -1354.155 4        37.000          27.000
  20486348.849 8 107656489.25408  83888188.05006  20486349.604 6  20486350.137 6
      -965.568 8      -752.392 6        50.500          38.500
  22040621.847 7 115824249.61007  90252652.86304  22040618.336 4
     -2083.134 7     -1623.212 4        45.250          26.500
  21689385.955 7 115616646.02507
      3776.468 7                        43.000
  21428013.759 8 114384180.81508  88965502.80505                  21428017.228 5
     -2831.310 8     -2201.675 5        48.000          34.000
  19313561.080 7 103133335.07607  80214834.21606                  19313564.594 6
      1303.143 7      1013.757 6        47.250          40.750
  21498399.714 6 114840590.09706  89320480.53304                  21498404.937 4
     -2423.900 6     -1885.585 4        37.000          29.000
  23441404.398 6 125307735.68706                                  23441406.243 3
       838.111 6       650.605 3        38.500          18.750
 19  3 19 19 46 33.0000000  0 13G26G30G07G08R19R08G27G16R10R18R09R16
                                R01
  24349534.701 6 127957663.11006  99707279.02303  24349534.991 3  24349532.558 5
     -2565.477 6     -1999.070 3        41.000          18.000
  23446943.705 6 123214520.38006  96011330.31303  23446944.554 3  23446945.812 5
      3739.211 6      2913.693 3        40.000          19.250
  21122103.091 8 110997400.98608  86491471.88705  21122101.482 5  21122101.439 6
      2423.254 8      1888.251 5        49.250          32.750
  20295006.496 8 106650976.88808  83104646.36106  20295008.085 6  20295008.135 7
      1352.388 8      1053.806 6        49.500          37.000
  19378014.699 7 103659312.59607  80623925.99906                  19378018.858 6
      1052.206 7       818.397 6        42.500          39.750
  23191870.110 6 124191408.71206                                  23191874.091 5
     -1732.392 6     -1347.725 5        38.000          35.750
  20486532.909 8 107657456.25608  83888941.55606  20486533.602 6  20486534.350 7
      -967.006 8      -753.513 6        50.750          38.500
  22041018.501 7 115826333.98407  90254277.05004  22041014.991 4
     -2084.180 7     -1624.042 4        45.500          26.000
  21688677.633 7 115612870.83307  89921144.69205                  21688684.290 5
      3775.333 7      2936.013 5        43.250          35.500
  21428544.430 8 114387013.57208  88967706.09607                  21428548.005 7
     -2832.697 8     -2203.254 7        48.250          42.750
  19313317.377 7 103132033.45407  80213821.86508                  19313320.696 8
      1301.646 7      1012.345 8        47.500          49.500
  21498853.847 6 114843015.17206  89322366.73006                  21498859.401 6
     -2425.024 6     -1885.985 6        37.500          37.750
  23441247.749 6 125306899.30706                                  23441250.573 5
       836.185 6       650.055 5        38.750          34.000
 19  3 19 19 46 34.0000000  0 13G26G30G07G08R19R08G27G16R10R18R09R16
                                R01
  24350022.760 6 127960228.96806  99709278.38602  24350023.118 2  24350021.149 6
     -2566.417 6     -1999.785 2        41.000          17.750
  23446232.187 6 123210781.78906  96008417.11703  23446233.097 3  23446234.083 6
      3737.936 6      2912.688 3        40.250          19.250
  21121642.075 8 110994978.46808  86489584.21105  21121640.481 5  21121640.454 7
      2421.851 8      1887.154 5        49.250          33.000
  20294749.245 8 106649625.31108  83103593.18406  20294750.904 6  20294750.913 8
      1350.786 8      1052.558 6        49.500          37.250
  19377818.197 7 103658261.43807  80623108.42906                  19377822.475 6
      1050.101 7       816.993 6        42.500          40.000
  23192193.979 6 124193141.93606                                  23192198.324 6
     -1734.041 6     -1348.584 6        37.250          36.250
  20486717.045 8 107658424.05208  83889695.68306  20486717.757 6  20486718.451 8
      -968.546 8      -754.713 6        50.750          38.750
  22041415.266 7 115828418.79107  90255901.58004  22041411.736 4
     -2085.372 7     -1624.965 4        45.500          26.500
  21687969.539 7 115609096.02907  89918208.71206                  21687977.025 6
      3774.231 7      2935.302 6        43.000          36.000
  21429075.027 8 114389847.11908  88969909.95307                  21429078.655 7
     -2834.263 8     -2204.363 7        48.000          42.500
  19313073.870 7 103130732.57407  80212810.06008                  19313077.018 8
      1300.184 7      1011.181 8        47.250          49.750
  21499307.895 6 114845440.86206  89324253.35906                  21499312.874 6
     -2426.320 6     -1887.350 6        37.250          37.250
  23441090.983 6 125306063.99606                                  23441095.112 5
       834.432 6       649.112 5        38.750          34.250
 19  3 19 19 46 35.0000000  0 13G26G30G07G08R19R08G27G16R10R18R09R16
                                R01
  24350511.027 6 127962794.71606  99711277.66903  24350511.307 3  24350508.845 6
     -2565.781 6     -1999.310 3        40.500          18.250
  23445520.740 6 123207043.21206  96005503.93503  23445521.585 3  23445522.650 6
      3738.559 6      2913.163 3        40.250          19.750
  21121181.086 8 110992556.20908  86487696.73805  21121179.532 5  21121179.395 7
      2422.016 8      1887.285 5        49.250          33.500
  20294492.094 8 106648274.14308  83102540.32706  20294493.799 6  20294493.503 8
      1350.817 8      1052.582 6        49.750          37.750
  19377621.724 7 103657211.00407  80622291.43806                  19377625.707 6
      1050.027 7       816.575 6        42.500          41.750
  23192517.355 6 124194875.61406  96596031.40715                  23192522.222 5
     -1733.983 6     -1348.620 5        37.000          32.750
  20486901.218 8 107659392.19908  83890450.08506  20486901.966 6  20486902.382 8
      -968.500 8      -754.679 6        50.750          39.000
  22041812.101 7 115830503.60307  90257526.10504  22041808.476 4
     -2084.938 7     -1624.626 4        45.500          26.750
  21687261.380 7 115605321.17807  89915272.68506                  21687268.827 6
      3774.710 7      2936.033 6        43.000          36.000
  21429605.815 8 114392681.01408  88972114.08807                  21429609.489 7
     -2834.213 8     -2204.524 7        48.000          42.000
  19312830.147 7 103129432.00407  80211798.49108                  19312833.444 8
      1300.238 7      1011.280 8        47.500          48.750
  21499762.165 6 114847866.72606  89326140.11006                  21499766.439 6
     -2426.068 6     -1886.658 6        37.500          37.000
  23440934.525 6 125305229.33606  97459636.59115                  23440939.115 5
       834.226 6       648.753 5        39.250          34.750
 19  3 19 19 46 36.0000000  0 13G26G30G07G08R19R08G27G16R10R18R09R16
                                R01
  24350999.326 6 127965360.37106  99713276.88003  24350999.506 3  24350996.978 6
     -2565.763 6     -1999.312 3        40.500          18.500
  23444809.347 6 123203304.69706  96002590.81103  23444810.195 3  23444810.824 6
      3738.207 6      2912.884 3        40.500          20.000
  21120720.258 8 110990134.27208  86485809.51405  21120718.651 5  21120718.446 7
      2421.492 8      1886.878 5        49.250          33.750
  20294235.065 8 106646923.42408  83101487.82106  20294236.788 6  20294236.285 8
      1350.260 8      1052.150 6        49.750          38.000
  19377425.674 7 103656161.39407  80621475.07207                  19377429.450 7
      1048.983 7       815.743 7        42.500          42.000
  23192841.525 6 124196609.80806  96597380.25405                  23192845.891 5
     -1734.695 6     -1349.319 5        37.000          32.000
  20487085.542 8 107660360.77108  83891204.81806  20487086.241 6  20487086.448 8
      -969.041 8      -755.096 6        51.000          39.250
  22042208.859 7 115832588.47007  90259150.67904  22042205.221 4
     -2085.092 7     -1624.750 4        45.500          27.000
  21686553.375 7 115601546.34807  89912336.71806                  21686561.043 6
      3774.480 7      2935.592 6        42.500          36.500
  21430136.666 8 114395515.32608  88974318.55407                  21430140.617 7
     -2834.748 8     -2204.776 7        48.000          42.000
  19312586.670 7 103128131.83307  80210787.24508                  19312590.323 8
      1299.704 7      1010.850 8        47.500          48.500
  21500215.966 6 114850292.80706  89328027.09406                  21500220.591 6
     -2426.324 6     -1887.322 6        37.500          37.000
  23440777.931 6 125304395.39206  97458987.99805                  23440783.780 5
       833.342 6       647.705 5        38.500          34.750
 19  3 19 19 46 37.0000000  0 13G26G30G07G08R19R08G27G16R10R18R09R16
                                R01
  24351487.578 6 127967926.10706  99715276.16003  24351487.762 3  24351485.404 5
     -2565.351 6     -1998.976 3        40.500          19.000
  23444097.887 6 123199566.35106  95999677.81903  23444098.845 3  23444099.398 6
      3738.539 6      2913.147 3        40.500          20.500
  21120259.428 8 110987712.76508  86483922.62605  21120257.850 5  21120257.583 7
      2421.597 8      1886.951 5        49.250          34.000
  20293978.122 8 106645573.28008  83100435.76206  20293979.880 6  20293979.307 7
      1350.110 8      1052.031 6        49.750          38.250
  19377229.563 7 103655112.70607  80620659.43007                  19377233.431 7
      1048.591 7       815.477 7        42.500          42.250
  23193164.977 6 124198344.62706  96598729.49505                  23193169.494 5
     -1734.869 6     -1349.312 5        37.250          32.250
  20487269.978 8 107661329.86708  83891959.95906  20487270.628 6  20487270.753 7
      -969.000 8      -755.067 6        51.000          39.500
  22042605.608 7 115834673.52407  90260775.39404  22042601.984 4
     -2084.812 7     -1624.530 4        45.500          27.250
  21685845.277 7 115597771.61807  89909400.80506                  21685853.607 6
      3775.073 7      2935.896 6        42.500          36.000
  21430667.559 7 114398350.16807  88976523.42807                  21430671.685 7
     -2834.784 7     -2204.884 7        47.750          42.250
  19312343.367 7 103126832.16607  80209776.39608                  19312347.123 8
      1299.706 7      1010.901 8        47.500          48.500
  21500670.054 6 114852719.24806  89329914.30106                  21500674.510 6
     -2426.056 6     -1887.235 6        37.250          37.250
  23440621.659 6 125303562.27506  97458340.00005                  23440627.036 5
       833.005 6       647.798 5        38.750          34.750
 19  3 19 19 46 38.0000000  0 13G26G30G07G08R19R08G27G16R10R18R09R16
                                R01
  24351975.750 6 127970492.12906  99717275.65003  24351976.103 3  24351974.741 5
     -2567.022 6     -2000.270 3        40.250          18.750
  23443386.620 6 123195828.39906  95996765.12403  23443387.499 3  23443387.926 6
      3737.000 6      2911.964 3        40.250          20.500
  21119798.696 8 110985291.92708  86482036.26005  21119797.179 5  21119797.099 6
      2419.739 8      1885.509 5        49.250          33.750
  20293721.315 8 106644223.92008  83099384.31306  20293723.110 6  20293722.729 7
      1348.163 8      1050.516 6        49.750          38.250
  19377033.922 7 103654065.17107  80619844.67107                  19377037.634 7
      1046.051 7       813.709 7        42.500          42.000
  23193488.755 6                                                  23193493.855 5
     -1737.094 6     -1350.901 5        37.250          32.250
  20487454.560 8 107662299.73908  83892715.70506  20487455.154 6  20487455.368 7
      -971.044 8      -756.656 6        51.000          39.500
  22043002.451 7 115836758.96907  90262400.41304  22042998.840 4
     -2086.402 7     -1625.772 4        45.500          27.250
  21685137.445 7 115593997.26007  89906465.18706                  21685145.001 6
      3773.452 7      2935.061 6        42.500          36.500
  21431198.511 7 114401185.77207  88978728.88907                  21431203.130 7
     -2836.764 7     -2206.295 7        47.500          42.250
  19312100.048 7 103125533.23607  80208766.11108                  19312103.770 8
      1297.785 7      1009.391 8        47.500          48.500
  21501124.288 6 114855146.28806  89331801.96806                  21501128.492 6
     -2428.188 6     -1888.487 6        37.750          37.000
  23440465.884 6 125302730.20906  97457692.85805                  23440470.637 5
       830.834 6       645.969 5        38.750          34.500
 19  3 19 19 46 39.0000000  0 13G26G30G07G08R19R08G27G16R10R18R09R16
                                R01
  24352464.076 6 127973058.31406  99719275.27303  24352464.476 3  24352462.656 5
     -2566.148 6     -1999.603 3        40.000          19.000
  23442675.254 6 123192090.79606  95993852.70303  23442676.158 3  23442676.845 6
      3737.521 6      2912.348 3        40.250          20.750
  21119338.156 8 110982871.66708  86480150.34305  21119336.607 5  21119336.742 6
      2420.081 8      1885.773 5        49.250          34.000
  20293464.643 8 106642875.27408  83098333.42006  20293466.488 6  20293466.247 7
      1348.421 8      1050.714 6        49.750          38.500
  19376838.254 7 103653018.64707  80619030.72707                  19376841.974 7
      1046.228 7       813.647 7        42.500          42.000
  23193813.770 6                                                  23193818.733 5
     -1736.564 6     -1350.578 5        37.500          32.000
  20487639.302 8 107663270.27508  83893471.96806  20487639.810 6  20487640.005 7
      -970.759 8      -756.440 6        51.000          39.750
  22043399.350 7 115838844.73207  90264025.68104  22043395.759 4
     -2085.749 7     -1625.268 4        45.500          27.250
  21684429.506 7 115590223.17007  89903529.76706                  21684436.654 6
      3774.104 7      2935.595 6        42.500          36.250
  21431729.762 7 114404022.05307  88980934.89207                  21431734.320 7
     -2836.443 7     -2206.141 7        47.250          43.000
  19311857.054 7 103124234.95107  80207756.32808                  19311860.601 8
      1298.021 7      1009.595 8        47.500          48.750
  21501578.762 6 114857573.78306  89333690.03406                  21501582.462 6
     -2427.573 6     -1888.179 6        38.000          37.500
  23440309.979 6 125301899.10806  97457046.38905                  23440315.340 5
       830.588 6       646.473 5        38.500          35.000
 19  3 19 19 46 40.0000000  0 13G26G30G07G08R19R08G27G16R10R18R09R16
                                R01
  24352952.258 6 127975624.30506  99721274.74403  24352952.759 3  24352951.148 5
     -2565.875 6     -1999.393 3        40.250          19.250
  23441963.746 6 123188353.07406  95990940.19803  23441964.875 3  23441965.687 6
      3737.750 6      2912.540 3        40.500          20.750
  21118877.614 8 110980451.56808  86478264.55405  21118876.070 5  21118876.406 7
      2420.014 8      1885.723 5        49.250          34.000
  20293208.065 8 106641526.93508  83097282.76706  20293209.920 6  20293209.770 7
      1348.153 8      1050.508 6        49.750          38.500
  19376642.463 7 103651972.73407  80618217.23007                  19376646.107 7
      1045.645 7       813.274 7        42.750          42.000
  23194138.295 6                                                  23194143.199 5
     -1737.122 6     -1350.760 5        38.000          32.500
  20487824.049 8 107664241.07608  83894228.43506  20487824.506 6  20487824.637 7
      -970.934 8      -756.571 6        51.250          39.750
  22043796.221 7 115840930.40507  90265650.88204  22043792.656 4
     -2085.617 7     -1625.155 4        45.500          27.250
  21683721.481 7 115586448.91207  89900594.26506                  21683729.010 6
      3774.332 7      2935.628 6        42.750          36.500
  21432260.935 7 114406858.57807  88983141.06207                  21432265.233 7
     -2836.645 7     -2206.153 7        47.000          43.000
  19311614.025 7 103122936.86307  80206746.70808                  19311617.653 8
      1297.995 7      1009.532 8        47.750          48.750
  21502033.095 6 114860001.37906  89335578.15206                  21502036.724 6
     -2427.511 6     -1887.917 6        37.750          37.250
  23440154.445 6 125301068.51506  97456400.41805                  23440160.235 5
       830.416 6       645.720 5        38.500          35.000
 19  3 19 19 46 41.0000000  0 13G26G30G07G08R19R08G27G16R10R18R09R16
                                R01
  24353440.442 6 127978190.87706  99723274.66703  24353441.123 3  24353439.443 5
     -2566.419 6     -1999.808 3        40.000          19.500
  23441252.638 6 123184616.07806  95988028.25303  23441253.712 3  23441254.110 6
      3736.906 6      2911.864 3        40.500          21.000
  21118417.291 8 110978032.45108  86476379.52805  21118415.707 5  21118416.125 6
      2418.960 8      1884.910 5        49.500          34.250
  20292951.679 8 106640179.69808  83096232.97306  20292953.553 6  20292953.590 7
      1347.060 8      1049.660 6        49.750          38.750
  19376447.446 7 103650928.24807  80617404.86107                  19376450.743 7
      1044.168 7       812.141 7        42.750          42.250
  23194462.776 6 124205291.30206  96604132.42105                  23194467.919 5
     -1738.227 6     -1351.829 5        38.250          32.000
  20488009.027 8 107665212.95108  83894985.74006  20488009.425 6  20488009.617 7
      -972.064 8      -757.445 6        51.250          39.750
  22044193.414 7 115843016.77807  90267276.62404  22044189.674 4
     -2086.347 7     -1625.715 4        45.500          27.500
  21683013.496 7 115582675.32507  89897659.28406                  21683020.859 6
      3773.760 7      2934.822 6        42.500          37.000
  21432792.379 7 114409696.18807  88985348.10107                  21432796.981 7
     -2837.820 7     -2207.236 7        47.000          43.000
  19311371.266 7 103121639.85507  80205737.92408                  19311374.896 8
      1296.822 7      1008.682 8        47.750          48.750
  21502487.907 6 114862429.87506  89337466.99106                  21502491.026 6
     -2428.602 6     -1888.825 6        37.750          37.250
  23439999.475 6 125300239.29306  97455755.47505                  23440004.796 5
       828.915 6       644.570 5        38.500          35.000
 19  3 19 19 46 42.0000000  0 13G26G30G07G08R19R08G27G16R10R18R09R16
                                R01
  24353928.990 6 127980757.59806  99725274.71303  24353929.621 3  24353928.210 5
     -2566.803 6     -2000.108 3        40.000          19.750
  23440541.820 6 123180879.35106  95985116.51903  23440542.630 3  23440543.133 6
      3736.579 6      2911.622 3        40.500          21.000
  21117957.030 8 110975613.86208  86474494.91405  21117955.434 5  21117955.734 6
      2418.248 8      1884.349 5        49.250          34.250
  20292695.477 8 106638833.12208  83095183.69106  20292697.311 6  20292697.397 7
      1346.175 8      1048.969 6        49.750          38.750
  19376252.643 7 103649884.79907  80616593.28407                  19376255.431 7
      1042.903 7       811.042 7        42.750          42.000
  23194787.475 6 124207029.93806  96605484.70305                  23194792.798 5
     -1739.042 6     -1352.538 5        38.500          31.750
  20488194.091 8 107666185.44708  83895743.52606  20488194.461 6  20488194.724 7
      -972.888 8      -758.094 6        51.500          39.750
  22044590.531 7 115845103.41707  90268902.57704  22044586.749 4
     -2086.847 7     -1626.118 4        45.250          27.500
  21682305.606 7 115578901.97207  89894724.43606                  21682312.897 6
      3773.097 7      2934.858 6        42.750          36.500
  21433323.952 7 114412534.40507  88987555.61207                  21433328.301 7
     -2838.632 7     -2207.732 7        47.000          42.750
  19311128.401 7 103120343.44207  80204729.60408                  19311132.140 8
      1296.052 7      1008.056 8        47.750          48.500
  21502942.603 6 114864858.79906  89339356.12106                  21502945.710 6
     -2429.030 6     -1889.242 6        37.750          37.250
  23439844.471 6 125299410.97006  97455111.21905                  23439850.571 5
       827.726 6       643.688 5        38.250          34.750
 19  3 19 19 46 43.0000000  0 13G26G30G07G08R19R08G27G16R10R18R09R16
                                R01
  24354417.522 6 127983324.76706  99727275.10703  24354418.195 3  24354416.961 5
     -2567.829 6     -2000.896 3        40.000          19.500
  23439830.864 6 123177143.19806  95982205.23403  23439831.709 3  23439832.641 6
      3735.437 6      2910.741 3        40.500          21.000
  21117496.938 8 110973196.11308  86472610.95305  21117495.349 5  21117495.818 6
      2417.002 8      1883.381 5        49.500          34.000
  20292439.428 8 106637487.51008  83094135.16306  20292441.257 6  20292441.334 7
      1344.773 8      1047.873 6        49.750          38.500
  19376057.669 7 103648842.70507  80615782.75607                  19376060.536 7
      1041.006 7       809.657 7        42.750          42.000
  23195112.528 6 124208769.61606  96606837.76505                  23195117.736 5
     -1740.474 6     -1353.839 5        38.750          31.500
  20488379.339 8 107667158.88108  83896502.04706  20488379.680 6  20488380.006 7
      -974.251 8      -759.155 6        51.500          39.750
  22044987.716 7 115847190.63307  90270528.98204  22044983.945 4
     -2087.833 7     -1626.896 4        45.500          27.500
  21681597.867 7                                                  21681605.632 6
      3772.141 7      2933.934 6        42.750          36.500
  21433855.795 7 114415373.57907  88989763.85707                  21433859.697 7
     -2840.030 7     -2208.904 7        46.750          43.000
  19310885.798 7 103119047.94607  80203721.99708                  19310889.460 8
      1294.630 7      1006.931 8        47.500          48.500
  21503397.213 6 114867288.45106  89341245.87806                  21503401.347 6
     -2430.445 6     -1890.273 6        37.750          37.250
  23439690.176 6 125298583.88606  97454467.93405                  23439695.527 5
       826.094 6       642.290 5        38.000          34.750
 19  3 19 19 46 44.0000000  0 13G26G30G07G08R19R08G27G16R10R18R09R16
                                R01
  24354905.812 6 127985891.70906  99729275.30303  24354906.796 3  24354905.483 5
     -2567.094 6     -2000.319 3        39.750          19.750
  23439119.870 6 123173406.98106  95979293.89303  23439120.739 3  23439121.698 6
      3736.008 6      2911.170 3        40.750          21.000
  21117036.907 8 110970778.54708  86470727.13705  21117035.313 5  21117035.794 7
      2417.224 8      1883.549 5        49.500          34.250
  20292183.500 8 106636142.21208  83093086.88006  20292185.252 6  20292185.362 7
      1344.871 8      1047.950 6        49.750          38.750
  19375863.229 7 103647801.31507  80614972.78407                  19375865.814 7
      1040.795 7       809.569 7        42.750          42.250
  23195437.218 6 124210509.64006  96608191.13505                  23195442.368 5
     -1740.391 6     -1353.843 5        39.000          31.500
  20488564.680 8 107668132.58908  83897260.78106  20488564.935 6  20488565.392 7
      -974.097 8      -759.041 6        51.750          39.750
  22045385.078 7 115849277.76807  90272155.32604  22045381.128 4
     -2087.288 7     -1626.461 4        45.250          27.750
  21680890.056 7                                                  21680897.446 6
      3772.728 7      2934.319 6        43.000          36.750
  21434387.774 7 114418212.99707  88991972.29707                  21434391.854 7
     -2839.773 7     -2208.757 7        46.500          43.250
  19310643.144 7 103117752.69007  80202714.58008                  19310646.857 8
      1294.890 7      1007.132 8        47.750          48.500
  21503851.955 6 114869718.20706  89343135.68606                  21503856.679 6
     -2430.025 6     -1890.136 6        37.500          37.500
  23439535.452 6 125297757.35306  97453825.06605                  23439540.826 5
       825.934 6       642.271 5        38.500          34.750
 19  3 19 19 46 45.0000000  0 13G26G30G07G08R19R08G27G16R10R18R09R16
                                R01
  24355394.399 6 127988458.33706  99731275.27403  24355395.294 3  24355393.589 5
     -2567.121 6     -2000.360 3        39.750          19.750
  23438408.884 6 123169670.54706  95976382.39203  23438409.716 3  23438411.017 6
      3735.825 6      2911.025 3        40.750          20.750
  21116576.877 8 110968361.02408  86468843.35405  21116575.263 5  21116575.751 6
      2416.838 8      1883.248 5        49.500          34.250
  20291927.508 8 106634797.10008  83092038.74106  20291929.274 6  20291929.359 7
      1344.330 8      1047.529 6        49.750          38.750
  19375668.402 7 103646760.47007  80614163.24006                  19375671.184 6
      1039.879 7       808.839 6        42.750          41.500
  23195761.731 6 124212249.87906  96609544.63605                  23195767.372 5
     -1740.985 6     -1354.052 5        39.250          32.250
  20488749.992 8 107669106.43708  83898019.62206  20488750.217 6  20488750.826 7
      -974.589 8      -759.430 6        51.500          39.750
  22045782.243 7 115851364.69207  90273781.50104  22045778.276 4
     -2087.500 7     -1626.632 4        45.000          27.750
  21680182.184 7 115567582.95007  89885920.75106                  21680189.560 6
      3772.676 7      2934.161 6        43.250          36.500
  21434919.667 7 114421052.55607  88994180.82107                  21434923.816 7
     -2840.393 7     -2209.071 7        46.500          43.250
  19310400.539 7 103116457.53507  80201707.22908                  19310404.407 8
      1294.501 7      1006.932 8        47.750          48.500
  21504306.346 6 114872147.93706  89345025.47506                  21504311.852 6
     -2430.320 6     -1890.422 6        37.500          37.500
  23439380.642 6 125296931.24706  97453182.52105                  23439386.988 5
       825.248 6       641.809 5        38.250          34.000
 19  3 19 19 46 46.0000000  0 13G26G30G07G08R19R08G27G16R10R18R09R16
                                R01
  24355883.020 6 127991025.60306  99733275.74803  24355883.805 3  24355881.995 5
     -2566.605 6     -1999.960 3        39.500          19.500
  23437698.055 6 123165934.90506  95973471.50103  23437698.956 3  23437700.152 6
      3736.259 6      2911.377 3        40.750          20.750
  21116116.934 8 110965944.54908  86466960.38305  21116115.415 5  21116116.060 7
      2416.815 8      1883.236 5        49.500          34.250
  20291671.781 8 106633453.16808  83090991.51906  20291673.538 6  20291673.787 7
      1344.227 8      1047.453 6        49.500          38.750
  19375474.016 7 103645721.11507  80613354.87106                  19375477.113 6
      1039.500 7       808.469 6        42.750          40.750
  23196086.657 6 124213991.36906  96610899.18805                  23196092.249 5
     -1741.228 6     -1354.226 5        39.250          34.000
  20488935.556 8 107670081.42708  83898779.35306  20488935.736 6  20488936.387 7
      -974.783 8      -759.571 6        51.500          39.750
  22046179.450 7 115853452.38207  90275408.27204  22046175.512 4
     -2087.200 7     -1626.389 4        45.000          27.500
  21679474.537 7 115563810.47107  89882986.61106                  21679482.413 6
      3772.999 7      2934.399 6        43.250          36.250
  21435451.774 7 114423893.26207  88996390.29307                  21435455.935 7
     -2840.394 7     -2209.306 7        46.750          44.000
  19310158.253 7 103115163.50307  80200700.76908                  19310161.844 8
      1294.320 7      1006.741 8        47.750          49.000
  21504761.101 6 114874578.62206  89346915.99406                  21504766.987 6
     -2430.412 6     -1890.138 6        37.500          38.250
  23439226.587 6 125296106.58106  97452541.09905                  23439232.364 5
       824.631 6       641.704 5        38.250          33.750
 19  3 19 19 46 47.0000000  0 13G26G30G07G08R19R08G27G16R10R18R09R16
                                R01
  24356371.553 6 127993592.72306  99735276.10203  24356372.303 3  24356370.272 5
     -2567.632 6     -2000.751 3        39.750          19.500
  23436987.361 6 123162199.20506  95970560.57103  23436988.088 3  23436989.138 6
      3735.161 6      2910.513 3        40.750          21.000
  21115657.089 8 110963528.28508  86465077.58005  21115655.616 5  21115656.327 7
      2415.696 8      1882.361 5        49.750          34.250
  20291416.081 8 106632109.58608  83089944.57306  20291417.864 6  20291418.153 7
      1342.976 8      1046.474 6        49.750          39.000
  19375280.043 7 103644682.41107  80612546.99706                  19375282.890 6
      1037.948 7       807.266 6        43.000          41.000
  23196411.864 6 124215733.24306  96612253.98805                  23196416.712 5
     -1742.606 6     -1355.176 5        39.250          34.250
  20489121.210 8 107671056.72408  83899539.32606  20489121.317 6  20489122.150 7
      -976.005 8      -760.521 6        51.500          40.000
  22046576.619 7 115855540.03007  90277035.01304  22046572.726 4
     -2088.107 7     -1627.095 4        45.250          27.500
  21678766.771 7 115560037.91107  89880052.37606                  21678774.696 6
      3772.121 7      2934.156 6        43.250          36.000
  21435984.059 7 114426734.26507  88998599.95207                  21435988.140 7
     -2841.703 7     -2210.140 7        46.750          44.000
  19309915.978 7 103113869.73207  80199694.50508                  19309919.560 8
      1293.118 7      1005.773 8        47.750          49.000
  21505216.348 6 114877009.37606  89348806.60706                  21505221.626 6
     -2431.129 6     -1891.015 6        37.500          38.250
  23439071.948 6 125295282.49106  97451900.14205                  23439078.452 5
       823.237 6       640.430 5        38.000          34.500
 19  3 19 19 46 48.0000000  0 13G26G30G07G08R19R08G27G16R10R18R09R16
                                R01
  24356860.225 6 127996160.52106  99737276.98003  24356860.953 3  24356858.986 6
     -2568.052 6     -2001.068 3        39.750          19.000
  23436276.654 6 123158464.33606  95967650.29003  23436277.360 3  23436278.284 6
      3734.409 6      2909.938 3        40.500          21.000
  21115197.519 8 110961113.09608  86463195.61305  21115196.018 5  21115196.354 7
      2414.725 8      1881.604 5        49.750          34.250
  20291160.595 8 106630767.20408  83088898.56106  20291162.422 6  20291162.549 8
      1341.874 8      1045.616 6        49.750          38.750
  19375086.162 7 103643645.22507  80611740.29906                  19375089.330 6
      1036.603 7       806.187 6        43.000          40.750
  23196737.654 6 124217476.36206  96613609.77705                  23196742.378 5
     -1743.695 6     -1356.351 5        39.250          33.500
  20489306.982 8 107672033.19208  83900300.21106  20489307.090 6  20489307.795 7
      -976.979 8      -761.282 6        51.500          39.750
  22046973.959 7 115857628.48507  90278662.37804  22046970.111 4
     -2088.790 7     -1627.628 4        45.250          27.500
  21678059.484 7 115556266.11907  89877118.76406                  21678066.729 6
      3771.520 7      2933.411 6        43.500          36.250
  21436516.602 7 114429576.43907  89000810.53107                  21436520.606 7
     -2842.700 7     -2210.968 7        46.750          43.500
  19309673.794 8 103112577.10808  80198689.13108                  19309677.237 8
      1292.103 8      1004.996 8        48.000          48.750
  21505671.159 6 114879441.13006  89350697.97106                  21505677.098 6
     -2432.302 6     -1891.654 6        37.250          38.250
  23438917.704 6 125294459.88606  97451260.36505                  23438924.477 5
       821.823 6       639.027 5        37.750          34.250
 19  3 19 19 46 49.0000000  0 13G26G30G07G08R19R08G27G16R10R18R09R16
                                R01
  24357348.821 6 127998728.15306  99739277.71803  24357349.500 3  24357347.545 6
     -2567.863 6     -2000.939 3        39.500          19.000
  23435565.763 6 123154729.43406  95964739.98103  23435566.636 3  23435567.523 6
      3734.428 6      2909.921 3        40.500          21.000
  21114737.999 8 110958698.14408  86461313.83205  21114736.470 5  21114736.663 7
      2414.453 8      1881.393 5        49.750          34.250
  20290905.208 8 106629425.21008  83087852.85106  20290907.052 6  20290907.009 8
      1341.393 8      1045.243 6        49.750          38.750
  19374892.490 7 103642608.76507  80610934.14606                  19374895.699 6
      1035.684 7       805.710 6        43.000          40.750
  23197062.823 6 124219219.85906  96614965.79605                  23197067.258 5
     -1744.025 6     -1356.398 5        39.250          33.250
  20489492.882 8 107673009.99208  83901061.35306  20489492.935 6  20489493.647 7
      -977.419 8      -761.623 6        51.500          39.750
  22047371.287 7 115859716.95407  90280289.75604  22047367.513 4
     -2088.876 7     -1627.703 4        45.250          27.750
  21677352.142 7 115552494.27907  89874185.11906                  21677359.237 6
      3771.534 7      2933.372 6        43.500          36.250
  21437049.168 7 114432418.93807  89003021.36607                  21437053.027 7
     -2843.071 7     -2211.199 7        46.750          43.750
  19309431.820 8 103111284.81008  80197684.00908                  19309435.261 8
      1291.744 8      1004.637 8        48.000          48.500
  21506126.729 6 114881873.02006  89352589.41006                  21506132.341 6
     -2432.516 6     -1891.630 6        37.750          38.000
  23438764.010 6 125293637.87406  97450621.00805                  23438770.937 5
       821.238 6       638.980 5        38.000          34.250
 19  3 19 19 46 50.0000000  0 13G26G30G07G08R19R08G27G16R10R18R09R16
                                R01
  24357837.359 6 128001296.15506  99741278.76803  24357838.284 3  24357836.158 6
     -2567.292 6     -2000.500 3        40.000          19.000
  23434855.148 6 123150995.00806  95961830.03703  23434856.019 3  23434856.774 6
      3734.981 6      2910.377 3        40.500          21.000
  21114278.637 8 110956283.92708  86459432.62405  21114277.064 5  21114277.181 7
      2414.754 8      1881.630 5        49.750          34.500
  20290649.974 8 106628084.08708  83086807.81806  20290651.839 6  20290651.679 8
      1341.562 8      1045.377 6        49.750          39.000
  19374698.960 7 103641573.49107  80610128.94606                  19374702.238 6
      1035.485 7       805.488 6        42.750          40.750
  23197388.511 6 124220964.25606  96616322.55605                  23197393.557 5
     -1744.043 6     -1356.375 5        39.000          33.250
  20489678.928 8 107673987.62308  83901823.14406  20489678.950 6  20489679.528 7
      -977.125 8      -761.399 6        51.500          39.750
  22047768.880 7 115861805.88507  90281917.49204  22047765.000 4
     -2088.314 7     -1627.260 4        45.500          28.000
  21676644.699 7 115548722.86707  89871251.79206                  21676652.567 6
      3772.029 7      2933.939 6        43.500          36.500
  21437581.797 7 114435262.26907  89005232.85407                  21437585.798 7
     -2842.874 7     -2211.103 7        47.000          43.750
  19309190.086 8 103109993.29608  80196679.50608                  19309193.424 8
      1291.998 8      1004.841 8        48.000          48.500
  21506581.759 6 114884305.57306  89354481.42006                  21506587.876 6
     -2432.185 6     -1891.483 6        37.750          38.000
  23438610.742 6 125292816.99406  97449982.55705                  23438616.986 5
       821.304 6       638.671 5        37.750          34.250
 19  3 19 19 46 51.0000000  0 13G26G30G07G08R19R08G27G16R10R18R09R16
                                R01
  24358326.140 6 128003864.22706  99743279.86603  24358327.046 3  24358325.024 6
     -2567.805 6     -2000.875 3        39.750          19.000
  23434144.569 6 123147260.79606  95958920.26003  23434145.474 3  23434146.030 6
      3734.506 6      2909.996 3        40.500          21.250
  21113819.418 8 110953870.17908  86457551.78405  21113817.752 5  21113817.793 7
      2413.906 8      1880.963 5        49.750          34.500
  20290394.810 8 106626743.57408  83085763.26406  20290396.742 6  20290396.416 8
      1340.581 8      1044.610 6        50.000          39.000
  19374505.364 7 103640539.14807  80609324.46406                  19374508.922 6
      1034.257 7       804.417 6        42.750          41.000
  23197715.154 6 124222709.29506  96617679.80305                  23197719.533 5
     -1744.945 6     -1357.039 5        38.750          33.750
  20489865.100 8 107674965.80308  83902585.36206  20489865.068 6  20489865.565 7
      -978.034 8      -762.101 6        51.500          39.750
  22048166.406 7 115863895.01707  90283545.38604  22048162.554 4
     -2088.833 7     -1627.663 4        45.500          28.000
  21675937.121 7 115544951.60207  89868318.57506                  21675945.408 6
      3771.536 7      2933.520 6        43.250          36.500
  21438114.666 7 114438106.17207  89007444.76807                  21438118.385 7
     -2843.752 7     -2211.821 7        47.250          43.750
  19308948.343 8 103108702.35208  80195675.43008                  19308951.730 8
      1291.081 8      1004.199 8        48.000          48.500
  21507037.592 6 114886738.49906  89356373.72206                  21507042.973 6
     -2432.585 6     -1892.287 6        37.750          38.250
  23438457.517 6 125291996.93806  97449344.72405                  23438463.472 5
       820.086 6       637.659 5        37.750          34.500
 19  3 19 19 46 52.0000000  0 13G26G30G07G08R19R08G27G16R10R18R09R16
                                R01
  24358814.735 6 128006432.59106  99745281.19403  24358815.763 3  24358813.924 6
     -2568.382 6     -2001.330 3        39.750          19.000
  23433434.194 6 123143527.00906  95956010.81103  23433434.946 3  23433435.332 6
      3733.785 6      2909.443 3        40.250          21.500
  21113360.261 8 110951457.11008  86455671.47105  21113358.584 5  21113358.664 7
      2412.881 8      1880.167 5        49.750          34.500
  20290139.909 8 106625403.88608  83084719.34806  20290141.806 6  20290141.470 8
      1339.371 8      1043.668 6        50.000          39.000
  19374312.241 7 103639506.00607  80608520.90706                  19374315.846 6
      1032.704 7       803.233 6        42.750          41.000
  23198040.796 6 124224455.24306  96619037.75305                  23198045.784 5
     -1746.362 6     -1358.244 5        38.750          34.000
  20490051.374 8 107675944.77808  83903348.19706  20490051.334 6  20490051.732 7
      -979.212 8      -763.017 6        51.500          40.000
  22048563.997 7 115865984.56607  90285173.60404  22048560.184 4
     -2089.601 7     -1628.260 4        45.750          28.000
  21675229.783 7 115541180.71307  89865385.70206                  21675237.481 6
      3770.815 7      2932.539 6        43.250          36.500
  21438647.536 7 114440950.84707  89009657.30907                  21438651.163 7
     -2844.956 7     -2212.620 7        47.250          43.750
  19308706.648 8 103107412.15208  80194671.94008                  19308710.067 8
      1289.873 8      1003.297 8        48.000          48.500
  21507493.311 6 114889172.06706  89358266.50106                  21507497.664 6
     -2433.587 6     -1892.995 6        37.750          38.250
  23438304.738 6 125291177.94106  97448707.75005                  23438310.458 5
       818.597 6       636.548 5        38.000          34.250
 19  3 19 19 46 53.0000000  0 13G26G30G07G08R19R08G27G16R10R18R09R16
                                R01
  24359303.699 6 128009001.18506  99747282.68903  24359304.516 3  24359302.460 6
     -2567.881 6     -2000.939 3        39.750          19.250
  23432723.591 6 123139793.59106  95953101.65903  23432724.530 3  23432724.901 6
      3733.786 6      2909.441 3        40.500          21.500
  21112901.202 8 110949044.68108  86453791.65705  21112899.541 5  21112899.563 7
      2412.911 8      1880.193 5        49.750          34.500
  20289885.185 8 106624064.94908  83083676.02506  20289887.013 6  20289886.670 8
      1339.282 8      1043.597 6        50.000          39.000
  19374119.198 7 103638474.00207  80607718.24306                  19374122.937 6
      1032.173 7       802.844 6        42.750          40.750
  23198366.726 6 124226202.04806  96620396.40705                  23198371.765 5
     -1746.586 6     -1358.358 5        38.750          34.500
  20490237.781 8 107676924.48108  83904111.60306  20490237.747 6  20490238.064 7
      -979.334 8      -763.119 6        51.500          39.750
  22048961.739 7 115868074.49107  90286802.12004  22048957.885 4
     -2089.351 7     -1628.065 4        45.500          28.000
  21674522.101 7 115537410.17307  89862453.02506                  21674529.761 6
      3771.127 7      2932.974 6        43.500          36.500
  21439180.532 7 114443796.24507  89011870.39307                  21439184.185 7
     -2844.960 7     -2212.768 7        47.250          43.500
  19308465.216 7 103106122.64407  80193668.99008                  19308468.538 8
      1289.923 7      1003.311 8        47.750          48.500
  21507948.973 6 114891606.18106  89360159.67306                  21507953.354 6
     -2433.575 6     -1892.614 6        38.000          38.000
  23438151.837 6 125290359.96506  97448071.58005                  23438158.265 5
       818.159 6       636.144 5        37.500          34.250
 19  3 19 19 46 54.0000000  0 13G26G30G07G08R19R08G27G16R10R18R09R16
                                R01
  24359792.784 6 128011569.94206  99749284.32303  24359793.354 3  24359791.317 6
     -2568.021 6     -2001.069 3        39.250          19.000
  23432012.932 6 123136060.42806  95950192.70203  23432014.182 3  23432014.387 6
      3733.881 6      2909.511 3        40.250          21.500
  21112442.238 8 110946632.78008  86451912.25105  21112440.591 5  21112440.369 7
      2412.532 8      1879.900 5        49.750          34.500
  20289630.586 8 106622726.66308  83082633.20406  20289632.340 6  20289631.909 8
      1338.821 8      1043.240 6        49.750          39.000
  19373926.187 7 103637443.00207  80606916.35906                  19373930.447 6
      1031.434 7       802.241 6        42.750          41.000
  23198693.082 6 124227949.53406  96621755.58705                  23198698.735 5
     -1747.064 6     -1358.592 5        39.000          34.500
  20490424.376 8 107677904.79808  83904875.48706  20490424.281 6  20490424.416 7
      -979.700 8      -763.402 6        51.500          40.000
  22049359.493 7 115870164.66607  90288430.82704  22049355.632 4
     -2089.406 7     -1628.106 4        45.750          28.000
  21673814.471 7 115533639.85607  89859520.57506                  21673822.421 6
      3771.121 7      2932.995 6        43.750          36.500
  21439713.680 7 114446642.24507  89014083.94907                  21439716.937 7
     -2845.378 7     -2213.210 7        47.750          43.500
  19308223.918 7 103104833.69307  80192666.48208                  19308227.270 8
      1289.526 7      1002.957 8        47.750          48.750
  21508404.712 6 114894040.68306  89362053.17706                  21508408.762 6
     -2433.759 6     -1893.033 6        38.000          38.000
  23437998.919 6 125289542.88806  97447436.01105                  23438005.998 5
       817.589 6       635.797 5        38.000          34.500
 19  3 19 19 46 55.0000000  0 13G26G30G07G08R19R08G27G16R10R18R09R16
                                R01
  24360281.623 6 128014138.62606  99751285.89003  24360282.165 3  24360279.924 6
     -2569.166 6     -2001.944 3        39.000          19.250
  23431302.646 6 123132327.31706  95947283.77903  23431303.762 3  23431303.943 6
      3732.714 6      2908.608 3        40.000          21.500
  21111983.239 8 110944221.17408  86450033.08005  21111981.686 5  21111981.396 7
      2411.109 8      1878.781 5        49.750          34.500
  20289376.053 8 106621388.82908  83081590.73606  20289377.749 6  20289377.377 8
      1337.118 8      1041.910 6        49.750          39.250
  19373733.730 7 103636412.73507  80606115.05106                  19373738.072 6
      1029.445 7       800.459 6        42.750          40.750
  23199019.922 6 124229697.49306  96623115.10105                  23199025.336 5
     -1748.518 6     -1360.089 5        39.250          34.250
  20490610.992 8 107678885.51708  83905639.68406  20490610.877 6  20490610.935 7
      -981.350 8      -764.680 6        51.500          40.000
  22049757.235 7 115872254.88807  90290059.57204  22049753.409 4
     -2090.715 7     -1629.132 4        45.500          28.250
  21673107.186 7 115529869.52207  89856588.08606                  21673115.349 6
      3769.848 7      2932.155 6        43.500          36.750
  21440246.984 7 114449488.64107  89016297.80007                  21440250.016 7
     -2847.061 7     -2214.348 7        47.750          43.250
  19307982.585 7 103103545.13707  80191664.26908                  19307986.002 8
      1287.911 7      1001.677 8        47.750          48.500
  21508860.845 6 114896475.38206  89363946.80906                  21508865.116 6
     -2435.356 6     -1894.007 6        38.250          38.250
  23437846.142 6 125288726.51506  97446801.08405                  23437853.389 5
       815.466 6       634.098 5        38.000          34.750
 19  3 19 19 46 56.0000000  0 13G26G30G07G08R19R08G27G16R10R18R09R16
                                R01
  24360770.290 6 128016707.24506  99753287.40203  24360770.985 3  24360768.712 6
     -2568.490 6     -2001.424 3        39.000          19.250
  23430592.057 6 123128594.30006  95944374.94003  23430593.471 3  23430593.636 6
      3733.198 6      2908.974 3        40.500          21.250
  21111524.387 8 110941809.92008  86448154.18105  21111522.844 5  21111522.611 7
      2411.258 8      1878.901 5        49.750          34.500
  20289121.495 8 106620051.47708  83080548.64406  20289123.255 6  20289122.813 8
      1337.302 8      1042.054 6        50.000          39.250
  19373541.586 7 103635383.25707  80605314.32906                  19373545.338 6
      1029.260 7       800.586 6        42.750          40.750
  23199346.372 6 124231445.95006  96624474.99505                  23199351.708 5
     -1748.468 6     -1360.037 5        39.000          34.500
  20490797.667 8 107679866.66308  83906404.21206  20490797.567 6  20490797.628 7
      -981.144 8      -764.528 6        51.500          40.000
  22050154.950 7 115874345.18907  90291688.37604  22050151.178 4
     -2090.167 7     -1628.705 4        45.750          28.250
  21672399.804 7 115526099.22107  89853655.60806                  21672408.257 6
      3770.408 7      2932.616 6        43.750          36.750
  21440780.349 8 114452335.46608  89018511.99407                  21440783.516 7
     -2846.914 8     -2214.266 7        48.000          43.500
  19307741.430 7 103102257.00307  80190662.38408                  19307744.803 8
      1288.134 7      1001.863 8        47.750          48.500
  21509317.000 6 114898910.35106  89365840.66206                  21509320.787 6
     -2435.021 6     -1893.689 6        38.500          38.250
  23437693.273 6 125287910.85106  97446166.65905                  23437701.470 5
       815.440 6       634.375 5        37.500          34.500
 19  3 19 19 46 57.0000000  0 13G26G30G07G08R19R08G27G16R10R18R09R16
                                R01
  24361258.933 6 128019275.89806  99755288.94503  24361259.688 3  24361257.363 6
     -2568.689 6     -2001.583 3        39.000          19.000
  23429881.831 6 123124861.44606  95941466.22803  23429883.168 3  23429883.360 6
      3732.716 6      2908.602 3        40.250          21.000
  21111065.614 8 110939399.09108  86446275.61205  21111064.083 5  21111063.856 7
      2410.509 8      1878.314 5        49.750          34.500
  20288867.117 8 106618714.66108  83079506.96806  20288868.856 6  20288868.394 7
      1336.497 8      1041.427 6        50.000          39.250
  19373349.415 7 103634354.67607  80604514.31706                  19373352.860 6
      1028.067 7       799.720 6        42.750          40.750
  23199673.766 6 124233194.96906  96625835.29605                  23199678.560 5
     -1749.543 6     -1360.446 5        39.000          34.250
  20490984.400 8 107680848.33608  83907169.15106  20490984.347 6  20490984.401 7
      -982.037 8      -765.223 6        51.750          40.000
  22050552.821 7 115876435.64307  90293317.30204  22050548.969 4
     -2090.580 7     -1629.023 4        45.750          28.250
  21671692.486 7 115522329.03407  89850723.25306                  21671701.342 6
      3770.045 7      2932.434 6        44.000          37.000
  21441313.727 8 114455182.79408  89020726.57407                  21441316.817 7
     -2847.626 8     -2214.841 7        48.000          43.500
  19307500.309 8 103100969.33208  80189660.86608                  19307503.610 8
      1287.406 8      1001.268 8        48.000          48.500
  21509772.820 6 114901345.65706  89367734.80906                  21509777.321 6
     -2435.554 6     -1894.369 6        38.500          38.000
  23437540.822 6 125287095.96306  97445532.85705                  23437548.090 5
       814.401 6       633.320 5        37.500          33.500
 19  3 19 19 46 58.0000000  0 13G26G30G07G08R19R08G27G16R10R18R09R16
                                R01
  24361747.708 6 128021844.61606  99757290.54303  24361748.544 3  24361746.436 5
     -2568.471 6     -2001.385 3        39.250          18.750
  23429171.389 6 123121128.76506  95938557.64003  23429172.913 3  23429173.250 6
      3732.860 6      2908.722 3        40.250          21.000
  21110606.904 8 110936988.69208  86444397.38205  21110605.419 5  21110605.162 6
      2410.431 8      1878.256 5        49.750          34.500
  20288612.824 8 106617378.42908  83078465.74906  20288614.577 6  20288614.322 7
      1336.221 8      1041.211 6        50.000          39.000
  19373157.395 7                                                  19373160.793 6
      1027.484 7       799.087 6        42.750          40.750
  23200001.278 6 124234944.55706  96627196.10005                  23200005.060 5
     -1749.631 6     -1360.723 5        38.750          34.500
  20491171.325 8 107681830.52708  83907934.49406  20491171.234 6  20491171.605 7
      -982.158 8      -765.318 6        51.750          39.750
  22050950.629 7 115878526.26807  90294946.36404  22050946.809 4
     -2090.490 7     -1628.952 4        46.000          28.000
  21670985.574 7 115518558.96907  89847790.96106                  21670994.075 6
      3770.272 7      2932.477 6        43.750          36.750
  21441847.349 8 114458030.66108  89022941.59407                  21441850.714 7
     -2847.867 8     -2215.027 7        48.000          44.000
  19307259.267 8 103099682.18408  80188659.75908                  19307262.758 8
      1287.117 8      1001.244 8        48.000          48.750
  21510229.419 6 114903781.33406  89369629.24206                  21510233.462 6
     -2435.373 6     -1894.398 6        38.500          38.250
  23437388.627 6 125286281.90006  97444899.70505                  23437395.910 5
       813.924 6       633.359 5        36.750          34.250
 19  3 19 19 46 59.0000000  0 13G26G30G07G08R19R08G27G16R10R18R09R16
                                R01
  24362236.313 6 128024413.55406  99759292.30503  24362237.373 3  24362236.271 5
     -2568.293 6     -2001.268 3        39.000          18.500
  23428461.187 6 123117396.45306  95935649.34203  23428462.564 3  23428463.518 5
      3732.780 6      2908.667 3        40.500          20.750
  21110148.334 8 110934578.92308  86442519.64105  21110146.886 5  21110147.239 6
      2410.163 8      1878.052 5        49.750          34.250
  20288358.728 8 106616042.96308  83077425.12406  20288360.445 6  20288360.650 7
      1335.810 8      1040.893 6        50.000          38.750
  19372965.530 7                                                  19372968.991 6
      1026.783 7       798.416 6        42.750          40.750
  23200327.981 6 124236695.00406  96628557.56505                  23200331.887 5
     -1750.125 6     -1361.225 5        38.500          34.500
  20491358.366 8 107682813.44908  83908700.40506  20491358.250 6  20491359.353 7
      -982.498 8      -765.575 6        51.750          39.500
  22051348.569 7 115880617.24607  90296575.69604  22051344.730 4
     -2090.455 7     -1628.929 4        45.750          28.000
  21670278.275 7 115514789.24007  89844858.96106                  21670285.961 6
      3770.356 7      2932.418 6        44.000          36.250
  21442381.110 8 114460879.24808  89025157.17107                  21442384.673 7
     -2848.227 8     -2215.295 7        48.000          44.250
  19307018.392 8 103098395.71708  80187659.17308                  19307021.837 8
      1286.831 8      1000.872 8        48.000          48.750
  21510685.594 6 114906217.53806  89371524.06106                  21510689.431 6
     -2435.742 6     -1894.567 6        38.500          38.750
  23437237.145 6 125285468.82806  97444267.32705                  23437244.920 5
       813.242 6       632.540 5        37.250          34.000
 19  3 19 19 47  0.0000000  0 13G26G30G07G08R19R08G27G16R10R18R09R16
                                R01
  24362724.914 6 128026982.75006  99761294.28003  24362726.264 3  24362726.125 5
     -2569.451 6     -2002.177 3        39.000          18.500
  23427750.985 6 123113664.52006  95932741.35003  23427752.310 3  23427754.223 5
      3731.862 6      2907.942 3        40.000          20.500
  21109689.880 8 110932169.81208  86440642.40505  21109688.442 5  21109689.024 6
      2408.735 8      1876.941 5        49.750          34.000
  20288104.697 8 106614708.28108  83076385.11106  20288106.462 6  20288107.111 7
      1334.277 8      1039.697 6        50.000          38.750
  19372773.741 7                                                  19372777.089 6
      1024.746 7       797.016 6        42.750          40.750
  23200654.453 6 124238446.29006  96629919.67605                  23200658.550 5
     -1751.791 6     -1362.690 5        38.500          34.750
  20491545.537 8 107683797.10208  83909466.88706  20491545.424 6  20491546.979 7
      -984.054 8      -766.797 6        51.750          39.250
  22051746.533 7 115882708.61407  90298205.33004  22051742.714 4
     -2091.616 7     -1629.826 4        46.000          28.000
  21669571.434 7 115511019.84507  89841927.23106                  21669579.018 6
      3769.137 7      2931.315 6        44.000          36.750
  21442914.858 8 114463728.56708  89027373.30407                  21442918.476 7
     -2849.720 8     -2216.447 7        48.000          44.250
  19306777.624 8 103097109.98208  80186659.15608                  19306781.119 8
      1285.344 8       999.728 8        48.000          48.750
  21511141.515 6 114908654.27606  89373419.29606                  21511145.394 6
     -2437.082 6     -1895.478 6        38.500          39.000
  23437084.857 6 125284656.82106  97443635.76805                  23437091.949 5
       811.617 6       631.124 5        37.250          34.250
 19  3 19 19 47  1.0000000  0 13G26G30G07G08R19R08G27G16R10R18R09R16
                                R01
  24363213.733 6 128029551.93506  99763296.23903  24363215.129 3  24363215.383 5
     -2569.426 6     -2002.147 3        39.500          18.500
  23427040.800 6 123109932.72006  95929833.45203  23427042.189 3  23427044.317 5
      3731.328 6      2907.523 3        40.000          20.250
  21109231.534 8 110929761.06208  86438765.45505  21109230.064 5  21109230.654 6
      2408.387 8      1876.665 5        50.000          34.000
  20287850.807 8 106613374.09408  83075345.48206  20287852.568 6  20287853.503 7
      1333.719 8      1039.258 6        50.250          38.500
  19372582.248 7 103630250.58607  80601322.24106                  19372585.783 6
      1023.817 7       796.294 6        42.750          41.000
  23200981.486 6 124240198.13206  96631282.26305                  23200986.380 5
     -1752.397 6     -1363.175 5        38.500          35.000
  20491732.835 8 107684781.22708  83910233.73806  20491732.682 6  20491734.735 7
      -984.575 8      -767.203 6        51.750          39.000
  22052144.519 7 115884800.07207  90299835.03704  22052140.684 4
     -2091.690 7     -1629.892 4        46.000          27.750
  21668864.128 7 115507250.49407  89838995.49306                  21668871.427 6
      3769.193 7      2931.581 6        44.000          36.250
  21443448.728 8 114466578.34508  89029589.80607                  21443452.446 7
     -2850.269 8     -2216.871 7        48.000          44.250
  19306536.940 7 103095824.65207  80185659.46208                  19306540.428 8
      1284.922 7       999.277 8        47.750          49.000
  21511597.479 6 114911091.30506  89375314.74306                  21511602.046 6
     -2437.412 6     -1895.499 6        38.500          38.750
  23436933.367 6 125283845.54606  97443004.75605                  23436940.018 5
       810.712 6       630.641 5        37.250          34.250
 19  3 19 19 47  2.0000000  0 13G26G30G07G08R19R08G27G16R10R18R09R16
                                R01
  24363702.766 6 128032121.50106  99765298.50703  24363704.038 3  24363704.277 5
     -2569.708 6     -2002.365 3        39.500          18.750
  23426330.662 6 123106201.41206  95926925.94803  23426332.154 3  23426334.322 5
      3731.089 6      2907.346 3        40.000          20.250
  21108773.341 8 110927353.07808  86436889.10405  21108771.853 5  21108772.766 6
      2407.650 8      1876.090 5        49.750          33.750
  20287597.118 8 106612040.80008  83074306.55406  20287598.861 6  20287600.100 7
      1332.870 8      1038.599 6        50.250          38.250
  19372390.911 7 103629227.34807  80600526.38306                  19372394.359 6
      1022.645 7       795.463 6        42.750          40.750
  23201308.811 6 124241950.94706  96632645.54405                  23201313.616 5
     -1753.177 6     -1363.703 5        38.750          35.000
  20491920.282 8 107685766.20408  83911001.25206  20491920.101 6  20491922.347 7
      -985.342 8      -767.797 6        51.500          39.000
  22052542.495 7 115886892.04107  90301465.14004  22052538.738 4
     -2092.164 7     -1630.255 4        46.000          27.750
  21668157.170 7 115503481.62107  89836064.14806                  21668165.050 6
      3768.687 7      2931.425 6        44.000          36.500
  21443982.685 7 114469428.98807  89031806.96707                  21443986.747 7
     -2851.007 7     -2217.472 7        47.750          44.500
  19306296.240 8 103094540.19308  80184660.43108                  19306300.018 8
      1284.059 8       998.701 8        48.000          49.000
  21512053.456 6 114913528.98506  89377210.71506                  21512058.511 6
     -2438.069 6     -1896.186 6        38.250          38.750
  23436781.787 6 125283035.44506  97442374.72605                  23436788.402 5
       809.447 6       629.289 5        37.250          34.250
 19  3 19 19 47  3.0000000  0 13G26G30G07G08R19R08G27G16R10R18R09R16
                                R01
  24364191.684 6 128034690.41106  99767300.25303  24364192.885 3  24364193.253 5
     -2568.896 6     -2001.733 3        39.500          18.500
  23425620.496 6 123102469.58606  95924018.03603  23425622.123 3  23425624.018 5
      3731.698 6      2907.813 3        39.750          20.000
  21108315.157 8 110924944.83508  86435012.54905  21108313.579 5  21108314.467 6
      2407.939 8      1876.311 5        49.750          33.750
  20287343.425 8 106610707.36908  83073267.51806  20287345.119 6  20287346.577 7
      1333.116 8      1038.786 6        50.000          38.250
  19372199.578 7 103628204.33107  80599730.70806                  19372202.912 6
      1022.540 7       795.446 6        42.750          40.500
  23201636.289 6 124243703.63406  96634008.75505                  23201640.943 5
     -1753.039 6     -1363.652 5        39.000          35.000
  20492107.741 8 107686751.01208  83911768.63406  20492107.484 6  20492109.882 7
      -985.165 8      -767.664 6        51.500          38.750
  22052940.425 7 115888983.48207  90303094.83104  22052936.726 4
     -2091.598 7     -1629.806 4        46.000          27.500
  21667450.031 7 115499712.14607  89833132.35306                  21667458.501 6
      3769.275 7      2931.705 6        43.750          36.500
  21444516.567 7 114472279.44307  89034023.99507                  21444520.762 7
     -2850.740 7     -2217.353 7        47.750          44.000
  19306055.594 7 103093255.52407  80183661.24108                  19306059.516 8
      1284.332 7       998.957 8        47.750          48.750
  21512509.546 6 114915966.32106  89379106.45106                  21512514.728 6
     -2437.610 6     -1896.021 6        38.500          38.500
  23436630.384 6 125282225.45606  97441744.65105                  23436636.959 5
       809.306 6       629.715 5        36.750          33.500
 19  3 19 19 47  4.0000000  0 13G26G30G07G08R19R08G27G16R10R18R09R16
                                R01
  24364680.722 6 128037259.47206  99769302.11803  24364681.790 3  24364682.175 5
     -2568.994 6     -2001.819 3        39.750          18.250
  23424910.367 6 123098737.99906  95921110.31003  23424912.047 3  23424914.018 5
      3731.835 6      2907.927 3        39.750          20.000
  21107857.043 8 110922537.08408  86433136.38305  21107855.403 5  21107856.293 6
      2407.792 8      1876.201 5        49.750          33.500
  20287089.792 8 106609374.57108  83072228.97206  20287091.502 6  20287092.940 7
      1332.729 8      1038.490 6        50.250          38.250
  19372008.363 7 103627182.28507  80598935.78306                  19372011.782 6
      1021.736 7       794.684 6        42.750          41.000
  23201963.616 6 124245456.96606  96635372.41505                  23201968.217 5
     -1753.364 6     -1363.660 5        39.000          35.250
  20492295.372 8 107687736.42308  83912536.48706  20492294.997 6  20492297.179 7
      -985.523 8      -767.938 6        51.750          38.750
  22053338.442 7 115891075.16307  90304724.71304  22053334.772 4
     -2091.533 7     -1629.765 4        46.000          27.250
  21666742.944 7 115495942.88207  89830200.69006                  21666751.746 6
      3769.472 7      2931.852 6        43.500          36.250
  21445050.495 7 114475130.46507  89036241.45907                  21445054.710 7
     -2851.012 7     -2217.598 7        47.750          44.500
  19305815.181 8 103091971.38508  80182662.46608                  19305818.847 8
      1284.174 8       998.833 8        48.000          49.000
  21512966.054 6 114918404.07306  89381002.49306                  21512971.753 6
     -2437.695 6     -1896.158 6        38.500          39.000
  23436478.501 6 125281416.31106  97441115.37805                  23436484.947 5
       809.159 6       629.173 5        37.250          33.500
 19  3 19 19 47  5.0000000  0 13G26G30G07G08R19R08G27G16R10R18R09R16
                                R01
  24365169.935 6 128039828.81406  99771304.20903  24365170.677 3  24365170.543 5
     -2569.247 6     -2002.006 3        39.750          18.250
  23424200.443 6 123095006.90306  95918202.96103  23424202.204 3  23424204.236 5
      3731.169 6      2907.410 3        39.500          20.000
  21107398.986 8 110920130.07108  86431260.78805  21107397.388 5  21107398.551 6
      2407.082 8      1875.649 5        49.750          33.500
  20286836.380 8 106608042.63108  83071191.09706  20286838.037 6  20286839.499 7
      1331.892 8      1037.842 6        50.000          38.000
  19371817.244 7 103626161.39707  80598141.74706                  19371821.107 6
      1020.601 7       793.858 6        43.000          41.000
  23202291.085 6 124247211.21306  96636736.83905                  23202295.947 5
     -1754.322 6     -1364.376 5        39.000          35.250
  20492483.091 8 107688722.64608  83913304.97106  20492482.667 6  20492485.002 7
      -986.251 8      -768.502 6        51.500          38.750
  22053736.442 7 115893167.31107  90306354.95704  22053732.912 4
     -2092.033 7     -1630.156 4        45.750          27.250
  21666036.027 7 115492174.04707  89827269.35306                  21666044.912 6
      3768.983 7      2931.392 6        43.000          36.000
  21445584.483 7 114477982.31707  89038459.55207                  21445589.079 7
     -2851.938 7     -2218.061 7        47.500          44.500
  19305574.934 7 103090688.08107  80181664.33408                  19305578.576 8
      1283.275 7       998.145 8        47.750          49.000
  21513422.259 6 114920842.47406  89382899.02006                  21513428.529 6
     -2438.343 6     -1896.518 6        38.500          39.000
  23436327.752 6 125280608.30306  97440486.92305                  23436333.165 5
       807.972 6       628.146 5        36.750          33.250
 19  3 19 19 47  6.0000000  0 13G26G30G07G08R19R08G27G16R10R18R09R16
                                R01
  24365659.151 6 128042398.24106  99773306.35103  24365659.626 3  24365659.880 5
     -2570.190 6     -2002.721 3        39.500          18.250
  23423490.331 6 123091275.96306  95915295.73003  23423492.267 3  23423494.329 5
      3730.161 6      2906.641 3        39.250          19.750
  21106941.027 8 110917723.49608  86429385.53805  21106939.462 5  21106940.758 6
      2405.644 8      1874.527 5        49.750          33.500
  20286583.065 8 106606711.26008  83070153.66506  20286584.693 6  20286586.319 7
      1330.316 8      1036.607 6        50.000          38.250
  19371626.798 7 103625141.35307  80597348.37906                  19371630.342 6
      1018.823 7       792.533 6        42.750          41.250
  23202618.969 6 124248966.08606  96638101.75305                  23202623.719 5
     -1756.036 6     -1365.717 5        39.000          34.250
  20492670.839 8 107689709.39908  83914073.86906  20492670.435 6  20492672.798 7
      -987.680 8      -769.620 6        51.500          38.750
  22054134.525 7 115895259.62307  90307985.33204  22054131.097 4
     -2093.070 7     -1630.966 4        45.750          27.250
  21665329.083 7 115488405.34407  89824338.14606                  21665337.820 6
      3767.787 7      2930.721 6        43.250          36.000
  21446118.668 7 114480834.70207  89040678.08707                  21446123.393 7
     -2853.333 7     -2219.352 7        47.500          44.250
  19305334.685 7 103089405.25307  80180666.58808                  19305338.298 8
      1281.878 7       996.989 8        47.750          48.750
  21513878.623 6 114923281.19306  89384795.76706                  21513884.226 6
     -2439.665 6     -1897.388 6        38.500          38.500
  23436176.768 6 125279801.15106  97439859.09605                  23436181.699 5
       805.964 6       626.898 5        37.000          33.750
 19  3 19 19 47  7.0000000  0 13G26G30G07G08R19R08G27G16R10R18R09R16
                                R01
  24366148.213 6 128044967.84106  99775308.62902  24366148.661 2  24366149.168 5
     -2568.496 6     -2001.419 2        39.500          17.750
  23422780.430 6 123087545.32706  95912388.73503  23422782.410 3  23422784.315 5
      3731.802 6      2907.921 3        39.000          19.500
  21106483.163 8 110915317.48408  86427510.72305  21106481.631 5  21106483.045 6
      2406.976 8      1875.572 5        49.750          33.500
  20286329.870 8 106605380.59108  83069116.78106  20286331.487 6  20286332.992 7
      1331.510 8      1037.544 6        50.000          38.000
  19371436.615 7 103624122.29107  80596555.77307                  19371439.612 7
      1019.890 7       793.265 7        42.750          42.250
  23202946.894 6 124250721.71006  96639467.19105                  23202952.329 5
     -1754.736 6     -1364.753 5        38.750          32.500
  20492858.747 8 107690696.81008  83914843.28106  20492858.337 6  20492860.598 7
      -986.498 8      -768.702 6        51.500          38.750
  22054532.762 7 115897352.24207  90309615.94204  22054529.304 4
     -2091.594 7     -1629.792 4        45.500          27.250
  21664622.043 7 115484636.88207  89821407.14306                  21664631.201 6
      3769.588 7      2931.725 6        43.000          36.250
  21446652.974 7 114483687.73007  89042897.09507                  21446658.142 7
     -2852.097 7     -2218.381 7        47.250          44.250
  19305094.563 8 103088123.07908  80179669.33508                  19305098.220 8
      1283.082 8       997.929 8        48.000          48.500
  21514335.271 6 114925720.40206  89386692.92906                  21514340.619 6
     -2438.380 6     -1896.313 6        38.250          38.000
  23436025.827 6 125278994.87706  97439232.01605                  23436030.593 5
       807.006 6       627.665 5        36.500          34.000
 19  3 19 19 47  8.0000000  0 13G26G30G07G08R19R08G27G16R10R18R09R16
                                R01
  24366637.385 6 128047537.37206  99777310.85703  24366637.512 3  24366638.553 5
     -2570.024 6     -2002.598 3        39.250          18.000
  23422070.505 6 123083814.78406  95909481.82403  23422072.540 3  23422074.448 5
      3729.988 6      2906.487 3        39.250          19.500
  21106025.409 8 110912911.80808  86425636.17005  21106023.857 5  21106025.140 6
      2405.047 8      1874.065 5        50.000          33.250
  20286076.720 8 106604050.38408  83068080.25706  20286078.362 6  20286079.782 7
      1329.535 8      1036.002 6        50.000          38.000
  19371246.308 7 103623103.97007  80595763.75607                  19371248.876 7
      1017.540 7       791.373 7        42.750          42.250
  23203275.066 6 124252477.87306  96640833.09305                  23203279.636 5
     -1756.877 6     -1366.410 5        38.750          31.750
  20493046.715 8 107691684.64708  83915613.02406  20493046.310 6  20493048.859 7
      -988.552 8      -770.300 6        51.500          38.500
  22054930.942 7 115899444.92807  90311246.60504  22054927.506 4
     -2093.222 7     -1631.077 4        45.750          27.000
  21663915.017 7 115480868.46607  89818476.14206                  21663924.343 6
      3767.917 7      2930.620 6        43.250          36.000
  21447187.322 7 114486541.16807  89045116.44307                  21447193.092 7
     -2854.129 7     -2219.940 7        47.500          44.250
  19304854.389 8 103086841.30008  80178672.38408                  19304858.079 8
      1281.056 8       996.360 8        48.000          48.250
  21514792.071 6 114928159.81106  89388590.25806                  21514796.944 6
     -2439.980 6     -1897.847 6        38.250          37.750
  23435875.796 6 125278189.32906  97438605.46805                  23435880.731 5
       804.651 6       625.964 5        36.500          33.500
 19  3 19 19 47  9.0000000  0 13G26G30G07G08R19R08G27G16R10R18R09R16
                                R01
  24367126.144 6 128050106.96806  99779313.14103  24367126.421 3  24367127.000 6
     -2569.727 6     -2002.379 3        39.250          18.000
  23421360.345 6 123080084.41706  95906575.04403  23421362.737 3  23421363.955 6
      3730.224 6      2906.654 3        39.250          19.750
  21105567.725 8 110910506.59508  86423761.98005  21105566.173 5  21105566.908 7
      2404.902 8      1873.942 5        50.000          33.500
  20285823.620 8 106602720.76208  83067044.18806  20285825.340 6  20285826.183 8
      1329.254 8      1035.783 6        50.000          38.250
  19371056.170 7 103622086.58407  80594972.44707                  19371058.728 7
      1016.764 7       790.812 7        42.750          42.250
  23203603.038 6 124254234.65606  96642199.44105                  23203608.247 5
     -1757.031 6     -1366.683 5        38.750          32.000
  20493234.795 8 107692673.03808  83916383.19806  20493234.387 6  20493236.318 7
      -988.756 8      -770.459 6        51.500          38.750
  22055329.097 7 115901537.80007  90312877.41304  22055325.784 4
     -2092.943 7     -1630.866 4        45.750          27.250
  21663208.093 7 115477100.19107  89815545.29506                  21663217.674 6
      3768.062 7      2930.711 6        43.000          36.500
  21447721.993 7 114489395.16607  89047336.19007                  21447727.978 7
     -2854.323 7     -2219.988 7        47.500          44.000
  19304614.406 8 103085560.06008  80177675.85807                  19304618.085 7
      1280.886 8       996.215 7        48.250          47.750
  21515249.005 6 114930599.61906  89390487.88806                  21515253.076 6
     -2440.032 6     -1897.867 6        38.250          37.750
  23435725.205 6 125277384.60706  97437979.58205                  23435730.135 5
       804.075 6       625.505 5        36.750          34.000
 19  3 19 19 47 10.0000000  0 13G26G30G07G08R19R08G27G16R10R18R09R16
                                R01
  24367614.969 6 128052676.69806  99781315.53203  24367615.465 3  24367615.448 6
     -2569.514 6     -2002.220 3        39.250          18.000
  23420650.500 6 123076354.32706  95903668.47703  23420652.938 3  23420653.672 6
      3730.053 6      2906.519 3        39.000          19.750
  21105110.145 8 110908101.89408  86421888.18805  21105108.588 5  21105108.819 7
      2404.526 8      1873.657 5        49.750          34.000
  20285570.671 8 106601391.77208  83066008.61306  20285572.442 6  20285572.719 8
      1328.833 8      1035.452 6        49.750          38.500
  19370866.205 7 103621070.18507  80594181.92307                  19370869.062 7
      1015.956 7       790.154 7        42.750          42.500
  23203931.092 6 124255992.10306  96643566.35405                  23203937.591 5
     -1757.667 6     -1367.273 5        38.750          32.250
  20493422.973 8 107693662.02308  83917153.83506  20493422.562 6  20493423.913 7
      -989.217 8      -770.814 6        51.500          39.250
  22055727.457 7 115903630.91907  90314508.41604  22055724.108 4
     -2093.129 7     -1631.011 4        46.000          27.500
  21662501.338 7 115473332.13507  89812614.56706                  21662510.040 6
      3768.046 7      2930.735 6        43.000          36.250
  21448256.631 7 114492249.76907  89049556.43707                  21448262.564 7
     -2854.766 7     -2220.311 7        47.500          44.250
  19304374.618 8 103084279.38208  80176679.76807                  19304378.154 7
      1280.458 8       995.925 7        48.250          47.750
  21515705.810 6 114933039.85406  89392385.84106                  21515710.438 6
     -2440.436 6     -1897.931 6        38.500          37.750
  23435574.677 6 125276580.74706  97437354.38205                  23435579.454 5
       803.622 6       624.840 5        36.750          33.500
 19  3 19 19 47 11.0000000  0 13G26G30G07G08R19R08G27G16R10R18R09R16
                                R01
  24368103.828 6 128055246.66806  99783318.10703  24368104.508 3  24368103.813 6
     -2570.240 6     -2002.786 3        38.750          18.000
  23419940.749 6 123072624.59106  95900762.18303  23419943.167 3  23419943.923 6
      3729.349 6      2905.987 3        38.500          20.000
  21104652.676 8 110905697.81908  86420014.88405  21104651.110 5  21104651.098 7
      2403.653 8      1872.980 5        50.000          34.000
  20285317.954 8 106600063.55308  83064973.63706  20285319.680 6  20285319.576 8
      1327.724 8      1034.593 6        49.750          38.500
  19370676.516 7 103620054.97607  80593392.31407                  19370679.438 7
      1014.404 7       788.955 7        42.750          42.750
  23204259.553 6 124257750.34306  96644933.85305                  23204265.973 5
     -1758.662 6     -1367.736 5        38.750          32.500
  20493611.279 8 107694651.72808  83917925.03406  20493610.884 6  20493611.914 7
      -990.193 8      -771.577 6        51.500          39.250
  22056125.851 7 115905724.40807  90316139.70604  22056122.507 4
     -2093.734 7     -1631.477 4        46.000          27.500
  21661794.366 7 115469564.40207  89809684.09106                  21661802.318 6
      3767.473 7      2930.583 6        43.250          36.250
  21448791.678 7 114495105.06507  89051777.21507                  21448797.407 7
     -2855.741 7     -2221.026 7        47.250          44.000
  19304134.952 8 103082999.42708  80175684.24807                  19304138.434 7
      1279.503 8       995.105 7        48.250          47.750
  21516162.589 6 114935480.60506  89394284.19606                  21516167.874 6
     -2441.011 6     -1898.385 6        38.500          37.750
  23435425.069 6 125275777.95906  97436729.94905                  23435430.027 5
       802.005 6       623.945 5        37.250          33.750
 19  3 19 19 47 12.0000000  0 13G26G30G07G08R19R08G27G16R10R18R09R16
                                R01
  24368592.828 6 128057816.94606  99785320.92103  24368593.605 3  24368592.327 5
     -2570.338 6     -2002.874 3        38.750          18.250
  23419231.109 6 123068895.31006  95897856.25903  23419233.574 3  23419233.892 6
      3729.037 6      2905.755 3        39.250          20.000
  21104195.364 8 110903294.45508  86418142.13205  21104193.761 5  21104193.504 7
      2402.964 8      1872.440 5        50.000          34.250
  20285065.287 8 106598736.17508  83063939.31906  20285067.078 6  20285066.689 8
      1326.930 8      1033.973 6        49.750          38.750
  19370486.653 7 103619040.96607  80592603.63107                  19370489.824 7
      1013.419 7       788.307 7        42.250          42.500
  23204588.045 6 124259509.46306  96646302.04105                  23204594.042 5
     -1759.705 6     -1368.529 5        38.500          32.500
  20493799.702 8 107695642.22908  83918696.85306  20493799.358 6  20493800.266 7
      -990.905 8      -772.136 6        51.500          39.500
  22056524.275 7 115907818.33507  90317771.33704  22056521.000 4
     -2094.165 7     -1631.814 4        46.000          27.750
  21661087.747 7 115465797.07307  89806753.95905                  21661095.129 5
      3767.069 7      2929.609 5        43.250          35.750
  21449326.810 7 114497961.14007  89053998.61907                  21449332.421 7
     -2856.509 7     -2221.691 7        47.500          44.000
  19303895.525 8 103081720.22708  80174689.31807                  19303898.925 7
      1278.842 8       994.667 7        48.500          47.250
  21516619.612 6 114937921.97606  89396183.05606                  21516624.918 6
     -2441.749 6     -1899.091 6        38.500          37.250
  23435274.929 6 125274976.20606  97436106.35505                  23435279.566 5
       801.075 6       623.289 5        38.500          33.500
 19  3 19 19 47 13.0000000  0 13G26G30G07G08R19R08G27G16R10R18R09R16
                                R01
  24369082.052 6 128060387.27306  99787323.76803  24369082.680 3  24369081.268 5
     -2570.482 6     -2002.968 3        38.500          18.000
  23418521.434 6 123065166.21406  95894950.46903  23418524.119 3  23418524.088 6
      3728.544 6      2905.354 3        39.000          20.250
  21103738.066 8 110900891.51908  86416269.71405  21103736.493 5  21103735.988 7
      2402.387 8      1871.988 5        50.000          34.250
  20284812.844 8 106597409.37408  83062905.44606  20284814.578 6  20284814.055 7
      1326.187 8      1033.395 6        49.750          38.750
  19370297.022 7 103618027.88407  80591815.67707                  19370300.635 7
      1012.321 7       787.408 7        42.250          42.250
  23204916.570 6 124261269.18306  96647670.72605                  23204921.757 5
     -1760.329 6     -1369.482 5        38.500          32.250
  20493988.314 8 107696633.26608  83919469.08706  20493987.945 6  20493988.660 7
      -991.643 8      -772.708 6        51.500          39.500
  22056922.744 7 115909912.42807  90319403.09504  22056919.493 4
     -2094.433 7     -1632.029 4        46.000          27.750
  21660381.060 7                                                  21660388.473 5
      3766.830 7      2929.646 5        43.500          35.750
  21449862.053 7 114500817.77907  89056220.44407                  21449867.221 7
     -2857.219 7     -2222.271 7        47.250          44.000
  19303656.213 8 103080441.53108  80173694.77707                  19303659.524 7
      1278.123 8       994.120 7        48.250          47.500
  21517076.510 6 114940363.71606  89398082.14906                  21517081.986 6
     -2442.240 6     -1899.265 6        38.750          37.000
  23435125.024 6 125274175.29806  97435483.43705                  23435129.711 5
       800.066 6       621.990 5        38.750          33.250
 19  3 19 19 47 14.0000000  0 13G26G30G07G08R19R08G27G16R10R18R09R16
                                R01
  24369570.981 6 128062957.53506  99789326.56503  24369571.759 3  24369570.340 5
     -2569.411 6     -2002.126 3        38.250          18.000
  23417811.786 6 123061437.11506  95892044.68603  23417814.491 3  23417814.169 6
      3729.881 6      2906.377 3        38.500          20.000
  21103280.870 8 110898488.88508  86414397.53305  21103279.278 5  21103278.508 7
      2403.205 8      1872.625 5        49.750          34.500
  20284560.280 8 106596083.02408  83061871.92906  20284562.151 6  20284561.521 8
      1326.760 8      1033.838 6        49.750          39.000
  19370107.690 7 103617015.55407  80591028.32507                  19370111.073 7
      1012.576 7       787.526 7        42.250          42.250
  23205244.903 6 124263029.40006  96649039.75405                  23205249.935 5
     -1759.595 6     -1368.720 5        38.500          32.250
  20494176.937 8 107697624.68308  83920241.62006  20494176.580 6  20494177.171 7
      -990.934 8      -772.154 6        51.250          39.750
  22057321.290 7 115912006.56107  90321034.88504  22057317.995 4
     -2093.488 7     -1631.286 4        46.000          28.000
  21659674.501 7                                                  21659681.327 6
      3768.081 7      2930.496 6        43.500          36.000
  21450397.346 7 114503674.81507  89058442.59107                  21450402.616 7
     -2856.467 7     -2221.767 7        47.250          44.000
  19303416.805 8 103079163.18208  80172700.50407                  19303420.042 7
      1278.906 8       994.644 7        48.250          47.500
  21517533.621 6 114942805.63206  89399981.45106                  21517539.321 6
     -2441.342 6     -1898.957 6        38.500          37.250
  23434975.801 6 125273375.07406  97434860.99805                  23434980.203 5
       800.521 6       622.623 5        38.500          34.250
 19  3 19 19 47 15.0000000  0 13G26G30G07G08R19R08G27G16R10R18R09R16
                                R01
  24370059.966 6 128065527.49706  99791329.12603  24370060.740 3  24370059.260 5
     -2570.481 6     -2002.982 3        38.000          18.000
  23417102.320 6 123057707.93806  95889138.83803  23417104.768 3  23417104.518 6
      3728.507 6      2905.347 3        39.250          20.250
  21102823.742 8 110896086.39108  86412525.46105  21102822.091 5  21102821.415 7
      2401.668 8      1871.433 5        49.750          34.500
  20284307.861 8 106594756.94708  83060838.62206  20284309.790 6  20284309.061 7
      1325.208 8      1032.634 6        49.750          39.250
  19369918.532 7 103616003.78407  80590241.39807                  19369921.821 7
      1010.778 7       786.109 7        42.500          42.500
  23205573.775 6 124264789.91806  96650409.03905                  23205578.758 5
     -1761.516 6     -1370.013 5        38.250          32.250
  20494365.662 8 107698616.33008  83921014.33306  20494365.278 6  20494365.609 7
      -992.468 8      -773.346 6        51.250          39.750
  22057719.866 7 115914100.54107  90322666.55704  22057716.488 4
     -2094.543 7     -1632.104 4        46.000          28.000
  21658967.730 7 115454495.24507  89797963.63205                  21658974.261 5
      3766.745 7      2929.785 5        43.500          35.750
  21450932.707 7 114506532.01407  89060664.85707                  21450937.604 7
     -2858.020 7     -2222.796 7        47.500          44.250
  19303177.490 8 103077885.02908  80171706.37907                  19303180.645 7
      1277.357 8       993.564 7        48.500          47.500
  21517990.360 6 114945247.60106  89401880.74506                  21517996.464 6
     -2442.759 6     -1899.863 6        38.500          37.000
  23434826.638 6 125272575.32906  97434239.01605                  23434831.176 5
       798.674 6       621.136 5        39.000          34.250
 19  3 19 19 47 16.0000000  0 13G26G30G07G08R19R08G27G16R10R18R09R16
                                R01
  24370549.237 6 128068097.66706  99793331.86603  24370549.779 3  24370548.102 5
     -2570.073 6     -2002.676 3        37.250          18.000
  23416392.799 6 123053979.03206  95886233.18803  23416395.144 3  23416394.935 6
      3729.051 6      2905.750 3        39.250          20.500
  21102366.636 8 110893684.43708  86410653.80905  21102365.001 5  21102364.373 7
      2402.018 8      1871.705 5        50.000          34.750
  20284055.565 8 106593431.54508  83059805.84206  20284057.560 6  20284056.821 7
      1325.405 8      1032.784 6        50.000          39.250
  19369729.701 7 103614993.02107  80589455.23407                  19369732.756 7
      1010.733 7       786.063 7        42.500          42.500
  23205902.890 6 124266551.11006  96651778.88105                  23205908.122 5
     -1761.117 6     -1369.838 5        38.000          32.250
  20494554.468 8 107699608.62308  83921787.54806  20494554.110 6  20494554.407 7
      -992.244 8      -773.174 6        51.250          40.000
  22058118.400 7 115916194.80707  90324298.45304  22058115.013 4
     -2093.901 7     -1631.611 4        46.000          28.250
  21658261.047 7 115450728.07607  89795033.63206                  21658268.323 6
      3767.380 7      2930.601 6        43.500          36.000
  21451468.067 7 114509389.84007  89062887.61107                  21451472.778 7
     -2858.018 7     -2222.890 7        47.750          44.250
  19302938.270 8 103076607.50408  80170712.75407                  19302941.543 7
      1277.467 8       993.675 7        48.500          47.250
  21518447.584 6 114947689.99706  89403780.37606                  21518454.334 6
     -2442.434 6     -1899.659 6        39.000          37.500
  23434677.355 6 125271776.52606  97433617.70605                  23434682.102 5
       798.654 6       621.529 5        39.500          33.250
 19  3 19 19 47 17.0000000  0 13G26G30G07G08R19R08G27G16R10R18R09R16
                                R01
  24371038.717 6 128070667.93306  99795334.67002  24371038.939 2  24371037.239 5
     -2570.159 6     -2002.734 2        37.000          17.750
  23415683.643 6 123050250.37606  95883327.74003  23415685.601 3  23415685.405 6
      3728.887 6      2905.625 3        38.750          20.500
  21101909.674 8 110891283.00308  86408782.56205  21101908.011 5  21101907.511 7
      2401.652 8      1871.416 5        50.000          34.750
  20283803.526 8 106592106.78608  83058773.56306  20283805.441 6  20283804.819 7
      1324.881 8      1032.377 6        49.750          39.250
  19369540.799 7 103613983.21707  80588669.83707                  19369543.878 7
      1009.672 7       785.343 7        42.500          42.500
  23206231.546 6 124268313.02206  96653149.28005                  23206238.097 5
     -1761.767 6     -1370.689 5        38.500          33.000
  20494743.426 8 107700601.51208  83922561.22606  20494743.059 6  20494743.409 7
      -992.758 8      -773.579 6        51.500          40.000
  22058516.918 7 115918289.34407  90325930.55904  22058513.613 4
     -2094.251 7     -1631.885 4        46.000          28.250
  21657554.420 7 115446961.11607  89792103.76405                  21657561.800 5
      3767.233 7      2930.379 5        43.500          35.750
  21452003.702 8 114512248.29808  89065110.84107                  21452008.529 7
     -2858.364 8     -2223.172 7        48.000          44.000
  19302699.111 8 103075330.56708  80169719.58007                  19302702.313 7
      1277.157 8       993.324 7        48.500          47.500
  21518905.170 6 114950132.77906  89405680.32706                  21518911.463 6
     -2442.695 6     -1899.838 6        39.000          37.250
  23434528.015 6 125270978.62906  97432997.14205                  23434533.398 5
       797.949 6       620.568 5        39.500          33.000
 19  3 19 19 47 18.0000000  0 13G26G30G07G08R19R08G27G16R10R18R09R16
                                R01
  24371527.790 6 128073238.05306  99797337.35503  24371528.045 3  24371526.085 5
     -2569.970 6     -2002.577 3        36.500          18.000
  23414974.144 6 123046521.70006  95880422.28803  23414976.106 3  23414975.924 6
      3729.042 6      2905.772 3        38.750          20.500
  21101452.775 8 110888881.81908  86406911.50805  21101451.069 5  21101450.645 7
      2401.357 8      1871.191 5        49.750          34.750
  20283551.552 8 106590782.39608  83057741.57106  20283553.389 6  20283552.916 7
      1324.493 8      1032.074 6        49.750          39.250
  19369352.437 7 103612974.15107  80587885.00007                  19369355.202 7
      1008.878 7       784.659 7        42.750          42.250
  23206560.464 6 124270075.33106  96654519.95105                  23206567.129 5
     -1762.186 6     -1370.455 5        38.500          33.000
  20494932.429 8 107701594.73908  83923335.17106  20494932.087 6  20494932.470 7
      -993.117 8      -773.861 6        51.500          40.000
  22058915.583 7 115920383.85207  90327562.63904  22058912.231 4
     -2094.274 7     -1631.900 4        45.750          28.250
  21656847.570 7 115443194.10407  89789173.84205                  21656855.344 5
      3767.326 7      2930.540 5        43.500          35.500
  21452539.409 7 114515107.10607  89067334.35507                  21452544.019 7
     -2858.715 7     -2223.535 7        47.500          43.750
  19302459.981 8 103074053.94108  80168726.64607                  19302463.351 7
      1276.805 8       993.011 7        48.500          47.250
  21519362.830 6 114952575.74806  89407580.40206                  21519368.013 6
     -2442.595 6     -1899.929 6        39.250          36.750
  23434378.486 6 125270181.37206  97432377.05605                  23434384.250 5
       797.158 6       619.849 5        39.500          32.750
 19  3 19 19 47 19.0000000  0 13G26G30G07G08R19R08G27G16R10R18R09R16
                                R01
  24372016.395 6 128075808.11106  99799339.99802  24372017.053 2  24372015.692 5
     -2569.534 6     -2002.231 2        36.000          17.750
  23414264.518 6 123042793.14406  95877516.92003  23414266.585 3  23414266.885 6
      3728.812 6      2905.555 3        39.000          20.500
  21100995.953 8 110886480.97908  86405040.72205  21100994.190 5  21100993.770 7
      2400.992 8      1870.901 5        49.500          35.000
  20283299.685 8 106589458.51108  83056709.97006  20283301.444 6  20283301.066 7
      1323.943 8      1031.645 6        50.000          39.250
  19369164.008 7 103611965.94507  80587100.84607                  19369166.799 7
      1008.129 7       784.043 7        43.000          42.750
  23206889.535 6 124271838.14006  96655891.01905                  23206896.780 5
     -1762.884 6     -1370.896 5        38.250          32.750
  20495121.455 8 107702588.41608  83924109.46506  20495121.188 6  20495121.603 7
      -993.609 8      -774.244 6        51.500          40.250
  22059314.148 7 115922478.44407  90329194.78904  22059310.881 4
     -2094.337 7     -1631.950 4        46.000          28.500
  21656140.898 7 115439427.11407  89786243.99606                  21656149.493 6
      3767.359 7      2929.924 6        44.000          36.000
  21453075.314 7 114517966.30307  89069558.18707                  21453079.503 7
     -2859.135 7     -2223.739 7        47.250          44.250
  19302221.034 8 103072777.71708  80167734.01907                  19302224.483 7
      1276.236 8       992.787 7        48.250          47.500
  21519820.152 6 114955018.98006  89409480.69506                  21519825.777 6
     -2443.057 6     -1900.180 6        39.500          37.500
  23434229.375 6 125269384.82006  97431757.49705                  23434234.532 5
       796.529 6       619.363 5        39.250          33.250
 19  3 19 19 47 20.0000000  0 13G26G30G07G08R19R08G27G16R10R18R09R16
                                R01
  24372505.327 6 128078378.24806  99801342.69702  24372506.110 2  24372504.270 5
     -2570.099 6     -2002.641 2        36.750          17.750
  23413555.214 6 123039064.74706  95874611.67703  23413557.148 3  23413557.245 6
      3728.307 6      2905.196 3        38.500          20.500
  21100539.203 8 110884080.57408  86403170.27705  21100537.391 5  21100536.853 7
      2400.148 8      1870.247 5        49.500          35.000
  20283047.875 8 106588135.16508  83055678.79306  20283049.593 6  20283049.193 7
      1323.051 8      1030.949 6        50.000          39.250
  19368975.872 7 103610958.64007  80586317.39307                  19368978.786 7
      1006.884 7       783.166 7        42.750          42.750
  23207219.105 6 124273601.53606  96657262.59305                  23207226.400 5
     -1763.721 6     -1372.020 5        38.000          33.000
  20495310.596 8 107703582.59308  83924884.14506  20495310.391 6  20495310.723 7
      -994.421 8      -774.871 6        51.250          40.250
  22059712.797 7 115924573.19307  90330827.06004  22059709.549 4
     -2094.855 7     -1632.354 4        45.750          28.500
  21655434.223 7 115435660.24207  89783314.21905                  21655442.248 5
      3766.825 7      2929.775 5        43.750          35.750
  21453611.103 7 114520826.00807  89071782.39407                  21453615.066 7
     -2859.974 7     -2224.415 7        47.500          43.750
  19301982.044 8 103071501.99508  80166741.80307                  19301985.557 7
      1275.463 8       991.985 7        48.250          47.500
  21520277.851 6 114957462.55706  89411381.25306                  21520282.919 6
     -2443.674 6     -1900.652 6        39.500          37.500
  23434080.131 6 125268589.03206  97431138.57305                  23434084.128 5
       795.448 6       618.937 5        39.000          32.250
 19  3 19 19 47 21.0000000  0 13G26G30G07G08R19R08G27G16R10R18R09R16
                                R01
  24372994.487 6 128080948.98206  99803345.86802  24372995.283 2  24372993.393 5
     -2571.627 6     -2003.875 2        36.750          17.500
  23412846.095 6 123035337.09106  95871707.00603  23412847.784 3  23412847.893 6
      3726.694 6      2903.922 3        38.750          20.500
  21100082.504 8 110881681.16308  86401300.60605  21100080.763 5  21100080.155 7
      2398.323 8      1868.824 5        49.500          35.000
  20282796.242 8 106586812.94508  83054648.49206  20282797.966 6  20282797.552 7
      1321.033 8      1029.375 6        50.000          39.250
  19368788.058 7 103609952.82607  80585535.08307                  19368790.934 7
      1004.466 7       781.319 7        43.000          42.750
  23207548.539 6 124275366.16806  96658635.05105                  23207554.908 5
     -1766.048 6     -1373.435 5        38.000          33.000
  20495499.998 8 107704577.85808  83925659.67706  20495499.800 6  20495500.159 7
      -996.348 8      -776.376 6        51.250          40.250
  22060111.476 7 115926668.67307  90332459.90604  22060108.310 4
     -2096.403 7     -1633.563 4        45.750          28.500
  21654727.609 7 115431894.06607  89780384.98306                  21654735.271 6
      3765.206 7      2928.372 6        43.750          36.500
  21454147.084 7 114523686.81807  89074007.46307                  21454150.953 7
     -2861.976 7     -2225.944 7        47.500          43.750
  19301743.223 8 103070227.33708  80165750.40807                  19301746.726 7
      1273.570 8       990.496 7        48.000          47.500
  21520735.232 6 114959907.06606  89413282.51906                  21520740.900 6
     -2445.698 6     -1901.966 6        39.750          37.000
  23433930.968 6 125267794.63506  97430520.70005                  23433936.137 5
       793.075 6       616.982 5        38.750          32.500
 19  3 19 19 47 22.0000000  0 13G26G30G07G08R19R08G27G16R10R18R09R16
                                R01
  24373483.472 6 128083519.98906  99805349.26102  24373484.447 2  24373482.741 5
     -2571.949 6     -2004.096 2        36.750          17.750
  23412136.883 6 123031609.80106  95868802.62403  23412138.464 3  23412138.452 6
      3726.403 6      2903.679 3        38.500          20.500
  21099625.907 8 110879282.40008  86399431.43905  21099624.259 5  21099623.764 7
      2397.746 8      1868.372 5        49.500          35.000
  20282544.793 8 106585491.49108  83053618.78806  20282546.487 6  20282546.098 7
      1320.358 8      1028.848 6        50.000          39.500
  19368600.142 7 103608948.12807  80584753.65807                  19368603.340 7
      1003.411 7       780.410 7        43.000          42.750
  23207878.002 6 124277131.61006  96660008.18705                  23207884.187 5
     -1766.475 6     -1374.062 5        38.000          33.000
  20495689.538 8 107705573.86708  83926435.78606  20495689.339 6  20495689.541 7
      -997.102 8      -776.959 6        51.000          40.250
  22060510.401 7 115928764.51907  90334093.02804  22060507.130 4
     -2096.695 7     -1633.786 4        45.500          28.500
  21654021.241 7 115428128.22707  89777455.96006                  21654029.067 6
      3764.968 7      2928.276 6        43.750          36.250
  21454683.019 7 114526548.36807  89076233.11207                  21454687.147 7
     -2862.643 7     -2226.463 7        47.250          44.000
  19301504.551 8 103068953.40208  80164759.56207                  19301508.102 7
      1272.870 8       990.016 7        48.000          47.500
  21521192.967 6 114962352.08906  89415184.20406                  21521198.529 6
     -2445.945 6     -1902.464 6        40.000          37.500
  23433782.013 6 125267001.25406  97429903.61705                  23433787.493 5
       792.139 6       616.388 5        38.500          31.500
 19  3 19 19 47 23.0000000  0 13G26G30G07G08R19R08G27G16R10R18R09R16
                                R01
  24373972.202 6 128086090.71506  99807352.43302  24373973.683 2  24373972.350 5
     -2572.068 6     -2004.196 2        36.250          17.000
  23411427.570 6 123027882.43206  95865898.17703  23411429.063 3  23411428.898 6
      3726.041 6      2903.423 3        38.500          20.500
  21099169.418 8 110876883.81508  86397562.41105  21099167.800 5  21099167.541 7
      2397.160 8      1867.915 5        49.500          35.000
  20282293.408 8 106584170.34808  83052589.32506  20282295.065 6  20282294.697 7
      1319.673 8      1028.320 6        50.000          39.250
  19368412.336 7 103607944.07607  80583972.72607                  19368415.350 7
      1002.340 7       779.572 7        43.000          42.500
  23208207.926 6 124278897.41006  96661381.58005                  23208213.547 5
     -1767.166 6     -1374.339 5        37.750          32.500
  20495879.132 8 107706570.13808  83927212.10206  20495878.949 6  20495879.056 7
      -997.776 8      -777.488 6        51.000          40.250
  22060909.038 7 115930860.28507  90335726.08604  22060905.954 4
     -2097.132 7     -1634.118 4        45.250          28.500
  21653315.105 7 115424362.23507  89774526.87805                  21653322.847 5
      3764.643 7      2927.912 5        43.500          35.750
  21455219.009 7 114529410.15307  89078458.93907                  21455223.397 7
     -2863.305 7     -2226.964 7        47.250          43.500
  19301266.141 8 103067679.69908  80163768.91107                  19301269.603 7
      1272.242 8       989.513 7        48.000          47.000
  21521651.023 6 114964797.15306  89417085.92106                  21521656.103 6
     -2446.507 6     -1902.850 6        39.750          37.250
  23433633.462 6 125266208.42506  97429286.94705                  23433638.803 5
       791.124 6       615.206 5        38.500          30.500
 19  3 19 19 47 24.0000000  0 13G26G30G07G08R19R08G27G16R10R18R09R16
                                R01
  24374461.335 5 128088661.62005  99809355.71202  24374462.932 2  24374461.638 5
     -2571.095 5     -2003.498 2        35.750          16.750
  23410718.303 6 123024155.30306  95862993.93003  23410719.814 3  23410719.610 6
      3726.961 6      2904.121 3        38.500          20.500
  21098713.149 8 110874485.74308  86395693.78605  21098711.458 5  21098710.907 7
      2397.639 8      1868.289 5        49.750          35.000
  20282042.136 8 106582849.85008  83051560.36506  20282043.755 6  20282043.287 7
      1319.980 8      1028.556 6        50.000          39.250
  19368224.809 7 103606941.02307  80583192.57807                  19368227.717 7
      1002.362 7       779.575 7        43.000          42.750
  23208537.606 6 124280663.87406  96662755.54105                  23208542.880 5
     -1766.907 6     -1374.396 5        38.000          32.750
  20496068.869 8 107707567.00908  83927988.88406  20496068.662 6  20496068.635 7
      -997.385 8      -777.182 6        51.000          40.250
  22061307.812 7 115932956.29207  90337359.33704  22061304.827 4
     -2096.317 7     -1633.493 4        45.250          28.500
  21652608.612 7 115420596.45007  89771597.91406                  21652616.088 6
      3765.460 7      2928.800 6        43.500          36.250
  21455755.201 7 114532272.50707  89080685.23207                  21455759.701 7
     -2862.856 7     -2226.698 7        47.500          43.750
  19301027.609 8 103066406.55508  80162778.69107                  19301031.214 7
      1272.700 8       989.776 7        48.250          47.500
  21522108.781 6 114967242.65106  89418987.97606                  21522114.160 6
     -2445.982 6     -1902.242 6        39.750          37.750
  23433485.193 6 125265416.47806  97428670.97205                  23433490.840 5
       791.341 6       615.990 5        38.500          31.250
 19  3 19 19 47 25.0000000  0 13G26G30G07G08R19R08G27G16R10R18R09R16
                                R01
  24374950.602 5 128091232.23405  99811358.78102  24374952.029 2  24374951.081 5
     -2571.010 5     -2003.375 2        35.500          16.750
  23410009.009 6 123020428.04206  95860089.56903  23410010.530 3  23410010.436 6
      3726.995 6      2904.154 3        39.000          20.750
  21098256.859 8 110872087.76408  86393825.23005  21098255.111 5  21098254.474 7
      2397.495 8      1868.175 5        49.750          35.000
  20281790.897 8 106581529.58608  83050531.58806  20281792.499 6  20281791.997 7
      1319.700 8      1028.336 6        50.000          39.250
  19368037.534 7 103605938.55307  80582412.88407                  19368040.389 7
      1001.719 7       779.071 7        43.000          42.750
  23208867.721 6 124282430.61206  96664129.64305                  23208872.943 5
     -1767.444 6     -1374.749 5        38.000          33.000
  20496258.622 8 107708564.07708  83928765.82006  20496258.411 6  20496258.383 7
      -997.619 8      -777.371 6        51.000          40.250
  22061706.646 7 115935052.13707  90338992.46404  22061703.678 4
     -2096.217 7     -1633.425 4        45.250          28.500
  21651902.076 7 115416830.44407  89768668.79305                  21651909.364 5
      3765.677 7      2929.058 5        43.750          35.750
  21456291.450 7 114535135.05007  89082911.64107                  21456296.117 7
     -2863.076 7     -2226.770 7        47.500          43.750
  19300789.112 8 103065133.56008  80161788.58307                  19300792.995 7
      1272.527 8       989.722 7        48.250          47.500
  21522566.792 6 114969688.19406  89420890.06106                  21522571.877 6
     -2446.092 6     -1902.448 6        39.750          37.250
  23433337.136 6 125264625.01406  97428055.41505                  23433342.426 5
       790.928 6       615.499 5        38.500          30.750
 19  3 19 19 47 26.0000000  0 13G26G30G07G08R19R08G27G16R10R18R09R16
                                R01
  24375439.959 5 128093803.35605  99813362.24102  24375441.301 2  24375440.121 5
     -2571.222 5     -2003.541 2        35.750          16.500
  23409299.890 6 123016701.44706  95857185.72503  23409301.425 3  23409301.570 6
      3726.375 6      2903.662 3        39.000          20.750
  21097800.742 8 110869690.70808  86391957.39505  21097798.929 5  21097798.423 7
      2396.688 8      1867.548 5        49.750          35.000
  20281539.821 8 106580210.38008  83049503.63406  20281541.458 6  20281540.960 7
      1318.760 8      1027.605 6        50.000          39.250
  19367850.493 7 103604937.50307  80581634.27007                  19367853.535 7
      1000.497 7       778.198 7        43.000          42.750
  23209198.137 6 124284198.39006  96665504.58905                  23209203.120 5
     -1768.065 6     -1375.336 5        37.750          33.000
  20496448.555 8 107709562.14308  83929543.53606  20496448.352 6  20496448.205 7
      -998.454 8      -778.016 6        51.000          40.250
  22062105.532 7 115937148.63307  90340626.10004  22062102.676 4
     -2096.657 7     -1633.758 4        45.250          28.500
  21651195.656 7 115413065.06307  89765740.14806                  21651202.936 6
      3765.157 7      2928.768 6        43.750          36.250
  21456827.949 7 114537998.62507  89085138.86807                  21456832.465 7
     -2863.978 7     -2227.494 7        47.250          43.500
  19300550.970 8 103063861.57408  80160799.25607                  19300554.822 7
      1271.605 8       989.006 7        48.250          47.250
  21523024.834 6 114972134.55206  89422792.81806                  21523029.579 6
     -2446.618 6     -1903.061 6        39.750          37.000
  23433189.871 6 125263834.87206  97427440.91405                  23433196.326 5
       789.588 6       613.830 5        38.250          30.250
 19  3 19 19 47 27.0000000  0 13G26G30G07G08R19R08G27G16R10R18R09R16
                                R01
  24375929.414 6 128096374.82906  99815365.99202  24375930.581 2  24375929.229 5
     -2570.814 6     -2003.230 2        36.000          16.250
  23408590.901 6 123012975.29806  95854282.23103  23408592.480 3  23408592.617 6
      3726.756 6      2903.986 3        39.000          20.750
  21097344.751 8 110867294.37008  86390090.11805  21097342.877 5  21097342.422 7
      2396.880 8      1867.700 5        49.500          35.000
  20281288.963 8 106578892.01208  83048476.33406  20281290.578 6  20281290.089 7
      1318.798 8      1027.639 6        50.000          39.250
  19367663.290 7 103603937.66507  80580856.63107                  19367666.688 7
      1000.060 7       778.012 7        42.750          42.000
  23209527.930 6 124285967.11406  96666880.26105                  23209533.261 5
     -1768.286 6     -1375.425 5        37.500          33.750
  20496638.634 8 107710561.02608  83930321.88306  20496638.450 6  20496638.225 7
      -998.414 8      -777.983 6        51.000          40.250
  22062504.598 7 115939245.57907  90342260.08104  22062501.737 4
     -2096.294 7     -1633.470 4        45.000          28.250
  21650489.292 7 115409300.08107  89762811.86505                  21650496.367 5
      3765.721 7      2928.843 5        43.750          35.500
  21457364.542 7 114540863.02007  89087366.73407                  21457369.256 7
     -2863.908 7     -2227.432 7        47.250          42.750
  19300312.997 8 103062590.36908  80159810.55207                  19300316.818 7
      1271.748 8       989.011 7        48.250          46.750
  21523483.021 6 114974581.54706  89424696.01506                  21523487.523 6
     -2446.363 6     -1902.854 6        39.500          36.500
  23433042.120 6 125263045.82106  97426827.21204                  23433048.780 4
       789.378 6       613.712 4        38.500          29.750
 19  3 19 19 47 28.0000000  0 13G26G30G07G08R19R08G27G16R10R18R09R16
                                R01
  24376418.752 5 128098946.03805  99817369.53902  24376419.844 2  24376418.755 5
     -2570.016 5     -2002.631 2        35.500          15.500
  23407881.957 6 123009249.02206  95851378.64503  23407883.478 3  23407883.312 6
      3727.509 6      2904.564 3        38.750          20.750
  21096888.753 8 110864898.17208  86388222.95105  21096886.861 5  21096886.398 6
      2397.183 8      1867.939 5        49.500          35.000
  20281038.166 8 106577573.90008  83047449.23506  20281039.738 6  20281039.387 7
      1319.034 8      1027.818 6        50.000          39.250
  19367476.550 7 103602938.38407  80580079.42107                  19367480.016 7
      1000.082 7       777.899 7        43.000          42.500
  23209858.088 6 124287736.13306  96668256.15805                  23209863.723 5
     -1768.150 6     -1375.506 5        37.750          33.000
  20496828.730 8 107711560.12408  83931100.40206  20496828.605 6  20496828.264 7
      -998.153 8      -777.782 6        51.000          40.000
  22062903.578 7 115941342.38407  90343893.95504  22062900.767 4
     -2095.742 7     -1633.045 4        45.250          28.250
  21649782.940 7 115405534.92707  89759883.41705                  21649789.707 5
      3766.325 7      2929.261 5        43.500          35.750
  21457901.118 7 114543727.59007  89089594.73707                  21457906.158 7
     -2863.538 7     -2227.195 7        47.500          43.250
  19300074.937 8 103061319.35908  80158821.98107                  19300079.036 7
      1272.013 8       989.245 7        48.250          46.750
  21523941.019 6 114977028.53406  89426599.23606                  21523945.207 6
     -2445.856 6     -1902.649 6        39.500          36.750
  23432894.739 6 125262257.26806  97426213.86704                  23432900.911 4
       789.312 6       613.447 4        38.500          28.750
 19  3 19 19 47 29.0000000  0 13G26G30G07G08R19R08G27G16R10R18R09R16
                                R01
  24376908.176 5 128101516.79905  99819372.74402  24376908.976 2  24376907.611 5
     -2570.287 5     -2002.816 2        35.750          16.000
  23407172.956 6 123005522.49606  95848474.86103  23407174.354 3  23407174.356 6
      3726.754 6      2903.953 3        38.750          21.000
  21096432.762 8 110862501.95808  86386355.76905  21096430.868 5  21096430.356 6
      2396.353 8      1867.292 5        49.500          35.000
  20280787.353 8 106576255.90808  83046422.22906  20280788.902 6  20280788.579 7
      1318.053 8      1027.056 6        50.000          39.250
  19367289.941 7 103601939.52807  80579302.51907                  19367293.029 7
       998.730 7       776.801 7        42.750          42.750
  23210188.090 6 124289505.31206  96669632.18605                  23210194.126 5
     -1769.231 6     -1376.215 5        37.250          33.500
  20497018.825 8 107712559.30608  83931878.98606  20497018.761 6  20497018.416 7
      -999.151 8      -778.556 6        51.250          40.250
  22063302.627 7 115943438.91907  90345527.61804  22063299.734 4
     -2096.299 7     -1633.463 4        45.250          28.250
  21649076.343 7 115401769.44907  89756954.70506                  21649083.945 6
      3765.781 7      2929.005 6        43.000          36.000
  21458437.723 7 114546592.23507  89091822.79607                  21458442.914 7
     -2864.507 7     -2228.025 7        47.250          43.250
  19299836.851 8 103060048.39108  80157833.44607                  19299841.008 7
      1271.125 8       988.653 7        48.250          47.250
  21524398.896 6 114979475.43006  89428502.35906                  21524402.565 6
     -2446.774 6     -1903.104 6        39.500          36.750
  23432747.632 6 125261469.10106  97425600.84504                  23432754.441 4
       787.925 6       612.861 4        38.750          29.500
 19  3 19 19 47 30.0000000  0 13G26G30G07G08R19R08G27G16R10R18R09R16
                                R01
  24377397.756 6 128104087.65706  99821376.01402  24377398.096 2  24377396.853 5
     -2571.384 6     -2003.675 2        36.000          15.750
  23406463.812 6 123001796.11206  95845571.18803  23406465.249 3  23406465.153 6
      3725.848 6      2903.269 3        38.750          21.000
  21095976.861 8 110860106.16708  86384488.91905  21095974.946 5  21095974.521 7
      2395.099 8      1866.309 5        49.750          35.000
  20280536.637 8 106574938.47408  83045395.65506  20280538.169 6  20280537.978 7
      1316.615 8      1025.933 6        49.750          39.250
  19367103.157 7 103600941.51007  80578526.30007                  19367106.393 7
       996.960 7       775.412 7        42.750          42.750
  23210518.449 6 124291275.07606  96671008.66105                  23210525.306 5
     -1770.596 6     -1377.136 5        37.750          33.500
  20497209.053 8 107713558.98708  83932657.95906  20497209.020 6  20497208.775 7
     -1000.456 8      -779.576 6        51.250          40.250
  22063701.752 7 115945535.59207  90347161.38504  22063698.723 4
     -2097.284 7     -1634.251 4        45.500          28.250
  21648370.001 7 115398004.08407  89754026.08806                  21648377.600 6
      3764.766 7      2928.281 6        43.250          36.000
  21458974.406 7 114549457.37507  89094051.23207                  21458979.294 7
     -2865.897 7     -2229.037 7        47.500          43.500
  19299598.954 8 103058777.91808  80156845.29907                  19299602.731 7
      1269.757 8       987.551 7        48.250          47.500
  21524856.777 6 114981922.66206  89430405.73606                  21524860.995 6
     -2447.962 6     -1903.881 6        39.500          36.750
  23432600.465 6 125260681.68306  97424988.44304                  23432606.945 4
       786.604 6       611.279 4        39.000          29.750
 19  3 19 19 47 31.0000000  0 13G26G30G07G08R19R08G27G16R10R18R09R16
                                R01
  24377886.947 5 128106658.73005  99823379.43602  24377887.265 2  24377886.028 5
     -2571.594 5     -2003.814 2        35.500          15.750
  23405754.783 6 122998070.10706  95842667.81103  23405756.197 3  23405755.897 6
      3725.339 6      2902.854 3        38.750          21.250
  21095521.066 8 110857711.01508  86382622.56605  21095519.149 5  21095518.961 7
      2394.588 8      1865.911 5        49.750          35.250
  20280286.016 8 106573621.80208  83044369.67606  20280287.593 6  20280287.501 7
      1315.976 8      1025.434 6        50.000          39.250
  19366916.796 7 103599944.62407  80577750.93207                  19366919.786 7
       996.049 7       774.692 7        42.500          42.750
  23210849.375 6 124293045.62006  96672385.75505                  23210855.356 5
     -1771.205 6     -1377.749 5        37.750          33.000
  20497399.489 8 107714559.40008  83933437.50206  20497399.404 6  20497399.208 7
     -1001.103 8      -780.084 6        51.000          40.250
  22064100.797 7 115947632.62407  90348795.43504  22064097.789 4
     -2097.446 7     -1634.376 4        45.500          28.250
  21647663.374 7 115394239.04907  89751097.74206                  21647671.258 6
      3764.536 7      2927.887 6        43.000          36.000
  21459511.377 7 114552323.22907  89096280.24107                  21459516.157 7
     -2866.456 7     -2229.556 7        47.250          43.000
  19299361.361 8 103057508.16208  80155857.71407                  19299364.935 7
      1269.144 8       987.042 7        48.250          47.000
  21525315.343 6 114984370.44806  89432309.56606                  21525319.946 6
     -2448.380 6     -1904.147 6        39.500          36.250
  23432453.275 6 125259895.31806  97424376.74504                  23432459.276 4
       785.403 6       610.698 4        39.000          28.750
 19  3 19 19 47 32.0000000  0 13G26G30G07G08R19R08G27G16R10R18R09R16
                                R01
  24378376.371 5 128109229.56105  99825382.66402  24378376.451 2  24378375.349 5
     -2571.150 5     -2003.503 2        35.500          15.500
  23405045.702 6 122994344.02006  95839764.36603  23405047.159 3  23405046.864 6
      3725.830 6      2903.235 3        39.000          21.500
  21095065.361 8 110855316.05208  86380756.36105  21095063.396 5  21095063.183 7
      2394.576 8      1865.903 5        49.750          35.250
  20280035.482 8 106572305.45308  83043343.95206  20280037.097 6  20280036.965 7
      1315.868 8      1025.349 6        50.000          39.250
  19366730.553 7 103598948.39807  80576976.08807                  19366733.515 7
       995.622 7       774.419 7        42.500          42.750
  23211179.924 6 124294816.51606  96673763.11705                  23211186.664 5
     -1771.322 6     -1377.854 5        37.500          33.500
  20497590.012 8 107715560.08608  83934217.25806  20497589.846 6  20497589.566 7
     -1001.094 8      -780.074 6        51.250          40.250
  22064499.943 7 115949729.60207  90350429.44504  22064496.863 4
     -2097.212 7     -1634.196 4        45.500          28.250
  21646956.757 7 115390473.88907  89748169.26605                  21646964.981 5
      3764.923 7      2928.404 5        43.250          35.750
  21460048.248 7 114555189.37407  89098509.45307                  21460052.718 7
     -2866.534 7     -2229.603 7        47.250          43.000
  19299123.524 8 103056238.66108  80154870.31207                  19299127.228 7
      1269.058 8       987.024 7        48.500          47.000
  21525773.780 6 114986818.31406  89434213.48006                  21525778.225 6
     -2448.175 6     -1904.175 6        39.500          36.250
  23432306.178 6 125259109.48606  97423765.59504                  23432312.217 4
       785.171 6       610.715 4        39.500          28.750
 19  3 19 19 47 33.0000000  0 13G26G30G07G08R19R08G27G16R10R18R09R16
                                R01
  24378865.602 5 128111800.36205  99827385.87102  24378865.580 2  24378864.268 5
     -2570.047 5     -2002.624 2        35.750          15.500
  23404336.702 6 122990618.01006  95836860.98603  23404338.152 3  23404337.598 6
      3726.696 6      2903.916 3        38.750          21.250
  21094609.692 8 110852921.40208  86378890.39805  21094607.689 5  21094607.648 6
      2395.228 8      1866.408 5        49.750          35.000
  20279785.063 8 106570989.55208  83042318.57506  20279786.682 6  20279786.613 7
      1316.401 8      1025.766 6        50.000          39.000
  19366544.412 7 103597952.93007  80576201.84707                  19366547.428 7
       995.844 7       774.467 7        42.250          42.250
  23211510.639 6 124296587.89106  96675140.83705                  23211516.842 5
     -1770.825 6     -1377.412 5        37.500          32.500
  20497780.588 8 107716561.17408  83934997.32506  20497780.372 6  20497780.235 7
     -1000.577 8      -779.670 6        51.250          40.000
  22064899.062 7 115951826.64607  90352063.50104  22064895.915 4
     -2096.330 7     -1633.502 4        45.500          28.250
  21646250.365 7 115386708.74107  89745240.82305                  21646258.348 5
      3765.844 7      2928.774 5        43.000          35.000
  21460585.364 7 114558055.90307  89100738.96707                  21460589.724 7
     -2865.978 7     -2228.970 7        47.000          42.500
  19298885.870 8 103054969.52008  80153883.21207                  19298889.402 7
      1269.733 8       987.505 7        48.500          46.500
  21526232.146 6 114989266.35906  89436117.49005                  21526236.220 5
     -2447.454 6     -1903.294 5        39.500          35.750
  23432159.439 6 125258324.36406  97423154.94704                  23432166.028 4
       785.514 6       610.162 4        39.750          27.250
 19  3 19 19 47 34.0000000  0 13G26G30G07G08R19R08G27G16R10R18R09R16
                                R01
  24379354.838 6 128114371.68706  99829389.49402  24379354.798 2  24379353.693 5
     -2571.769 6     -2003.973 2        36.000          15.750
  23403627.721 6 122986892.64606  95833958.11203  23403629.274 3  23403628.708 6
      3725.187 6      2902.750 3        38.750          21.500
  21094154.175 8 110850527.67908  86377025.16205  21094152.160 5  21094152.064 7
      2393.318 8      1864.922 5        49.750          35.250
  20279534.852 8 106569674.70108  83041294.01606  20279536.463 6  20279536.407 7
      1314.384 8      1024.193 6        50.000          39.250
  19366358.555 7 103596958.89207  80575428.69307                  19366361.692 7
       993.283 7       772.578 7        42.250          42.750
  23211842.392 6 124298360.38506  96676519.41405                  23211847.169 5
     -1773.064 6     -1378.940 5        38.000          33.000
  20497971.286 8 107717563.27308  83935778.18006  20497971.083 6  20497971.100 7
     -1002.533 8      -781.196 6        51.250          40.250
  22065298.197 7 115953924.33307  90353698.06004  22065295.097 4
     -2097.940 7     -1634.760 4        45.500          28.250
  21645544.075 7 115382944.23207  89742312.86905                  21645552.369 5
      3764.186 7      2927.457 5        42.750          35.750
  21461122.620 7 114560923.41407  89102969.26007                  21461126.941 7
     -2867.932 7     -2230.659 7        47.000          43.000
  19298648.441 8 103053701.36708  80152896.87307                  19298651.852 7
      1267.719 8       986.001 7        48.500          47.000
  21526690.779 6 114991715.22606  89438022.21706                  21526694.858 6
     -2449.169 6     -1905.027 6        39.500          36.250
  23432012.678 6 125257540.56006  97422545.28104                  23432019.248 4
       783.253 6       609.136 4        40.000          29.000
 19  3 19 19 47 35.0000000  0 13G26G30G07G08R19R08G27G16R10R18R09R16
                                R01
  24379843.845 6 128116942.40006  99831392.65002  24379843.899 2  24379842.778 5
     -2570.625 6     -2003.091 2        36.000          16.250
  23402918.767 6 122983166.82006  95831054.87703  23402920.285 3  23402919.733 6
      3725.784 6      2903.199 3        38.500          21.750
  21093698.636 8 110848133.72808  86375159.74505  21093696.578 5  21093696.335 7
      2393.908 8      1865.382 5        49.750          35.250
  20279284.672 8 106568359.75408  83040269.38206  20279286.222 6  20279286.172 7
      1314.843 8      1024.549 6        50.000          39.250
  19366172.475 7 103595965.04307  80574655.70807                  19366176.121 7
       993.527 7       772.732 7        42.250          42.750
  23212173.614 6 124300132.78406  96677897.97305                  23212177.462 5
     -1772.715 6     -1378.439 5        38.000          33.500
  20498161.961 8 107718565.22708  83936558.92306  20498161.784 6  20498161.926 7
     -1002.040 8      -780.815 6        51.250          40.500
  22065697.261 7 115956021.53207  90355332.24104  22065694.189 4
     -2097.162 7     -1634.157 4        45.250          28.500
  21644837.629 7 115379179.16907  89739384.48205                  21644846.133 5
      3765.043 7      2928.202 5        43.000          35.500
  21461659.687 7 114563790.78907  89105199.43307                  21461664.243 7
     -2867.481 7     -2230.280 7        47.250          42.750
  19298411.003 8 103052433.07608  80151910.41607                  19298414.399 7
      1268.157 8       986.384 7        48.750          47.000
  21527149.584 6 114994163.78206  89439926.62605                  21527153.061 5
     -2448.532 6     -1904.340 5        39.750          35.750
  23431865.882 6 125256756.89406  97421935.72504                  23431871.995 4
       783.391 6       609.469 4        40.250          28.500
 19  3 19 19 47 36.0000000  0 13G26G30G07G08R19R08G27G16R10R18R09R16
                                R01
  24380333.443 6 128119513.48106  99833396.09402  24380333.104 2  24380332.562 5
     -2570.985 6     -2003.353 2        36.250          16.250
  23402209.626 6 122979441.49006  95828152.02403  23402211.475 3  23402211.007 6
      3725.274 6      2902.821 3        38.750          21.750
  21093243.253 8 110845740.55708  86373294.93605  21093241.152 5  21093241.039 7
      2392.905 8      1864.603 5        49.750          35.500
  20279034.624 8 106567045.72908  83039245.46706  20279036.173 6  20279036.118 7
      1313.672 8      1023.642 6        50.000          39.250
  19365986.557 7 103594972.44607  80573883.70007                  19365990.525 7
       992.170 7       771.495 7        42.250          42.250
  23212504.518 6 124301906.15906  96679277.26205                  23212508.276 5
     -1773.746 6     -1379.584 5        38.000          33.250
  20498352.740 8 107719568.04808  83937340.34306  20498352.637 6  20498352.869 7
     -1003.124 8      -781.656 6        51.250          40.500
  22066096.448 7 115958119.23407  90356966.81304  22066093.389 4
     -2097.875 7     -1634.700 4        45.500          28.500
  21644131.273 7 115375414.58307  89736456.45505                  21644140.413 5
      3764.443 7      2927.961 5        42.750          35.500
  21462196.914 7 114566659.02707  89107430.28707                  21462201.457 7
     -2868.582 7     -2231.142 7        47.000          42.750
  19298173.756 8 103051165.62408  80150924.62407                  19298177.081 7
      1267.247 8       985.588 7        48.500          47.000
  21527608.194 6 114996613.01906  89441831.61106                  21527611.550 6
     -2449.479 6     -1905.071 6        39.500          36.000
  23431719.577 6 125255974.39306  97421327.13904                  23431725.664 4
       781.994 6       608.459 4        40.250          29.000
 19  3 19 19 47 37.0000000  0 13G26G30G07G08R19R08G27G16R10R18R09R16
                                R01
  24380822.862 6 128122084.36406  99835399.37702  24380822.254 2  24380822.429 5
     -2570.429 6     -2002.941 2        36.250          16.000
  23401500.520 6 122975716.11006  95825249.12803  23401502.606 3  23401502.105 6
      3725.669 6      2903.116 3        39.250          22.000
  21092787.925 8 110843347.57308  86371430.27205  21092785.771 5  21092785.602 7
      2393.145 8      1864.788 5        49.500          35.500
  20278784.603 8 106565732.03508  83038221.80806  20278786.187 6  20278786.120 7
      1313.717 8      1023.672 6        50.000          39.250
  19365801.074 7 103593980.53407  80573112.20407                  19365805.124 7
       991.732 7       771.410 7        42.500          42.500
  23212835.565 6 124303679.88606  96680656.82205                  23212839.257 5
     -1773.816 6     -1379.320 5        38.000          33.500
  20498543.570 8 107720571.16408  83938121.99306  20498543.553 6  20498543.788 7
     -1003.063 8      -781.612 6        51.250          40.500
  22066495.586 7 115960216.85907  90358601.32504  22066492.553 4
     -2097.333 7     -1634.288 4        45.500          28.500
  21643424.836 7 115371649.89907  89733528.39205                  21643434.881 5
      3764.984 7      2928.060 5        42.750          35.750
  21462734.236 7 114569527.54207  89109661.35507                  21462738.375 7
     -2868.430 7     -2231.092 7        47.250          42.750
  19297936.423 8 103049898.42308  80149939.01507                  19297939.972 7
      1267.326 8       985.676 7        48.500          47.000
  21528066.570 6 114999062.39306  89443736.66405                  21528069.797 5
     -2449.194 6     -1904.826 5        39.750          35.750
  23431573.359 6 125255192.43906  97420719.00604                  23431578.817 4
       781.822 6       607.542 4        40.500          29.750
 19  3 19 19 47 38.0000000  0 13G26G30G07G08R19R08G27G16R10R18R09R16
                                R01
  24381312.268 6 128124655.70106  99837403.01902  24381311.530 2  24381311.965 5
     -2571.137 6     -2003.506 2        36.500          16.000
  23400791.347 6 122971991.30206  95822346.68403  23400793.845 3  23400793.289 6
      3724.929 6      2902.530 3        38.750          21.750
  21092332.714 8 110840955.43408  86369566.26805  21092330.569 5  21092330.446 6
      2392.062 8      1863.948 5        49.500          35.250
  20278534.776 8 106564419.30308  83037198.89906  20278536.380 6  20278536.360 7
      1312.627 8      1022.824 6        50.000          39.250
  19365615.820 7 103592989.94107  80572341.74206                  19365619.856 6
       990.229 7       770.207 6        42.250          41.750
  23213166.949 6 124305454.58806  96682037.16605                  23213171.254 5
     -1774.817 6     -1380.378 5        37.500          32.000
  20498734.546 8 107721575.18708  83938904.34806  20498734.639 6  20498734.879 7
     -1004.122 8      -782.430 6        51.000          40.250
  22066894.836 7 115962315.04207  90360236.27404  22066891.811 4
     -2098.078 7     -1634.867 4        45.250          28.250
  21642718.708 7 115367885.73107  89730600.70805                  21642728.884 5
      3764.332 7      2927.729 5        42.750          34.750
  21463271.786 7 114572396.96707  89111893.13306                  21463275.738 6
     -2869.535 7     -2231.918 6        47.000          41.750
  19297699.227 8 103048632.12808  80148954.12607                  19297702.752 7
      1266.237 8       984.837 7        48.500          46.500
  21528524.893 6 115001512.48906  89445642.28105                  21528528.048 5
     -2450.043 6     -1905.514 5        39.750          35.250
  23431426.939 6 125254411.68406  97420111.71904                  23431433.343 4
       780.474 6       607.198 4        40.500          28.750
 19  3 19 19 47 39.0000000  0 13G26G30G07G08R19R08G27G16R10R18R09R16
                                R01
  24381801.611 6 128127226.96206  99839406.60702  24381800.802 2  24381800.813 5
     -2571.948 6     -2004.115 2        36.500          16.000
  23400082.760 6 122968266.54506  95819444.27503  23400085.080 3  23400084.436 6
      3724.219 6      2901.996 3        38.750          21.500
  21091877.538 8 110838563.58708  86367702.48805  21091875.411 5  21091875.296 7
      2391.264 8      1863.328 5        49.500          35.250
  20278285.072 8 106563106.98808  83036176.31606  20278286.649 6  20278286.647 7
      1311.670 8      1022.087 6        50.000          39.250
  19365431.043 7 103592000.12007  80571571.88107                  19365434.762 7
       989.039 7       769.253 7        42.250          42.250
  23213498.393 6 124307229.77806  96683417.87605                  23213503.709 5
     -1775.968 6     -1381.505 5        37.750          32.500
  20498925.654 8 107722579.60308  83939687.01006  20498925.801 6  20498926.041 7
     -1004.981 8      -783.101 6        51.000          40.250
  22067294.126 7 115964413.26607  90361871.25304  22067291.064 4
     -2098.697 7     -1635.338 4        45.500          28.250
  21642013.030 7 115364121.55507  89727673.00905                  21642022.602 5
      3763.696 7      2927.666 5        42.750          35.000
  21463809.593 7 114575266.76407  89114125.18707                  21463813.479 7
     -2870.406 7     -2232.573 7        47.000          42.000
  19297462.326 8 103047366.21608  80147969.53207                  19297465.584 7
      1265.346 8       984.095 7        48.500          46.750
  21528983.279 6 115003962.77506  89447548.07205                  21528987.072 5
     -2450.877 6     -1906.247 5        39.750          35.750
  23431281.251 6 125253631.61006  97419504.99404                  23431287.877 4
       779.253 6       606.389 4        40.500          29.250
 19  3 19 19 47 40.0000000  0 13G26G30G07G08R19R08G27G16R10R18R09R16
                                R01
  24382290.977 6 128129798.84106  99841410.67702  24382290.208 2  24382290.297 5
     -2571.183 6     -2003.513 2        36.500          16.000
  23399374.220 6 122964542.57106  95816542.46503  23399376.457 3  23399375.963 6
      3724.677 6      2902.355 3        38.750          21.750
  21091422.583 8 110836172.80808  86365839.54405  21091420.455 5  21091420.335 7
      2391.321 8      1863.369 5        49.750          35.250
  20278035.631 8 106561795.87708  83035154.67206  20278037.146 6  20278037.201 7
      1311.622 8      1022.046 6        50.000          39.000
  19365246.483 7 103591011.85507  80570803.22807                  19365250.009 7
       988.657 7       768.983 7        42.250          42.250
  23213830.608 6 124309006.22906  96684799.53405                  23213835.693 5
     -1776.014 6     -1381.278 5        38.000          32.750
  20499116.972 8 107723585.17808  83940470.57406  20499117.195 6  20499117.301 7
     -1005.148 8      -783.229 6        51.000          40.250
  22067693.511 7 115966512.27207  90363506.84004  22067690.474 4
     -2098.368 7     -1635.086 4        45.750          28.250
  21641307.197 7 115360358.14007  89724745.90005                  21641316.088 5
      3764.185 7      2927.721 5        42.750          35.500
  21464347.329 7 114578137.71207  89116358.15407                  21464351.413 7
     -2870.460 7     -2232.559 7        47.000          42.000
  19297225.542 8 103046101.42108  80146985.80507                  19297228.927 7
      1265.396 8       984.115 7        48.750          47.000
  21529442.393 6 115006414.04906  89449454.59206                  21529446.451 6
     -2450.637 6     -1905.734 6        40.000          36.000
  23431135.774 6 125252852.97706  97418899.43104                  23431140.704 4
       778.899 6       605.369 4        40.750          29.500
 19  3 19 19 47 41.0000000  0 13G26G30G07G08R19R08G27G16R10R18R09R16
                                R01
  24382780.203 6 128132370.18206  99843414.30802  24382779.542 2  24382779.415 5
     -2570.164 6     -2002.718 2        36.250          16.000
  23398665.398 6 122960818.14206  95813640.31503  23398667.826 3  23398667.265 6
      3725.379 6      2902.894 3        39.000          21.500
  21090967.513 8 110833781.83008  86363976.44605  21090965.449 5  21090965.342 7
      2391.858 8      1863.782 5        49.750          35.250
  20277786.122 8 106560484.71308  83034132.98706  20277787.625 6  20277787.763 7
      1312.008 8      1022.340 6        50.000          39.000
  19365062.323 7 103590023.81107  80570034.74707                  19365065.353 7
       988.780 7       769.015 7        42.250          42.250
  23214162.665 6 124310782.65606  96686181.19605                  23214167.615 5
     -1775.610 6     -1381.055 5        38.000          32.500
  20499308.350 8 107724590.61908  83941254.03506  20499308.549 6  20499308.643 7
     -1004.574 8      -782.783 6        51.000          40.250
  22068092.822 7 115968610.80207  90365142.05804  22068089.785 4
     -2097.477 7     -1634.389 4        45.750          28.250
  21640601.276 7 115356594.19007  89721818.42205                  21640609.605 5
      3765.122 7      2928.250 5        42.750          35.500
  21464885.237 7 114581008.53307  89118591.00607                  21464889.496 7
     -2869.907 7     -2232.151 7        47.000          42.000
  19296988.701 8 103044836.48608  80146001.96307                  19296992.197 7
      1265.869 8       984.583 7        48.500          47.000
  21529901.552 6 115008865.01506  89451360.94105                  21529904.910 5
     -2450.074 6     -1905.763 5        40.000          35.500
  23430990.093 6 125252074.50406  97418293.92804                  23430995.199 4
       779.275 6       605.884 4        40.750          29.250
 19  3 19 19 47 42.0000000  0 13G26G30G07G08R19R08G27G16R10R18R09R16
                                R01
  24383269.224 6 128134941.39306  99845417.85202  24383268.822 2  24383268.440 5
     -2571.430 6     -2003.703 2        36.250          16.000
  23397956.716 6 122957093.75806  95810738.20003  23397959.154 3  23397958.696 6
      3724.200 6      2901.964 3        39.250          21.750
  21090512.614 8 110831391.14008  86362113.57105  21090510.493 5  21090510.437 7
      2390.300 8      1862.571 5        49.750          35.500
  20277536.736 8 106559173.94708  83033111.61006  20277538.184 6  20277538.283 7
      1310.324 8      1021.032 6        50.000          39.250
  19364877.798 7 103589036.51607  80569266.85707                  19364880.716 7
       986.736 7       767.371 7        42.250          42.500
  23214494.189 6 124312559.53806  96687563.18305                  23214499.137 5
     -1777.452 6     -1382.182 5        38.000          32.750
  20499499.794 8 107725596.44708  83942037.79906  20499499.980 6  20499500.048 7
     -1006.264 8      -784.101 6        51.000          40.250
  22068492.182 7 115970709.35607  90366777.29004  22068489.114 4
     -2098.770 7     -1635.403 4        46.000          28.500
  21639895.071 7 115352830.24107  89718890.87005                  21639903.311 5
      3763.730 7      2927.454 5        43.000          35.500
  21465423.096 7 114583879.69507  89120824.13507                  21465427.542 7
     -2871.593 7     -2233.383 7        47.000          42.000
  19296751.880 8 103043571.89008  80145018.38507                  19296755.239 7
      1264.078 8       983.267 7        48.500          47.000
  21530360.732 6 115011316.15306  89453267.38505                  21530363.543 5
     -2451.555 6     -1906.773 5        40.250          35.750
  23430844.358 6 125251296.70406  97417688.94104                  23430850.821 4
       777.243 6       604.837 4        40.500          29.250
 19  3 19 19 47 43.0000000  0 13G26G30G07G08R19R08G27G16R10R18R09R16
                                R01
  24383758.536 6 128137513.16606  99847421.83802  24383758.147 2  24383757.960 5
     -2572.186 6     -2004.294 2        36.250          16.000
  23397248.146 6 122953370.05506  95807836.60903  23397250.563 3  23397250.332 6
      3723.241 6      2901.231 3        39.000          21.750
  21090057.822 8 110829001.40008  86360251.43505  21090055.711 5  21090055.793 6
      2389.166 8      1861.688 5        49.750          35.250
  20277287.538 8 106557864.26808  83032091.08106  20277288.949 6  20277288.917 7
      1309.012 8      1020.009 6        50.000          39.000
  19364693.378 7 103588050.65007  80568500.06306                  19364696.189 6
       985.079 7       766.263 6        42.250          41.750
  23214826.489 6 124314337.48206  96688946.04205                  23214831.540 5
     -1778.668 6     -1383.172 5        38.000          32.000
  20499691.331 8 107726603.30108  83942822.36206  20499691.616 6  20499691.619 7
     -1007.484 8      -785.051 6        51.000          40.250
  22068891.691 7 115972808.57807  90368413.04804  22068888.582 4
     -2099.676 7     -1636.107 4        46.000          28.250
  21639189.125 7 115349066.93107  89715963.87905                  21639196.506 5
      3762.938 7      2926.625 5        43.000          35.250
  21465961.258 7 114586751.88807  89123058.06306                  21465965.611 6
     -2872.836 7     -2234.287 6        47.000          41.500
  19296515.338 8 103042308.29208  80144035.59507                  19296518.520 7
      1262.914 8       982.299 7        48.250          46.500
  21530819.540 6 115013768.13606  89455174.45505                  21530822.174 5
     -2452.626 6     -1907.424 5        40.250          34.750
  23430698.992 6 125250520.21906  97417085.06304                  23430704.252 4
       775.669 6       603.630 4        40.500          28.250
 19  3 19 19 47 44.0000000  0 13G26G30G07G08R19R08G27G16R10R18R09R16
                                R01
  24384247.723 6 128140084.74606  99849425.65902  24384247.410 2  24384246.738 5
     -2571.980 6     -2004.143 2        36.500          16.000
  23396539.652 6 122949646.27106  95804934.96403  23396541.918 3  23396541.753 6
      3723.428 6      2901.363 3        39.000          21.500
  21089603.092 8 110826611.85208  86358389.45005  21089600.983 5  21089601.130 7
      2389.163 8      1861.686 5        50.000          35.000
  20277038.425 8 106556554.92008  83031070.80906  20277039.782 6  20277039.715 7
      1308.844 8      1019.880 6        50.250          39.000
  19364509.296 7 103587065.40807  80567733.77207                  19364511.872 7
       984.544 7       765.665 7        42.000          42.500
  23215159.215 6 124316115.77006  96690329.16805                  23215163.570 5
     -1778.849 6     -1383.691 5        38.000          32.750
  20499882.991 8 107727610.44308  83943607.14906  20499883.301 6  20499883.177 7
     -1007.586 8      -785.135 6        51.000          40.000
  22069291.127 7 115974907.73207  90370048.75704  22069288.055 4
     -2099.469 7     -1635.951 4        46.000          28.250
  21638483.047 7 115345303.50607  89713036.76405                  21638490.956 5
      3763.025 7      2926.732 5        43.000          35.500
  21466499.294 7 114589624.38907  89125292.23007                  21466503.635 7
     -2873.077 7     -2234.520 7        47.000          42.000
  19296278.823 8 103041044.96408  80143053.00207                  19296281.884 7
      1262.810 8       982.255 7        48.500          47.000
  21531278.370 6 115016220.19706  89457081.63705                  21531280.850 5
     -2452.441 6     -1907.370 5        40.000          35.000
  23430553.413 6 125249744.31806  97416481.56604                  23430557.522 4
       775.132 6       602.761 4        40.500          29.000
 19  3 19 19 47 45.0000000  0 13G26G30G07G08R19R08G27G16R10R18R09R16
                                R01
  24384737.026 6 128142656.60906  99851429.70602  24384736.757 2  24384735.982 5
     -2572.452 6     -2004.519 2        36.000          15.750
  23395831.124 6 122945922.91506  95802033.65803  23395833.425 3  23395832.998 6
      3722.915 6      2900.961 3        39.000          21.500
  21089148.557 8 110824222.97808  86356527.98805  21089146.398 5  21089146.447 7
      2388.295 8      1861.006 5        50.000          35.250
  20276789.446 8 106555246.37908  83030051.16606  20276790.762 6  20276790.607 7
      1307.810 8      1019.071 6        50.250          39.000
  19364325.146 7 103586081.31507  80566968.36507                  19364328.076 7
       983.215 7       764.707 7        42.250          42.250
  23215491.335 6 124317894.88006  96691712.93105                  23215495.634 5
     -1779.659 6     -1384.294 5        38.000          33.000
  20500074.782 8 107728618.35708  83944392.53606  20500075.116 6  20500074.923 7
     -1008.563 8      -785.893 6        51.000          40.250
  22069690.714 7 115977007.29807  90371684.78204  22069687.594 4
     -2100.068 7     -1636.422 4        46.000          28.250
  21637777.107 7 115341540.43907  89710109.90105                  21637785.189 5
      3762.753 7      2926.757 5        43.250          35.750
  21467037.600 7 114592497.63307  89127526.97207                  21467042.074 7
     -2873.845 7     -2235.173 7        46.750          42.000
  19296042.384 8 103039782.38108  80142070.99707                  19296045.664 7
      1261.946 8       981.520 7        48.500          47.000
  21531737.161 6 115018672.90306  89458989.28505                  21531739.499 5
     -2453.498 6     -1908.262 5        40.000          35.000
  23430408.144 6 125248969.44206  97415878.91604                  23430413.592 4
       774.228 6       601.660 4        40.250          29.250
 19  3 19 19 47 46.0000000  0 13G26G30G07G08R19R08G27G16R10R18R09R16
                                R01
  24385226.610 6 128145228.86506  99853434.06902  24385226.248 2  24385225.814 5
     -2572.520 6     -2004.565 2        36.500          15.500
  23395122.608 6 122942200.09506  95799132.75603  23395124.991 3  23395124.580 6
      3722.618 6      2900.738 3        39.000          21.500
  21088694.164 8 110821834.90708  86354667.15305  21088691.947 5  21088692.092 7
      2387.722 8      1860.561 5        50.000          35.250
  20276540.582 8 106553938.73108  83029032.21806  20276541.916 6  20276541.770 7
      1307.288 8      1018.664 6        50.250          39.000
  19364141.367 7 103585098.45707  80566203.91407                  19364144.439 7
       982.355 7       764.070 7        42.250          42.500
  23215823.680 6 124319675.02006  96693097.44705                  23215828.096 5
     -1780.603 6     -1384.655 5        38.000          33.250
  20500266.704 8 107729627.12008  83945178.58406  20500267.105 6  20500266.950 7
     -1009.118 8      -786.327 6        51.000          40.250
  22070090.473 7 115979107.36707  90373321.19604  22070087.246 4
     -2100.252 7     -1636.559 4        45.750          28.500
  21637071.234 7 115337777.89107  89707183.49105                  21637079.926 5
      3762.326 7      2926.332 5        43.250          35.500
  21467576.178 7 114595371.73807  89129762.38706                  21467580.692 6
     -2874.512 7     -2235.717 6        46.750          41.750
  19295805.966 8 103038520.64608  80141089.65307                  19295809.413 7
      1261.371 8       981.021 7        48.500          47.250
  21532196.546 6 115021126.25506  89460897.41805                  21532198.724 5
     -2453.638 6     -1907.924 5        40.000          34.750
  23430263.567 6 125248195.77206  97415277.13804                  23430268.450 4
       773.072 6       600.994 4        40.250          28.250
 19  3 19 19 47 47.0000000  0 13G26G30G07G08R19R08G27G16R10R18R09R16
                                R01
  24385715.808 6 128147800.92406  99855438.26602  24385715.631 2  24385715.330 5
     -2572.082 6     -2004.227 2        36.750          15.750
  23394414.428 6 122938477.22706  95796231.81903  23394416.520 3  23394416.192 6
      3723.005 6      2901.042 3        38.750          21.500
  21088239.811 8 110819447.04308  86352806.48105  21088237.536 5  21088237.611 7
      2387.903 8      1860.697 5        50.000          35.250
  20276291.860 8 106552631.42508  83028013.53906  20276293.133 6  20276292.935 7
      1307.277 8      1018.654 6        50.000          39.000
  19363957.377 7 103584116.25707  80565439.98707                  19363960.661 7
       981.977 7       763.836 7        42.250          42.500
  23216155.888 6 124321455.51106  96694482.28705                  23216161.031 5
     -1780.576 6     -1384.584 5        38.000          33.500
  20500458.731 8 107730636.20308  83945964.88306  20500459.143 6  20500459.057 7
     -1009.203 8      -786.396 6        51.000          40.250
  22070490.032 7 115981207.38107  90374957.57104  22070486.883 4
     -2099.821 7     -1636.215 4        45.750          28.500
  21636365.472 7 115334015.22107  89704256.97105                  21636373.921 5
      3762.896 7      2926.613 5        43.500          35.750
  21468114.699 7 114598246.12307  89131998.02206                  21468119.589 6
     -2874.400 7     -2235.598 6        46.500          41.750
  19295569.547 8 103037259.21208  80140108.54007                  19295573.147 7
      1261.488 8       981.086 7        48.250          47.250
  21532655.554 6 115023579.74406  89462805.73505                  21532657.728 5
     -2453.441 6     -1908.383 5        40.000          34.750
  23430118.917 6 125247422.66106  97414675.82404                  23430123.309 4
       772.872 6       600.906 4        40.250          29.000
 19  3 19 19 47 48.0000000  0 13G26G30G07G08R19R08G27G16R10R18R09R16
                                R01
  24386205.203 6 128150372.77906  99857442.32002  24386204.974 2  24386204.773 5
     -2572.658 6     -2004.702 2        36.500          15.750
  23393705.772 6 122934754.25406  95793330.80003  23393707.991 3  23393707.808 6
      3722.226 6      2900.430 3        39.250          21.750
  21087785.469 8 110817059.35908  86350945.94805  21087783.183 5  21087783.224 6
      2386.673 8      1859.743 5        49.750          35.000
  20276043.167 8 106551324.43308  83026995.10606  20276044.412 6  20276044.153 7
      1305.931 8      1017.605 6        50.000          38.750
  19363773.987 7 103583134.67807  80564676.54306                  19363777.078 6
       980.438 7       762.550 6        42.250          41.750
  23216487.893 6 124323236.33306  96695867.38505                  23216493.240 5
     -1782.022 6     -1385.831 5        37.750          33.250
  20500650.829 8 107731645.53708  83946751.37706  20500651.235 6  20500651.039 7
     -1010.433 8      -787.352 6        51.000          40.000
  22070889.637 7 115983307.30807  90376593.87404  22070886.459 4
     -2100.796 7     -1636.984 4        45.500          28.250
  21635659.738 7 115330252.40807  89701330.36305                  21635668.179 5
      3762.018 7      2926.002 5        43.500          34.500
  21468653.061 7 114601120.76207  89134233.85606                  21468658.018 6
     -2875.712 7     -2236.708 6        46.500          41.250
  19295333.234 8 103035998.00008  80139127.59407                  19295336.984 7
      1260.115 8       980.261 7        48.250          46.750
  21533114.541 6 115026033.30006  89464714.05805                  21533117.924 5
     -2454.449 6     -1909.383 5        40.000          34.000
  23429974.422 6 125246650.09906  97414074.96604                  23429979.665 4
       771.379 6       599.617 4        40.000          28.750
 19  3 19 19 47 49.0000000  0 13G26G30G07G08R19R08G27G16R10R18R09R16
                                R01
  24386694.780 6 128152944.75806  99859446.46502  24386694.353 2  24386694.208 5
     -2572.097 6     -2004.228 2        36.500          16.000
  23392997.577 6 122931031.58906  95790430.02303  23392999.615 3  23392999.451 6
      3722.399 6      2900.572 3        39.250          21.500
  21087331.244 8 110814672.20508  86349085.82605  21087328.925 5  21087328.885 7
      2386.803 8      1859.844 5        49.750          35.000
  20275794.614 8 106550018.11708  83025977.19706  20275795.808 6  20275795.608 7
      1305.875 8      1017.565 6        50.000          38.750
  19363590.547 7 103582154.12407  80563913.89407                  19363593.794 7
       979.920 7       762.126 7        42.000          42.500
  23216820.257 6 124325017.83406  96697252.99505                  23216825.865 5
     -1782.068 6     -1385.795 5        38.000          34.000
  20500843.061 8 107732655.49208  83947538.35606  20500843.434 6  20500843.202 7
     -1010.358 8      -787.297 6        51.000          40.000
  22071289.140 7 115985407.49307  90378230.38204  22071286.123 4
     -2100.441 7     -1636.706 4        45.500          28.250
  21634954.086 7 115326489.83407  89698403.90305                  21634962.191 5
      3762.368 7      2926.270 5        43.500          35.000
  21469191.683 7 114603996.02207  89136470.17807                  21469196.516 7
     -2875.649 7     -2236.758 7        46.500          42.000
  19295097.139 8 103034737.39708  80138147.12807                  19295100.954 7
      1260.218 8       980.135 7        48.250          47.250
  21533574.141 6 115028487.27106  89466622.69905                  21533577.575 5
     -2454.289 6     -1909.029 5        40.250          35.000
  23429830.148 6 125245878.46206  97413474.79504                  23429836.148 4
       771.108 6       599.567 4        39.750          29.500
 19  3 19 19 47 50.0000000  0 13G26G30G07G08R19R08G27G16R10R18R09R16
                                R01
  24387184.007 6 128155516.75306  99861450.61302  24387183.692 2  24387183.730 5
     -2572.043 6     -2004.203 2        36.500          16.000
  23392289.151 6 122927309.06306  95787529.36203  23392291.229 3  23392291.212 6
      3722.188 6      2900.396 3        39.250          21.750
  21086877.019 8 110812285.46608  86347226.03205  21086874.742 5  21086874.659 7
      2386.269 8      1859.431 5        49.750          35.000
  20275546.117 8 106548712.32208  83024959.69406  20275547.311 6  20275547.200 7
      1305.293 8      1017.112 6        50.000          38.750
  19363407.439 7 103581174.47207  80563151.94007                  19363410.889 7
       978.963 7       761.319 7        42.000          42.500
  23217152.881 6 124326799.91306  96698639.08005                  23217158.954 5
     -1782.539 6     -1386.561 5        38.000          34.250
  20501035.369 8 107733665.94108  83948325.71806  20501035.728 6  20501035.433 7
     -1010.983 8      -787.777 6        51.000          40.000
  22071688.692 7 115987507.81907  90379867.00004  22071685.815 4
     -2100.662 7     -1636.882 4        45.750          28.250
  21634248.342 7 115322727.37107  89695477.51805                  21634255.729 5
      3762.105 7      2926.177 5        43.500          35.750
  21469730.364 7 114606871.78007  89138706.87307                  21469735.086 7
     -2876.262 7     -2237.074 7        46.500          42.000
  19294861.016 8 103033477.25608  80137167.01207                  19294865.040 7
      1259.661 8       979.760 7        48.250          47.500
  21534033.484 6 115030941.54506  89468531.57605                  21534036.764 5
     -2454.573 6     -1909.352 5        40.000          34.750
  23429685.920 6 125245107.58806  97412875.24305                  23429690.555 5
       770.249 6       598.958 5        39.500          30.250
 19  3 19 19 47 51.0000000  0 13G26G30G07G08R19R08G27G16R10R18R09R16
                                R01
  24387673.056 6 128158088.63506  99863454.67502  24387673.026 2  24387672.890 5
     -2572.047 6     -2004.192 2        37.000          16.000
  23391580.693 6 122923586.51806  95784628.67703  23391582.880 3  23391582.797 6
      3722.254 6      2900.461 3        39.500          21.750
  21086422.895 8 110809898.97108  86345366.42105  21086420.604 5  21086420.460 7
      2386.109 8      1859.307 5        49.750          35.000
  20275297.748 8 106547406.90308  83023942.48506  20275298.890 6  20275298.818 7
      1304.964 8      1016.855 6        50.000          38.750
  19363224.245 7 103580195.56307  80562390.56407                  19363227.920 7
       978.193 7       760.964 7        42.000          42.750
  23217486.140 6 124328582.44006  96700025.48505                  23217491.699 5
     -1783.012 6     -1386.568 5        37.500          34.250
  20501227.759 8 107734676.71508  83949113.33306  20501228.083 6  20501227.768 7
     -1011.222 8      -787.964 6        51.000          40.000
  22072088.375 7 115989608.11807  90381503.59704  22072085.475 4
     -2100.535 7     -1636.775 4        45.500          28.250
  21633542.652 7 115318964.82207  89692551.09805                  21633549.644 5
      3762.248 7      2926.113 5        43.750          35.750
  21470268.911 7 114609747.84307  89140943.80207                  21470273.602 7
     -2876.473 7     -2237.169 7        46.500          42.250
  19294625.146 8 103032217.41108  80136187.13207                  19294629.136 7
      1259.424 8       979.544 7        48.250          47.500
  21534493.188 6 115033395.98506  89470440.57105                  21534495.959 5
     -2454.781 6     -1909.166 5        39.750          34.750
  23429541.847 6 125244337.35106  97412276.13304                  23429546.380 4
       769.601 6       598.709 4        39.750          29.500
 19  3 19 19 47 52.0000000  0 13G26G30G07G08R19R08G27G16R10R18R09R16
                                R01
  24388162.152 6 128160660.43506  99865458.67102  24388162.396 2  24388162.665 5
     -2571.659 6     -2003.891 2        37.000          15.750
  23390872.334 6 122919864.05006  95781728.05003  23390874.543 3  23390874.499 6
      3722.677 6      2900.798 3        39.500          21.750
  21085968.728 8 110807512.80808  86343507.07505  21085966.529 5  21085966.358 7
      2386.177 8      1859.360 5        49.750          35.000
  20275049.401 8 106546101.94808  83022925.63706  20275050.558 6  20275050.485 7
      1304.951 8      1016.848 6        50.000          38.750
  19363041.342 7 103579217.47807  80561629.82807                  19363044.851 7
       977.855 7       760.653 7        42.250          42.500
  23217819.068 6 124330365.46906  96701412.25005                  23217824.014 5
     -1783.192 6     -1386.539 5        37.500          34.250
  20501420.171 8 107735687.91608  83949901.28106  20501420.520 6  20501420.195 7
     -1011.240 8      -787.976 6        51.250          40.000
  22072487.953 7 115991708.47807  90383140.23404  22072485.117 4
     -2100.198 7     -1636.517 4        45.750          28.250
  21632836.942 7 115315202.29807  89689624.68806                  21632843.738 6
      3762.681 7      2926.634 6        43.500          36.000
  21470807.603 7 114612624.29507  89143181.05106                  21470812.087 6
     -2876.471 7     -2237.246 6        46.250          41.750
  19294389.256 8 103030957.98308  80135207.58207                  19294393.332 7
      1259.383 8       979.534 7        48.250          47.500
  21534952.648 6 115035850.68806  89472349.79905                  21534955.629 5
     -2454.642 6     -1909.205 5        39.750          35.000
  23429398.181 6 125243567.82706  97411677.63305                  23429401.607 5
       769.393 6       598.060 5        39.750          30.250
 19  3 19 19 47 53.0000000  0 13G26G30G07G08R19R08G27G16R10R18R09R16
                                R01
  24388651.444 6 128163232.24006  99867462.67602  24388651.761 2  24388652.186 5
     -2571.447 6     -2003.721 2        36.750          15.750
  23390163.917 6 122916141.72406  95778827.53603  23390166.225 3  23390166.244 6
      3722.552 6      2900.688 3        39.000          22.000
  21085514.765 8 110805127.05208  86341648.04505  21085512.543 5  21085512.182 6
      2385.907 8      1859.148 5        49.750          35.000
  20274801.180 8 106544797.54308  83021909.21606  20274802.338 6  20274802.291 7
      1304.457 8      1016.461 6        50.000          38.750
  19362858.391 7 103578240.29807  80560869.80006                  19362862.229 6
       977.112 7       760.751 6        42.000          41.750
  23218152.456 6 124332149.02906  96702799.47505                  23218157.204 5
     -1783.594 6     -1386.691 5        37.250          33.500
  20501612.724 8 107736699.60108  83950689.60706  20501613.059 6  20501612.665 7
     -1011.596 8      -788.253 6        51.250          40.000
  22072887.682 7 115993808.97707  90384776.98704  22072884.827 4
     -2100.198 7     -1636.520 4        45.750          28.250
  21632130.935 7 115311439.88207  89686698.39005                  21632137.653 5
      3762.726 7      2926.305 5        43.500          35.250
  21471346.377 7 114615501.21807  89145418.65506                  21471351.333 6
     -2876.775 7     -2237.120 6        46.250          40.750
  19294153.500 8 103029699.03308  80134228.38907                  19294157.683 7
      1258.955 8       979.438 7        48.250          46.750
  21535412.053 6 115038305.70206  89474259.25605                  21535417.091 5
     -2454.886 6     -1909.286 5        39.750          34.250
  23429253.963 6 125242799.06306  97411079.69104                  23429258.804 4
       768.673 6       598.039 4        39.500          28.750
 19  3 19 19 47 54.0000000  0 13G26G30G07G08R19R08G27G16R10R18R09R16
                                R01
  24389140.724 6 128165803.79806  99869466.48402  24389141.087 2  24389141.165 5
     -2571.737 6     -2003.935 2        36.750          15.250
  23389455.234 6 122912419.27606  95775926.92703  23389457.759 3  23389457.816 6
      3722.263 6      2900.458 3        38.750          21.750
  21085060.720 8 110802741.42908  86339789.12005  21085058.584 5  21085058.248 6
      2385.293 8      1858.671 5        50.000          35.000
  20274552.997 8 106543493.38108  83020892.98606  20274554.159 6  20274554.040 7
      1303.782 8      1015.936 6        50.000          38.750
  19362675.833 7 103577263.70307  80560110.23407                  19362679.610 7
       976.021 7       759.145 7        42.250          42.000
  23218485.554 6 124333932.86406  96704186.92705                  23218489.587 5
     -1784.097 6     -1387.817 5        37.500          33.000
  20501805.358 8 107737711.49108  83951478.09506  20501805.625 6  20501805.323 7
     -1012.279 8      -788.789 6        51.250          40.000
  22073287.297 7 115995909.34007  90386413.63204  22073284.532 4
     -2100.583 7     -1636.817 4        45.750          28.500
  21631424.962 7 115307677.30007  89683771.91205                  21631431.540 5
      3762.392 7      2926.430 5        43.500          35.500
  21471885.265 7 114618378.33707  89147656.42906                  21471890.357 6
     -2877.490 7     -2238.154 6        46.000          41.250
  19293917.855 8 103028440.25708  80133249.34107                  19293921.895 7
      1258.360 8       978.788 7        48.250          47.000
  21535871.981 6 115040760.72606  89476168.74205                  21535876.219 5
     -2455.458 6     -1909.581 5        39.750          34.500
  23429110.405 6 125242030.79706  97410482.15804                  23429115.378 4
       767.647 6       596.849 4        39.500          29.750
 19  3 19 19 47 55.0000000  0 13G26G30G07G08R19R08G27G16R10R18R09R16
                                R01
  24389630.198 6 128168375.31706  99871470.26002  24389630.448 2  24389630.345 5
     -2572.042 6     -2004.184 2        36.750          15.250
  23388746.950 6 122908696.94806  95773026.41803  23388749.342 3  23388749.340 6
      3721.704 6      2900.028 3        39.000          21.750
  21084606.802 8 110800356.16808  86337930.47305  21084604.696 5  21084604.455 7
      2384.609 8      1858.138 5        50.000          35.000
  20274304.876 8 106542189.72908  83019877.15206  20274306.073 6  20274306.108 7
      1302.888 8      1015.236 6        50.000          38.750
  19362493.645 7 103576287.89707  80559351.27507                  19362497.178 7
       974.825 7       758.156 7        42.000          42.250
  23218818.965 6 124335717.21406  96705574.73205                  23218823.031 5
     -1785.007 6     -1388.326 5        37.500          33.250
  20501997.991 8 107738723.84208  83952266.94006  20501998.285 6  20501998.113 7
     -1013.084 8      -789.414 6        51.250          40.000
  22073687.060 7 115998009.78507  90388050.34104  22073684.196 4
     -2101.046 7     -1637.165 4        45.750          28.250
  21630719.052 7 115303914.76607  89680845.50306                  21630725.577 6
      3762.030 7      2926.017 6        43.500          36.000
  21472424.166 7 114621255.91107  89149894.55007                  21472429.530 7
     -2878.308 7     -2238.734 7        45.750          42.000
  19293682.232 8 103027181.90808  80132270.64107                  19293686.209 7
      1257.710 8       978.126 7        48.250          47.500
  21536331.623 6 115043215.99406  89478078.34905                  21536335.499 5
     -2455.946 6     -1910.182 5        39.750          35.000
  23428967.023 6 125241263.26606  97409885.22605                  23428971.935 5
       766.706 6       596.358 5        39.500          30.000
 19  3 19 19 47 56.0000000  0 13G26G30G07G08R19R08G27G16R10R18R09R16
                                R01
  24390119.614 6 128170947.08006  99873474.23702  24390119.813 2  24390119.803 5
     -2570.871 6     -2003.274 2        36.750          14.750
  23388038.765 6 122904974.97706  95770126.18303  23388040.966 3  23388040.935 6
      3722.624 6      2900.752 3        39.000          21.500
  21084152.922 8 110797971.54708  86336072.32605  21084150.911 5  21084150.709 7
      2385.267 8      1858.653 5        50.000          35.000
  20274056.921 8 106540886.82708  83018861.90406  20274058.126 6  20274058.205 7
      1303.538 8      1015.745 6        49.750          38.750
  19362311.704 7 103575313.16907  80558593.14807                  19362315.218 7
       975.285 7       758.520 7        42.000          42.250
  23219152.353 6 124337502.36406  96706963.19605                  23219156.379 5
     -1784.564 6     -1387.993 5        38.000          33.250
  20502190.745 8 107739736.90708  83953056.34306  20502191.074 6  20502191.014 7
     -1012.387 8      -788.873 6        51.250          40.000
  22074087.021 7 116000110.59707  90389687.33804  22074083.924 4
     -2099.961 7     -1636.330 4        45.750          28.250
  21630013.094 7 115300152.57007  89677919.37306                  21630020.568 6
      3762.959 7      2926.675 6        43.250          36.250
  21472963.209 7 114624134.23507  89152133.22807                  21472968.972 7
     -2877.679 7     -2238.082 7        45.500          42.250
  19293446.812 8 103025924.28808  80131292.48007                  19293450.665 7
      1258.271 8       978.581 7        48.250          47.500
  21536791.012 6 115045671.78206  89479988.41005                  21536795.802 5
     -2454.937 6     -1909.493 5        39.250          35.250
  23428823.776 6 125240496.74006  97409289.05705                  23428829.007 5
       767.012 6       596.593 5        39.000          31.000
 19  3 19 19 47 57.0000000  0 13G26G30G07G08R19R08G27G16R10R18R09R16
                                R01
  24390608.983 6 128173519.19506  99875478.48002  24390609.196 2  24390609.490 5
     -2570.925 6     -2003.322 2        37.000          15.000
  23387330.597 6 122901253.50706  95767226.34203  23387332.728 3  23387332.828 6
      3722.490 6      2900.629 3        39.000          21.500
  21083699.355 8 110795587.66908  86334214.76205  21083697.261 5  21083697.048 7
      2384.736 8      1858.229 5        50.000          35.000
  20273809.090 8 106539584.79608  83017847.33506  20273810.354 6  20273810.394 7
      1302.895 8      1015.239 6        50.000          38.750
  19362130.036 7 103574339.63607  80557835.95507                  19362133.302 7
       974.302 7       757.787 7        42.000          42.250
  23219485.816 6 124339288.43906  96708352.36705                  23219490.188 5
     -1785.192 6     -1388.529 5        38.000          33.250
  20502383.677 8 107740750.81408  83953846.40106  20502383.998 6  20502383.985 7
     -1013.049 8      -789.394 6        51.250          40.000
  22074486.839 7 116002211.88207  90391324.70704  22074483.754 4
     -2100.196 7     -1636.523 4        45.750          28.500
  21629307.342 7 115296390.82307  89674993.57706                  21629314.684 6
      3762.811 7      2926.541 6        43.250          36.250
  21473502.359 7 114627013.36307  89154372.55707                  21473508.486 7
     -2878.195 7     -2238.656 7        45.500          42.000
  19293211.544 8 103024667.48108  80130314.96007                  19293215.192 7
      1257.712 8       978.224 7        48.500          47.500
  21537250.370 6 115048128.26106  89481899.01705                  21537255.702 5
     -2455.500 6     -1909.911 5        39.250          35.500
  23428680.521 6 125239731.36606  97408693.73405                  23428686.528 5
       766.049 6       595.949 5        39.000          30.750
 19  3 19 19 47 58.0000000  0 13G26G30G07G08R19R08G27G16R10R18R09R16
                                R01
  24391098.425 6 128176091.26706  99877482.68402  24391098.678 2  24391099.044 5
     -2572.605 6     -2004.617 2        36.750          15.250
  23386622.316 6 122897532.09406  95764326.55203  23386624.606 3  23386624.697 6
      3720.574 6      2899.136 3        39.000          21.500
  21083245.849 8 110793204.11308  86332357.44605  21083243.673 5  21083243.629 6
      2382.693 8      1856.642 5        50.000          35.000
  20273561.364 8 106538283.21208  83016833.11506  20273562.657 6  20273562.716 7
      1300.704 8      1013.537 6        50.000          38.500
  19361947.816 7 103573366.91707  80557079.38906                  19361951.634 6
       971.697 7       755.826 6        42.000          41.250
  23219819.140 6 124341074.99906  96709741.93705                  23219823.771 5
     -1787.478 6     -1390.508 5        38.000          32.500
  20502576.706 8 107741765.12108  83954636.77106  20502577.015 6  20502576.793 7
     -1015.179 8      -791.050 6        51.250          40.000
  22074886.796 7 116004313.22407  90392962.11404  22074883.606 4
     -2101.961 7     -1637.898 4        45.750          28.500
  21628601.497 7 115292629.10607  89672067.75705                  21628609.428 5
      3760.957 7      2925.238 5        43.250          35.500
  21474041.652 7 114629892.87707  89156612.19206                  21474047.750 6
     -2880.392 7     -2240.354 6        45.500          41.250
  19292976.178 8 103023411.06008  80129337.73707                  19292979.788 7
      1255.563 8       976.539 7        48.500          46.500
  21537709.682 6 115050584.95506  89483809.76405                  21537715.441 5
     -2457.401 6     -1911.433 5        39.000          34.750
  23428537.610 6 125238966.67106  97408099.02004                  23428543.411 4
       763.615 6       593.621 4        39.000          29.750
 19  3 19 19 47 59.0000000  0 13G26G30G07G08R19R08G27G16R10R18R09R16
                                R01
  24391588.169 6 128178663.44606  99879486.99802  24391588.155 2  24391588.558 5
     -2572.426 6     -2004.502 2        36.750          15.000
  23385914.371 6 122893810.96306  95761426.96303  23385916.542 3  23385916.343 6
      3720.878 6      2899.386 3        39.000          21.500
  21082792.431 8 110790821.12208  86330500.57005  21082790.201 5  21082790.226 6
      2382.487 8      1856.485 5        50.250          34.750
  20273313.790 8 106536982.32708  83015819.43706  20273315.086 6  20273315.144 7
      1300.332 8      1013.246 6        50.000          38.500
  19361766.267 7 103572395.24007  80556323.65506                  19361770.450 6
       971.024 7       755.151 6        42.000          40.500
  23220152.841 6 124342862.34706  96711132.12206                  23220157.423 6
     -1787.817 6     -1390.659 6        37.750          37.250
  20502769.786 8 107742780.07608  83955427.64606  20502770.154 6  20502769.905 7
     -1015.468 8      -791.272 6        51.500          40.000
  22075286.739 7 116006414.85607  90394599.75104  22075283.517 4
     -2101.973 7     -1637.894 4        46.000          28.250
  21627895.882 7 115288867.62607  89669142.17406                  21627903.709 6
      3761.183 7      2925.267 6        43.500          36.500
  21474581.000 7 114632773.02307  89158852.29807                  21474586.835 7
     -2880.617 7     -2240.453 7        45.250          42.500
  19292741.096 8 103022155.25008  80128361.00008                  19292744.599 8
      1255.284 8       976.409 8        48.750          48.500
  21538169.875 6 115053042.10906  89485720.85906                  21538175.232 6
     -2457.600 6     -1911.176 6        39.000          36.250
  23428394.694 6 125238202.88806  97407504.91005                  23428401.373 5
       763.151 6       593.327 5        39.250          30.750
 19  3 19 19 48  0.0000000  0 13G26G30G07G08R19R08G27G16R10R18R09R16
                                R01
  24392077.707 6 128181235.37206  99881491.08702  24392077.547 2  24392077.781 5
     -2571.577 6     -2003.819 2        37.000          15.500
  23385206.380 6 122890089.67806  95758527.26103  23385208.439 3  23385207.827 6
      3721.491 6      2899.862 3        39.250          21.500
  21082339.054 8 110788438.21108  86328643.75405  21082336.743 5  21082336.694 6
      2383.048 8      1856.922 5        50.000          34.750
  20273066.292 8 106535681.64508  83014805.92006  20273067.559 6  20273067.659 7
      1300.765 8      1013.582 6        50.000          38.250
  19361584.684 7 103571424.16107  80555568.36406                  19361588.968 6
       970.978 7       755.205 6        42.000          40.250
  23220486.443 6 124344649.93706  96712522.50706                  23220491.148 6
     -1787.649 6     -1390.440 6        38.000          37.250
  20502962.937 8 107743795.20208  83956218.65106  20502963.328 6  20502962.955 7
     -1015.124 8      -791.008 6        51.500          40.000
  22075686.580 7 116008516.29307  90396237.23404  22075683.423 4
     -2101.174 7     -1637.277 4        46.000          28.250
  21627190.256 7 115285105.92507  89666216.42006                  21627198.456 6
      3761.950 7      2926.049 6        43.250          36.250
  21475120.526 7 114635653.31307  89161092.53607                  21475126.104 7
     -2880.214 7     -2240.305 7        45.500          42.250
  19292506.106 8 103020899.57308  80127384.37008                  19292509.209 8
      1255.715 8       976.653 8        48.750          48.500
  21538630.158 6 115055499.24606  89487631.99406                  21538635.752 6
     -2456.943 6     -1911.016 6        39.000          36.750
  23428252.123 6 125237439.61006  97406911.25505                  23428258.992 5
       763.371 6       593.912 5        39.000          31.250
 19  3 19 19 48  1.0000000  0 13G26G30G07G08R19R08G27G16R10R18R09R16
                                R01
  24392567.183 6 128183807.43606  99883495.30902  24392566.967 2  24392567.055 5
     -2572.791 6     -2004.793 2        37.000          15.500
  23384498.399 6 122886368.70506  95755627.79903  23384500.380 3  23384499.750 6
      3720.172 6      2898.846 3        39.000          21.500
  21081885.722 8 110786055.88408  86326787.39405  21081883.374 5  21081883.190 6
      2381.456 8      1855.685 5        50.000          34.500
  20272818.848 8 106534381.65308  83013792.93906  20272820.175 6  20272820.292 7
      1299.039 8      1012.242 6        50.000          38.250
  19361403.611 7 103570454.15707  80554813.91606                  19361407.732 6
       968.856 7       753.555 6        42.000          40.250
  23220820.204 6 124346438.23406  96713913.40406                  23220824.946 6
     -1789.261 6     -1391.518 6        38.000          37.250
  20503156.237 8 107744810.97808  83957010.16406  20503156.627 6  20503156.274 7
     -1016.693 8      -792.228 6        51.500          39.750
  22076086.456 7 116010618.03807  90397874.95204  22076083.401 4
     -2102.521 7     -1638.322 4        46.000          28.000
  21626484.769 7 115281344.48007  89663290.85006                  21626493.076 6
      3760.738 7      2925.021 6        43.000          36.250
  21475660.153 7 114638534.26607  89163333.27707                  21475665.957 7
     -2881.885 7     -2241.533 7        45.250          42.250
  19292271.290 8 103019644.55808  80126408.24208                  19292274.100 8
      1254.051 8       975.439 8        48.750          48.250
  21539090.323 6 115057956.85106  89489543.44806                  21539095.337 6
     -2458.474 6     -1912.023 6        39.000          37.000
  23428109.450 6 125236677.26506  97406318.32505                  23428116.734 5
       761.291 6       591.754 5        38.500          30.500
 19  3 19 19 48  2.0000000  0 14G26G30G07G08R19R08G21G27G16R10R18R09
                                R16R01
  24393056.567 6 128186379.53706  99885499.53402  24393056.471 2  24393056.880 5
     -2572.137 6     -2004.284 2        37.000          15.250
  23383790.288 6 122882647.87906  95752728.44403  23383792.356 3  23383791.630 6
      3720.837 6      2899.354 3        39.000          21.250
  21081432.443 8 110783673.94508  86324931.33705  21081430.103 5  21081429.913 6
      2381.806 8      1855.952 5        50.000          34.750
  20272571.598 8 106533082.19108  83012780.37006  20272572.904 6  20272572.886 7
      1299.215 8      1012.379 6        50.000          38.250
  19361222.561 7 103569485.02707  80554060.14206                  19361226.662 6
       968.764 7       753.562 6        42.000          40.250
  23221153.975 6 124348227.05106  96715304.69106                  23221158.673 6
     -1789.136 6     -1391.114 6        38.000          36.750
  25693659.212 6 135021090.81316
     -1961.010 6                        37.500
  20503349.648 8 107745827.24108  83957802.05706  20503350.011 6  20503349.653 7
     -1016.451 8      -792.042 6        51.500          39.750
  22076486.396 7 116012719.91507  90399512.77504  22076483.387 4
     -2101.900 7     -1637.848 4        46.000          28.250
  21625779.151 7 115277583.12207  89660365.36906                  21625787.633 6
      3761.378 7      2925.549 6        43.250          36.000
  21476199.960 7 114641415.68907  89165574.39107                  21476205.789 7
     -2881.651 7     -2241.344 7        45.250          42.000
  19292036.435 8 103018389.97108  80125432.46008                  19292039.175 8
      1254.412 8       975.643 8        48.750          48.250
  21539550.751 6 115060414.76106  89491455.16206                  21539555.858 6
     -2458.065 6     -1911.725 6        38.750          37.000
  23427967.244 6 125235915.70506  97405726.04805                  23427974.264 5
       761.359 6       591.783 5        38.500          30.750
 19  3 19 19 48  3.0000000  0 14G26G30G07G08R19R08G21G27G16R10R18R09
                                R16R01
  24393545.796 6 128188951.63806  99887503.76002  24393545.979 2  24393546.609 5
     -2572.126 6     -2004.248 2        37.250          15.250
  23383082.057 6 122878927.19406  95749829.21003  23383084.257 3  23383083.661 6
      3720.522 6      2899.113 3        39.000          21.500
  21080979.199 8 110781292.43408  86323075.61305  21080976.922 5  21080976.727 6
      2381.185 8      1855.471 5        50.000          34.750
  20272324.439 8 106531783.27308  83011768.22706  20272325.726 6  20272325.707 7
      1298.571 8      1011.875 6        49.750          38.250
  19361041.247 7 103568516.78407  80553307.07906                  19361045.707 6
       967.743 7       752.581 6        42.000          39.000
  23221488.691 6 124350016.41906  96716696.46005                  23221492.581 5
     -1789.767 6     -1392.150 5        37.500          35.750
  25694032.298 6 135023051.65706
     -1961.132 6                        37.500
  20503543.152 8 107746843.99608  83958594.33306  20503543.494 6  20503543.106 7
     -1017.061 8      -792.514 6        51.500          39.500
  22076886.372 7 116014821.93507  90401150.71504  22076883.401 4
     -2102.216 7     -1638.091 4        46.000          28.250
  21625073.647 7 115273821.88407  89657439.94505                  21625082.381 5
      3761.031 7      2925.243 5        42.750          35.000
  21476739.961 7 114644297.60107  89167815.87306                  21476745.645 6
     -2882.286 7     -2241.742 6        45.250          41.250
  19291801.716 8 103017135.88508  80124457.06107                  19291804.250 7
      1253.741 8       975.105 7        48.750          47.250
  21540011.241 6 115062872.98906  89493367.11706                  21540016.297 6
     -2458.506 6     -1912.077 6        38.750          36.250
  23427825.215 6 125235154.91906  97405134.29905                  23427832.134 5
       760.349 6       591.237 5        38.500          30.250
 19  3 19 19 48  4.0000000  0 14G26G30G07G08R19R08G21G27G16R10R18R09
                                R16R01
  24394035.351 6 128191523.96106  99889508.16802  24394035.506 2  24394036.283 5
     -2572.614 6     -2004.632 2        37.250          15.250
  23382374.152 6 122875206.86506  95746930.25603  23382376.167 3  23382375.602 6
      3719.990 6      2898.695 3        39.250          21.250
  21080526.086 8 110778911.52908  86321220.36305  21080523.857 5  21080523.615 6
      2380.378 8      1854.840 5        50.000          34.500
  20272077.426 8 106530485.08708  83010756.65406  20272078.686 6  20272078.752 7
      1297.582 8      1011.103 6        50.000          38.000
  19360860.115 7 103567549.61907  80552554.82506                  19360865.257 6
       966.317 7       751.702 6        42.000          40.250
  23221823.147 6 124351806.63106  96718088.80206                  23221827.005 6
     -1790.906 6     -1392.806 6        37.500          37.000
  25694405.531 6 135025012.97806
     -1961.800 6                        37.750
  20503736.790 8 107747861.44508  83959387.15106  20503737.088 6  20503736.714 7
     -1017.945 8      -793.204 6        51.500          39.750
  22077286.307 7 116016924.28807  90402788.91104  22077283.477 4
     -2102.646 7     -1638.424 4        46.250          28.250
  21624367.759 7 115270060.92107  89654514.74305                  21624377.162 5
      3760.523 7      2924.892 5        43.000          35.750
  21477279.927 7 114647180.18207  89170057.87707                  21477285.374 7
     -2883.151 7     -2242.412 7        45.500          42.000
  19291567.052 8 103015882.48008  80123482.18308                  19291569.471 8
      1252.885 8       974.514 8        48.500          48.500
  21540471.577 6 115065331.68206  89495279.45006                  21540477.059 6
     -2458.995 6     -1912.762 6        38.750          37.250
  23427682.939 6 125234395.12206  97404543.37305                  23427688.909 5
       759.086 6       589.921 5        38.500          31.250
 19  3 19 19 48  5.0000000  0 14G26G30G07G08R19R08G21G27G16R10R18R09
                                R16R01
  24394524.817 6 128194096.69406  99891512.89902  24394525.054 2  24394526.064 5
     -2573.897 6     -2005.633 2        37.250          15.500
  23381666.199 6 122871487.08406  95744031.72903  23381668.246 3  23381667.642 6
      3718.607 6      2897.613 3        39.500          21.250
  21080073.073 8 110776531.43408  86319365.74305  21080070.940 5  21080070.745 6
      2378.703 8      1853.539 5        50.000          34.500
  20271830.529 8 106529187.83108  83009745.80406  20271831.826 6  20271831.958 7
      1295.775 8      1009.695 6        50.000          38.250
  19360679.585 7 103566583.71707  80551803.57006                  19360684.587 6
       964.320 7       749.969 6        42.000          40.250
  23222157.995 6 124353597.76606  96719481.93706                  23222161.342 6
     -1792.778 6     -1394.316 6        37.750          37.250
  25694778.916 6 135026974.94406
     -1963.257 6                        37.500
  20503930.603 8 107748879.78108  83960180.66006  20503930.857 6  20503930.522 7
     -1019.734 8      -794.595 6        51.750          39.750
  22077686.429 7 116019027.18607  90404427.53204  22077683.651 4
     -2104.092 7     -1639.556 4        46.250          28.250
  21623661.972 7 115266300.47307  89651589.95205                  21623671.892 5
      3759.184 7      2924.132 5        43.000          35.750
  21477820.128 7 114650063.66207  89172300.58607                  21477825.320 7
     -2884.910 7     -2243.881 7        45.500          42.000
  19291332.494 8 103014629.96908  80122508.01808                  19291335.017 8
      1251.134 8       972.962 8        48.500          48.500
  21540932.349 6 115067791.16406  89497192.36806                  21540938.033 6
     -2460.897 6     -1913.943 6        38.750          37.500
  23427540.827 6 125233636.50206  97403953.30705                  23427547.701 5
       756.973 6       588.989 5        38.750          31.500
 19  3 19 19 48  6.0000000  0 14G26G30G07G08R19R08G21G27G16R10R18R09
                                R16R01
  24395014.083 6 128196669.27506  99893517.51702  24395014.599 2  24395015.633 5
     -2573.207 6     -2005.137 2        37.000          15.500
  23380958.395 6 122867767.31106  95741133.20303  23380960.370 3  23380959.783 6
      3719.011 6      2897.931 3        39.500          21.500
  21079620.175 8 110774151.59208  86317511.32105  21079618.077 5  21079617.917 6
      2378.896 8      1853.682 5        50.000          34.500
  20271583.728 8 106527890.94208  83008735.24106  20271585.028 6  20271585.118 7
      1295.867 8      1009.764 6        50.000          38.250
  19360499.421 7 103565618.53507  80551052.86306                  19360504.311 6
       963.992 7       749.905 6        42.250          40.250
  23222492.466 6 124355389.32106  96720875.39106                  23222495.587 6
     -1792.453 6     -1394.128 6        37.750          36.250
  25695151.995 6 135028937.03806
     -1962.957 6                        37.500
  20504124.418 8 107749898.45508  83960974.43206  20504124.693 6  20504124.332 7
     -1019.667 8      -794.547 6        51.750          39.750
  22078086.635 7 116021130.06607  90406066.13904  22078083.826 4
     -2103.682 7     -1639.235 4        46.250          28.250
  21622956.474 7 115262539.94307  89648665.11505                  21622966.860 5
      3759.833 7      2924.176 5        43.250          35.750
  21478360.411 7 114652947.47407  89174543.54407                  21478365.519 7
     -2884.766 7     -2243.616 7        45.500          42.000
  19291097.844 8 103013377.77108  80121534.08608                  19291100.501 8
      1251.236 8       973.209 8        48.500          48.500
  21541392.824 6 115070250.78606  89499105.42306                  21541398.689 6
     -2460.620 6     -1913.862 6        39.000          37.500
  23427399.303 6 125232878.48706  97403363.73105                  23427406.174 5
       756.898 6       588.809 5        38.750          31.750
 19  3 19 19 48  7.0000000  0 14G26G30G07G08R19R08G21G27G16R10R18R09
                                R16R01
  24395503.755 6 128199242.00206  99895522.23702  24395504.161 2  24395505.753 5
     -2573.851 6     -2005.598 2        37.750          15.750
  23380250.511 6 122864047.69606  95738234.79803  23380252.463 3  23380252.124 6
      3719.216 6      2898.085 3        39.750          21.750
  21079167.387 8 110771772.15708  86315657.21605  21079165.289 5  21079165.258 6
      2378.848 8      1853.648 5        50.000          34.750
  20271337.078 8 106526594.58308  83007725.09106  20271338.338 6  20271338.465 7
      1295.649 8      1009.592 6        50.000          38.250
  19360319.536 7 103564654.21607  80550302.84906                  19360324.025 6
       963.241 7       749.232 6        42.000          40.500
  23222827.277 6 124357181.45206  96722269.26206                  23222830.215 6
     -1792.734 6     -1394.370 6        37.750          36.500
  25695525.251 6 135030899.50306
     -1963.512 6                        37.250
  20504318.334 8 107750917.68208  83961768.63506  20504318.627 6  20504318.268 7
     -1020.159 8      -794.930 6        51.750          39.750
  22078486.839 7 116023233.14807  90407704.90704  22078484.023 4
     -2103.942 7     -1639.439 4        46.500          28.250
  21622251.060 7 115258779.53407  89645740.34206                  21622262.001 6
      3759.912 7      2924.391 6        43.250          36.000
  21478900.835 7 114655831.84607  89176786.93707                  21478905.906 7
     -2885.491 7     -2244.279 7        45.250          42.250
  19290863.416 8 103012126.05308  80120560.53208                  19290866.083 8
      1250.930 8       972.842 8        48.500          48.750
  21541853.431 6 115072710.78306  89501018.72006                  21541859.126 6
     -2460.849 6     -1914.074 6        39.000          37.750
  23427257.540 6 125232121.30306  97402774.83705                  23427264.775 5
       756.350 6       588.004 5        38.500          31.750
 19  3 19 19 48  8.0000000  0 14G26G30G07G08R19R08G21G27G16R10R18R09
                                R16R01
  24395993.320 6 128201816.06606  99897528.00002  24395994.040 2  24395996.200 5
     -2574.726 6     -2006.291 2        40.250          15.750
  23379542.492 6 122860328.11906  95735336.42503  23379544.512 3  23379544.408 6
      3719.580 6      2898.398 3        40.500          21.500
  21078714.622 8 110769393.05208  86313803.36805  21078712.560 5  21078712.339 6
      2378.602 8      1853.455 5        50.250          34.750
  20271090.505 8 106525298.71808  83006715.32506  20271091.741 6  20271091.817 7
      1295.301 8      1009.326 6        50.250          38.250
  19360139.637 7 103563691.25107  80549553.86506                  19360143.828 6
       961.668 7       747.910 6        42.750          39.250
  23223162.234 6 124358973.66406  96723663.20706                  23223164.434 6
     -1792.267 6     -1394.460 6        36.750          37.000
  25695898.806 6 135032863.76006
     -1965.533 6                        37.250
  20504512.472 8 107751938.22008  83962563.85906  20504512.803 6  20504512.492 7
     -1021.721 8      -796.146 6        51.500          39.750
  22078887.664 7 116025337.66607  90409344.79004  22078884.506 4
     -2106.091 7     -1641.112 4        45.000          28.250
  21621545.797 7 115255019.28307  89642815.76105                  21621556.099 5
      3759.720 7      2924.201 5        44.250          32.500
  21479441.600 7 114658718.07907  89179031.70906                  21479446.587 6
     -2887.785 7     -2244.845 6        46.750          41.500
  19290628.960 8 103010875.32608  80119587.77507                  19290632.015 7
      1249.943 8       971.546 7        48.250          47.250
  21542314.012 6 115075171.97306  89502933.03906                  21542320.066 6
     -2462.084 6     -1915.310 6        38.750          36.000
  23427116.098 6 125231365.38506  97402186.88304                  23427122.509 4
       755.003 6       587.937 4        37.750          29.750
 19  3 19 19 48  9.0000000  0 14G26G30G07G08R19R08G21G27G16R10R18R09
                                R16R01
  24396484.025 6 128204391.79106  99899535.06402  24396484.179 2  24396486.189 5
     -2576.379 6     -2007.566 2        37.750          15.500
  23378834.685 6 122856608.69106  95732438.16303  23378836.618 3  23378836.349 6
      3719.345 6      2898.209 3        40.750          21.750
  21078261.934 8 110767014.25408  86311949.76005  21078259.920 5  21078259.606 7
      2378.409 8      1853.306 5        50.250          34.750
  20270843.943 8 106524003.27408  83005705.88406  20270845.221 6  20270845.263 7
      1295.062 8      1009.153 6        49.750          38.250
  19359959.851 7 103562729.63807  80548805.92006                  19359963.773 6
       960.803 7       747.550 6        42.500          41.750
  23223496.706 6 124360765.81906  96725057.10505                  23223499.745 5
     -1792.098 6     -1394.624 5        36.750          35.250
  25696272.785 6 135034830.14206
     -1966.525 6                        36.000
  20504706.956 8 107752960.12508  83963360.15006  20504707.261 6  20504707.038 7
     -1022.310 8      -796.602 6        51.000          39.750
  22079288.311 7 116027443.65407  90410985.83004  22079285.328 4
     -2106.415 7     -1641.374 4        46.250          28.000
  21620840.835 7 115251259.17707  89639891.17305                  21620850.542 5
      3760.615 7      2924.691 5        44.000          35.000
  21479983.074 7 114661606.35207  89181278.17407                  21479987.811 7
     -2888.583 7     -2246.573 7        46.250          42.000
  19290394.731 8 103009625.64008  80118615.75207                  19290397.929 7
      1248.900 8       971.540 7        48.000          47.500
  21542774.424 6 115077634.37106  89504848.16905                  21542780.473 5
     -2462.854 6     -1915.268 5        39.000          35.250
  23426974.560 6 125230610.88906  97401600.04405                  23426980.022 5
       754.388 6       588.007 5        38.500          31.500
 19  3 19 19 48 10.0000000  0 14G26G30G07G08R19R08G21G27G16R10R18R09
                                R16R01
  24396973.784 6 128206966.66506  99901541.44202  24396974.189 2  24396976.177 5
     -2575.165 6     -2006.587 2        39.750          15.250
  23378126.910 6 122852888.90206  95729539.62503  23378128.729 3  23378128.501 6
      3719.752 6      2898.493 3        40.750          21.500
  21077809.314 8 110764635.41808  86310096.11605  21077807.266 5  21077807.068 7
      2378.150 8      1853.103 5        50.250          34.750
  20270597.489 8 106522708.01808  83004696.59306  20270598.727 6  20270598.734 7
      1294.588 8      1008.765 6        50.000          38.250
  19359780.237 7 103561768.37607  80548058.29907                  19359783.651 7
       960.676 7       747.015 7        42.500          42.000
  23223831.019 6 124362558.21906  96726451.15405                  23223834.506 5
     -1793.401 6     -1394.203 5        36.500          32.750
  25696646.649 6 135036795.92706
     -1965.962 6                        36.000
  20504901.358 8 107753981.95908  83964156.38306  20504901.696 6  20504901.599 7
     -1022.538 8      -796.779 6        51.250          39.500
  22079688.792 7 116029549.17107  90412626.49904  22079686.022 4
     -2106.268 7     -1641.258 4        46.250          28.250
  21620135.643 7 115247498.70607  89636966.41605                  21620143.489 5
      3760.287 7      2923.568 5        44.750          34.750
  21480524.255 7 114664494.45207  89183524.47706                  21480529.331 6
     -2889.117 7     -2246.016 6        46.000          41.250
  19290160.529 8 103008375.83308  80117643.68607                  19290163.842 7
      1249.076 8       971.471 7        48.000          47.250
  21543235.292 6 115080096.55306  89506763.23605                  21543240.193 5
     -2462.842 6     -1915.699 5        39.250          35.000
  23426833.305 6 125229856.53806  97401013.42205                  23426838.826 5
       753.393 6       586.091 5        38.000          31.750
 19  3 19 19 48 11.0000000  0 14G26G30G07G08R19R08G21G27G16R10R18R09
                                R16R01
  24397464.025 6 128209541.72906  99903547.94702  24397464.176 2  24397466.150 5
     -2575.974 6     -2007.181 2        39.000          15.000
  23377419.360 6 122849169.76206  95726641.60503  23377420.916 3  23377420.810 6
      3718.575 6      2897.570 3        41.500          21.750
  21077356.845 8 110762257.41808  86308243.13005  21077354.778 5  21077354.530 7
      2377.154 8      1852.328 5        50.250          34.750
  20270351.162 8 106521413.66808  83003688.01006  20270352.413 6  20270352.400 7
      1293.488 8      1007.911 6        49.750          38.250
  19359600.780 7 103560808.27407  80547311.55707                  19359604.216 7
       958.975 7       745.729 7        42.500          42.500
  23224165.765 6 124364351.67106  96727846.05905                  23224169.872 5
     -1794.519 6     -1396.189 5        37.750          32.750
  25697020.212 6 135038762.18206
     -1966.288 6                        36.000
  20505095.853 8 107755004.46008  83964953.13706  20505096.251 6  20505096.281 7
     -1023.393 8      -797.447 6        51.250          39.500
  22080089.306 7 116031654.80607  90414267.25604  22080086.746 4
     -2105.971 7     -1641.012 4        46.000          28.000
  21619430.483 7 115243738.77307  89634041.96906                  21619437.365 6
      3758.683 7      2923.756 6        43.250          36.250
  21481065.717 7 114667383.02007  89185771.18707                  21481070.544 7
     -2889.322 7     -2246.973 7        45.500          42.000
  19289926.571 8 103007126.84708  80116672.24307                  19289929.932 7
      1247.816 8       970.880 7        48.250          47.500
  21543696.059 6 115082559.19406  89508678.56805                  21543700.875 5
     -2463.650 6     -1915.774 5        39.000          35.000
  23426692.068 6 125229103.44006  97400427.59205                  23426697.281 5
       751.129 6       585.283 5        36.000          31.500
 19  3 19 19 48 12.0000000  0 14G26G30G07G08R19R08G21G27G16R10R18R09
                                R16R01
  24397954.147 6 128212116.83506  99905554.50102  24397954.216 2  24397956.560 5
     -2577.316 6     -2008.352 2        38.250          14.750
  23376711.837 6 122845450.70506  95723743.64603  23376713.165 3  23376713.033 6
      3717.629 6      2896.874 3        40.250          22.250
  21076904.452 8 110759879.77008  86306390.42105  21076902.371 5  21076902.308 7
      2376.803 8      1852.054 5        50.500          35.000
  20270104.917 8 106520119.80808  83002679.80306  20270106.192 6  20270106.230 7
      1292.661 8      1007.272 6        50.000          38.250
  19359421.602 7 103559849.07307  80546565.50207                  19359424.546 7
       957.662 7       744.922 7        42.750          42.250
  23224500.497 6 124366145.67506  96729241.28405                  23224504.787 5
     -1795.240 6     -1395.675 5        36.750          33.500
  25697394.091 6 135040728.71306
     -1968.076 6                        36.250
  20505290.504 8 107756027.48708  83965750.30306  20505290.919 6  20505291.021 7
     -1024.192 8      -798.077 6        51.500          39.500
  22080490.162 7 116033760.77607  90415908.27404  22080487.520 4
     -2107.967 7     -1642.570 4        45.500          28.000
  21618725.270 7 115239978.81807  89631117.58605                  21618731.863 5
      3759.148 7      2923.877 5        43.250          35.750
  21481606.981 7 114670272.21607  89188018.25606                  21481611.923 6
     -2890.677 7     -2248.741 6        46.500          41.500
  19289692.644 8 103005878.32208  80115701.15807                  19289696.153 7
      1247.193 8       970.128 7        48.000          47.500
  21544156.611 6 115085022.15906  89510594.25805                  21544161.985 5
     -2464.241 6     -1917.001 5        39.000          35.500
  23426551.444 6 125228351.01206  97399842.32805                  23426556.114 5
       750.393 6       584.917 5        37.000          31.750
 19  3 19 19 48 13.0000000  0 14G26G30G07G08R19R08G21G27G16R10R18R09
                                R16R01
  24398444.344 6 128214692.98906  99907561.90902  24398444.521 2
     -2576.429 6     -2007.580 2        39.500          14.500
  23376004.161 6 122841731.87606  95720845.85503  23376005.513 3  23376005.398 6
      3718.696 6      2897.675 3        41.000          22.250
  21076452.122 8 110757502.70708  86304538.16305  21076450.053 5  21076450.066 6
      2376.683 8      1851.960 5        50.250          34.750
  20269858.879 8 106518826.71508  83001672.20106  20269860.123 6  20269860.258 7
      1292.728 8      1007.311 6        49.750          38.000
  19359242.475 7 103558891.34707  80545820.58806                  19359245.043 6
       956.826 7       744.384 6        42.750          41.000
  23224835.738 6 124367940.10206  96730637.00205                  23224840.444 5
     -1794.875 6     -1395.771 5        36.250          31.750
  25697768.649 6 135042696.53506
     -1968.777 6                        37.750
  20505485.394 8 107757051.70808  83966548.39506  20505485.815 6  20505485.896 7
     -1025.225 8      -798.876 6        51.000          39.250
  22080890.987 7 116035867.77607  90417550.09104  22080888.459 4
     -2107.711 7     -1642.367 4        45.500          27.750
  21618019.605 7 115236219.23307
      3759.268 7                        44.000
  21482148.648 7 114673162.76807  89190266.59906                  21482153.739 6
     -2891.650 7     -2249.157 6        45.500          40.500
  19289458.886 8 103004630.73908  80114730.85007                  19289462.718 7
      1247.177 8       969.624 7        48.250          46.000
  21544617.664 6 115087486.27306
     -2464.991 6                        38.500
  23426410.459 6 125227599.65006  97399258.14205                  23426415.676 5
       750.598 6       582.680 5        36.500          30.750
 19  3 19 19 48 14.0000000  0 14G26G30G07G08R19R08G21G27G16R10R18R09
                                R16R01
  24398934.587 6 128217270.02806  99909569.97602  24398934.906 2  24398936.786 6
     -2577.228 6     -2008.220 2        40.500          14.750
  23375296.634 6 122838013.35906  95717948.31403  23375297.883 3  23375298.024 6
      3718.520 6      2897.550 3        41.000          22.250
  21075999.831 8 110755126.09808  86302686.26105  21075997.815 5  21075997.906 7
      2376.692 8      1851.967 5        50.250          34.750
  20269612.917 8 106517534.17408  83000665.02706  20269614.157 6  20269614.423 7
      1292.335 8      1007.024 6        50.000          38.000
  19359063.663 7 103557934.85307  80545076.66406                  19359066.010 6
       955.556 7       743.441 6        42.750          41.750
  23225170.381 6                                                  23225176.603 5
     -1794.699 6     -1395.911 5        36.250          32.250
  25698143.298 6 135044665.72006 105229582.20611  25698139.063 1
     -1969.767 6     -1534.833 1        38.250          11.000
  20505680.544 8 107758077.00408  83967347.32506  20505680.880 6  20505681.041 7
     -1026.021 8      -799.497 6        51.000          39.250
  22081292.024 7 116037975.70907  90419192.63404  22081289.572 4
     -2108.782 7     -1643.203 4        45.250          27.500
  21617314.402 7 115232459.87907  89625269.53005                  21617322.403 5
      3759.543 7      2924.001 5        44.750          35.500
  21482690.609 7 114676054.89507  89192515.89406                  21482695.364 6
     -2892.685 7     -2250.201 6        46.000          41.000
  19289225.406 8 103003384.05408  80113761.17507                  19289229.695 7
      1246.475 8       969.581 7        48.250          47.250
  21545078.725 6 115089951.14406  89514427.88405                  21545084.384 5
     -2465.907 6     -1917.196 5        38.750          35.250
  23426270.754 6 125226849.75906  97398674.75705                  23426274.906 5
       750.331 6       584.690 5        36.500          32.750
 19  3 19 19 48 15.0000000  0 14G26G30G07G08R19R08G21G27G16R10R18R09
                                R16R01
  24399424.968 6 128219847.52306  99911578.38002  24399425.367 2  24399426.723 5
     -2577.651 6     -2008.551 2        38.250          14.500
  23374588.717 6 122834294.29006  95715050.33403  23374590.186 3  23374590.601 6
      3719.621 6      2898.405 3        41.250          23.000
  21075547.507 8 110752749.32108  86300834.22905  21075545.551 5  21075545.693 7
      2377.365 8      1852.494 5        50.000          34.750
  20269367.031 8 106516241.71808  82999657.91906  20269368.191 6  20269368.451 7
      1292.670 8      1007.262 6        49.000          37.750
  19358884.799 7 103556979.10607  80544333.32107                  19358887.333 7
       955.444 7       743.393 7        42.500          42.000
  23225505.751 5                                                  23225511.630 5
     -1793.782 5     -1395.583 5        35.250          32.500
  25698518.529 6 135046635.69906 105231117.23202  25698513.928 2
     -1970.314 6     -1535.292 2        37.500          12.000
  20505875.782 8 107759102.77408  83968146.62106  20505876.076 6  20505876.374 7
     -1025.839 8      -799.352 6        51.750          39.000
  22081693.411 7 116040084.20107  90420835.61204  22081690.784 4
     -2107.784 7     -1642.427 4        45.250          27.000
  21616609.160 7 115228700.10307  89622345.34406                  21616616.496 6
      3760.458 7      2924.400 6        44.250          36.000
  21483232.473 7 114678947.81407  89194765.99506                  21483237.220 6
     -2893.629 7     -2250.459 6        46.000          41.750
  19288991.986 8 103002137.65908  80112791.77007                  19288996.296 7
      1246.646 8       969.622 7        48.000          47.500
  21545540.263 6 115092416.58606  89516345.50305                  21545545.441 5
     -2465.855 6     -1917.853 5        38.750          35.500
  23426131.352 5 125226100.24905  97398091.80305                  23426134.935 5
       749.594 5       584.562 5        35.500          33.500
 19  3 19 19 48 16.0000000  0 14G26G30G07G08R19R08G21G27G16R10R18R09
                                R16R01
  24399915.297 6 128222425.65506  99913587.35702  24399915.993 2  24399916.797 5
     -2579.155 6     -2009.790 2        37.250          15.250
  23373880.678 6 122830574.02906  95712151.44103  23373882.288 3  23373882.553 6
      3720.703 6      2899.244 3        41.250          23.000
  21075095.120 8 110750371.93308  86298981.72105  21075093.148 5  21075093.433 6
      2377.130 8      1852.304 5        49.750          34.500
  20269121.085 8 106514949.32108  82998650.86006  20269122.256 6  20269122.516 7
      1291.718 8      1006.539 6        50.750          38.250
  19358705.918 7 103556024.16007  80543590.58506                  19358708.706 6
       953.783 7       741.934 6        42.500          41.750
  23225840.745 6                                                  23225846.999 5
     -1793.212 6     -1394.912 5        37.250          34.500
  25698893.336 5 135048604.64805 105232651.43401  25698888.847 1
     -1969.014 5     -1534.251 1        34.000          11.250
  20506071.462 8 107760129.07708  83968946.33006  20506071.320 6  20506071.675 7
     -1027.513 8      -800.652 6        51.250          39.000
  22082094.623 7 116042193.01807  90422478.84604  22082092.068 4
     -2109.524 7     -1643.774 4        46.000          26.750
  21615903.726 7 115224939.05307  89619420.05405                  21615910.018 5
      3760.907 7      2925.296 5        45.500          35.750
  21483774.359 7 114681840.98407  89197016.29907                  21483778.632 7
     -2893.666 7     -2250.976 7        44.000          42.000
  19288758.457 8 103000891.22808  80111822.33607                  19288762.768 7
      1245.810 8       968.833 7        48.250          47.250
  21546002.246 6 115094882.79606  89518263.63905                  21546007.358 5
     -2467.393 6     -1919.357 5        39.750          35.250
  23425991.412 6 125225350.24606  97397508.54905                  23425995.489 5
       749.942 6       582.744 5        37.250          31.750
 19  3 19 19 48 17.0000000  0 14G26G30G07G08R19R08G21G27G16R10R18R09
                                R16R01
  24400405.876 6 128225004.69606  99915597.01402  24400406.790 2  24400407.315 5
     -2579.708 6     -2010.154 2        38.500          15.250
  23373172.521 7 122826853.10407  95709252.02403  23373174.234 3  23373174.326 6
      3721.096 7      2899.545 3        42.750          23.250
  21074642.673 8 110747994.61208  86297129.26705  21074640.767 5  21074640.742 6
      2376.908 8      1852.126 5        49.500          34.250
  20268875.378 8 106513657.98208  82997644.61806  20268876.531 6  20268876.761 7
      1290.527 8      1005.603 6        50.500          38.500
  19358527.655 7 103555070.70807  80542849.03607                  19358530.551 7
       952.570 7       740.814 7        42.000          42.000
  23226175.712 5 124375116.16805  96736218.41305                  23226181.300 5
     -1792.864 5     -1395.087 5        34.500          34.000
  25699268.329 6
     -1969.645 6                        36.000
  20506267.031 8 107761156.11108  83969746.62206  20506266.766 6  20506267.237 7
     -1029.072 8      -801.884 6        50.750          38.750
  22082496.088 7 116044302.62807  90424122.68704  22082493.543 4
     -2109.875 7     -1644.062 4        44.750          26.500
  21615198.156 7 115221177.37107  89616494.29505                  21615204.672 5
      3761.894 7      2925.406 5        45.500          35.500
  21484316.240 7 114684734.54107  89199266.81807                  21484320.560 7
     -2893.509 7     -2250.177 7        44.250          42.500
  19288525.253 8 102999645.26508  80110853.23007                  19288529.462 7
      1245.612 8       969.203 7        48.250          47.500
  21546464.208 6 115097350.54606  89520183.01806                  21546469.307 6
     -2468.740 6     -1920.492 6        40.500          36.000
  23425851.623 6 125224600.15806  97396925.11905                  23425855.542 5
       750.344 6       583.491 5        40.500          34.000
 19  3 19 19 48 18.0000000  0 14G26G30G07G08R19R08G21G27G16R10R18R09
                                R16R01
  24400895.923 5 128227582.10105  99917605.39302  24400897.273 2  24400897.182 5
     -2576.751 5     -2007.882 2        34.250          14.250
  23372464.463 7 122823132.11507  95706352.56203  23372466.099 3  23372466.315 6
      3719.260 7      2898.104 3        42.250          23.500
  21074190.332 8 110745617.70908  86295277.14405  21074188.467 5  21074188.271 6
      2375.174 8      1850.776 5        49.500          34.000
  20268629.815 7 106512367.50807  82996639.05206  20268630.950 6  20268631.143 7
      1289.114 7      1004.500 6        47.500          38.000
  19358349.602 7 103554117.87807  80542107.97107                  19358352.279 7
       951.870 7       740.105 7        42.250          42.250
  23226509.566 5 124376910.44705  96737614.08305                  23226516.123 5
     -1796.985 5     -1398.019 5        32.750          34.250
  25699643.381 6
     -1967.922 6                        37.750
  20506462.843 8 107762182.81808  83970546.65506  20506462.113 6  20506462.797 7
     -1028.669 8      -801.572 6        49.000          38.750
  22082897.392 7 116046411.20907  90425765.74904  22082894.800 4
     -2108.302 7     -1642.847 4        47.000          26.500
  21614492.458 7 115217415.44807  89613568.27805                  21614499.320 5
      3760.222 7      2924.826 5        44.750          35.250
  21484858.153 7 114687627.00307  89201516.41107                  21484862.095 7
     -2892.547 7     -2249.191 7        43.500          43.750
  19288291.962 8 102998399.19308  80109884.16307                  19288296.049 7
      1245.097 8       968.132 7        48.500          46.500
  21546926.245 6 115099818.07706  89522102.20805                  21546931.721 5
     -2467.709 6     -1918.568 5        39.250          34.750
  23425711.369 6 125223849.79606  97396341.44105                  23425714.700 5
       748.877 6       582.620 5        39.750          34.000
 19  3 19 19 48 19.0000000  0 14G26G30G07G08R19R08G21G27G16R10R18R09
                                R16R01
  24401385.726 5 128230156.59505                                  24401386.938 6
     -2573.839 5                        35.250
  23371757.018 7 122819413.90607  95703455.25904  23371758.513 4  23371758.767 6
      3716.257 7      2895.783 4        43.750          24.000
  21073738.450 8 110743243.22808  86293426.90205  21073736.614 5  21073736.182 6
      2372.854 8      1848.971 5        49.500          33.750
  20268384.490 7 106511078.37907  82995634.54406  20268385.632 6  20268386.026 7
      1288.093 7      1003.703 6        46.500          36.750
  19358171.627 7 103553165.38607  80541367.14107                  19358174.381 7
       951.867 7       740.043 7        43.500          42.000
  23226845.659 5 124378708.85905  96739012.67205                  23226851.376 5
     -1801.294 5     -1400.537 5        33.750          34.000
  25700017.683 6 135054510.01006
     -1967.313 6                        38.500
  20506657.863 8 107763209.07408  83971346.36006  20506657.492 6  20506658.061 7
     -1026.839 8      -800.199 6        52.500          38.750
  22083298.394 8 116048517.76108  90427407.23304  22083295.708 4
     -2106.122 8     -1641.171 4        48.000          26.750
  21613787.119 7 115213656.02607  89610644.30305                  21613794.161 5
      3757.627 7      2922.178 5        44.750          35.250
  21485399.535 7 114690518.46107  89203765.35507                  21485403.869 7
     -2891.840 7     -2249.143 7        43.000          42.500
  19288058.756 7 102997153.97407  80108915.58808                  19288063.065 8
      1244.275 7       967.763 8        47.750          49.000
  21547388.370 6 115102283.72506  89524020.01705                  21547393.330 5
     -2465.322 6     -1917.601 5        40.000          34.750
  23425571.292 6 125223102.00506  97395759.80705                  23425574.753 5
       745.956 6       580.678 5        40.750          34.250
 19  3 19 19 48 20.0000000  0 14G26G30G07G08R19R08G21G27G16R10R18R09
                                R16R01
  24401875.480 5 128232730.42205                                  24401877.132 6
     -2571.378 5                        35.250
  23371049.991 7 122815698.09607  95700559.82604  23371051.376 4  23371051.757 6
      3714.765 7      2894.629 4        44.000          24.250
  21073286.910 8 110740870.90108  86291578.34005  21073285.150 5  21073284.491 6
      2371.609 8      1848.003 5        49.500          33.250
  20268139.370 7 106509790.58207  82994631.07106  20268140.592 6  20268140.924 7
      1287.844 7      1003.513 6        46.500          36.000
  19357993.836 7 103552213.89007  80540627.06806                  19357997.048 6
       952.035 7       740.515 6        43.750          39.500
  23227181.386 5 124380510.33905  96740413.90306                  23227187.610 6
     -1803.055 5     -1402.559 6        34.000          37.000
  25700392.110 6 135056477.19206
     -1966.128 6                        37.750
  20506853.363 8 107764236.07108  83972146.65206  20506852.928 6  20506853.758 7
     -1026.375 8      -799.801 6        52.750          39.250
  22083699.406 8 116050623.79208  90429048.33404  22083696.575 4
     -2104.357 8     -1639.785 4        48.000          27.500
  21613082.279 7 115209898.82907  89607722.04105                  21613088.983 5
      3756.381 7      2921.454 5        45.000          34.250
  21485940.984 7 114693410.35407  89206014.61907                  21485945.401 7
     -2891.039 7     -2248.502 7        43.250          42.500
  19287825.774 8 102995909.93808  80107948.03108                  19287830.180 8
      1244.276 8       967.689 8        48.000          49.500
  21547850.353 6 115104748.83006  89525937.27605                  21547854.680 5
     -2463.504 6     -1915.914 5        40.250          34.750
  23425431.863 6 125222356.68006  97395180.19305                  23425435.762 5
       744.569 6       578.966 5        41.000          34.250
 19  3 19 19 48 21.0000000  0 14G26G30G07G08R19R08G21G27G16R10R18R09
                                R16R01
  24402364.709 5 128235300.71605  99923613.74212  24402367.283 2  24402366.065 6
     -2569.137 5     -2001.851 2        34.500          15.500
  23370343.573 7 122811985.10707  95697666.58804  23370344.756 4  23370345.458 6
      3711.020 7      2891.704 4        42.500          24.750
  21072835.888 8 110738500.56008  86289731.32105  21072834.075 5  21072833.438 6
      2369.023 8      1845.993 5        50.000          33.500
  20267894.436 7 106508503.13407  82993627.86605  20267895.605 5  20267895.851 7
      1286.841 7      1002.729 5        47.500          35.000
  19357815.848 7 103551261.65707  80539886.42706                  19357819.468 6
       952.266 7       740.573 6        42.750          39.750
  23227519.081 5 124382315.64205  96741818.04906                  23227524.713 6
     -1807.492 5     -1405.899 6        32.750          38.250
  25700766.206 6 135058443.15806
     -1966.919 6                        37.750
  20507048.521 8 107765262.08108  83972946.13806  20507048.244 6  20507048.801 7
     -1026.486 8      -799.874 6        51.500          39.000
  22084099.987 7 116052727.10907  90430687.28304  22084096.875 4
     -2102.044 7     -1637.943 4        46.000          27.750
  21612377.822 7 115206144.07707  89604801.69605                  21612384.231 5
      3753.114 7      2919.223 5        44.250          34.500
  21486482.313 7 114696301.18407  89208263.00907                  21486487.182 7
     -2891.208 7     -2247.372 7        44.750          44.500
  19287592.844 8 102994666.21708  80106980.70107                  19287596.904 7
      1243.434 8       966.607 7        48.750          47.500
  21548311.632 6 115107210.84906  89527852.17305                  21548314.775 5
     -2461.030 6     -1914.559 5        39.000          35.250
  23425292.815 6 125221614.07206  97394602.61305                  23425297.987 5
       740.923 6       575.886 5        39.750          35.000
 19  3 19 19 48 22.0000000  0 14G26G30G07G08R19R08G21G27G16R10R18R09
                                R16R01
  24402852.679 6 128237867.96106  99925614.16602  24402855.786 2  24402854.786 6
     -2566.680 6     -2000.039 2        39.500          15.250
  23369637.454 7 122808275.13307  95694775.70404  23369638.754 4  23369639.462 6
      3708.497 7      2889.731 4        42.750          24.250
  21072385.266 8 110736132.45808  86287886.05005  21072383.447 5  21072383.073 6
      2367.226 8      1844.593 5        50.750          33.500
  20267649.601 8 106507216.18308  82992625.04805  20267650.707 5  20267651.209 7
      1286.685 8      1002.612 5        49.250          35.250
  19357637.694 7 103550309.15707  80539145.59906                  19357642.087 6
       952.609 7       740.995 6        43.500          40.250
  23227855.456 5 124384124.77005  96743225.18406                  23227862.522 6
     -1811.414 5     -1408.736 6        34.250          38.500
  25701140.149 6 135060408.81506
     -1965.826 6                        36.000
  20507243.494 8 107766287.74908  83973745.36106  20507243.444 6  20507243.527 7
     -1025.637 8      -799.186 6        51.250          39.000
  22084499.755 7 116054828.47107  90432324.70904  22084496.754 4
     -2100.828 7     -1637.018 4        45.000          27.500
  21611673.914 7 115202392.15407  89601883.52205                  21611680.537 5
      3750.306 7      2917.355 5        44.750          35.000
  21487023.980 7 114699191.92107  89210511.37707                  21487029.064 7
     -2890.991 7     -2247.835 7        44.250          43.750
  19287360.217 8 102993423.33308  80106013.98007                  19287363.927 7
      1242.664 8       966.493 7        49.000          47.500
  21548772.263 6 115109670.33606  89529765.10405                  21548775.047 5
     -2458.633 6     -1912.343 5        39.250          34.500
  23425153.951 6 125220874.82606  97394027.60205                  23425160.080 5
       737.631 6       573.927 5        41.000          35.500
 19  3 19 19 48 23.0000000  0 14G26G30G07G08R19R08G21G27G16R10R18R09
                                R16R01
  24403341.067 6 128240432.69206  99927612.62902  24403343.885 2  24403342.697 6
     -2563.940 6     -1997.840 2        37.000          16.000
  23368931.962 7 122804567.66207  95691886.77603  23368933.262 3  23368933.832 6
      3706.437 7      2888.117 3        42.250          23.750
  21071935.073 8 110733766.06308  86286042.10205  21071933.133 5  21071932.638 6
      2365.712 8      1843.417 5        50.500          33.750
  20267404.686 8 106505929.38408  82991622.34906  20267405.841 6  20267406.373 7
      1286.752 8      1002.665 6        50.500          36.000
  19357459.589 7 103549356.31707  80538404.48706                  19357464.207 6
       953.092 7       741.445 6        43.000          39.750
  23228193.781 6 124385936.89106  96744634.65906                  23228201.570 6
     -1812.905 6     -1410.862 6        36.000          37.500
  25701513.983 6 135062374.59706
     -1964.711 6                        36.500
  20507438.491 8 107767312.98508  83974544.23006  20507438.528 6  20507438.539 7
     -1024.138 8      -797.925 6        48.750          38.500
  22084899.340 7 116056928.30107  90433960.94904  22084896.356 4
     -2098.479 7     -1635.197 4        45.000          27.500
  21610970.627 7 115198642.46307  89598967.11705                  21610977.270 5
      3749.210 7      2915.938 5        44.750          34.500
  21487565.448 7 114702082.76607  89212759.78307                  21487570.741 7
     -2891.018 7     -2247.729 7        45.000          42.500
  19287127.514 8 102992181.09508  80105047.85408                  19287131.393 8
      1242.004 8       966.015 8        49.500          49.500
  21549232.729 6 115112127.58806  89531676.30006                  21549235.821 6
     -2456.006 6     -1910.272 6        40.750          36.250
  23425015.618 6 125220138.52206  97393454.91805                  23425022.867 5
       735.491 6       572.293 5        37.750          33.250
 19  3 19 19 48 24.0000000  0 14G26G30G07G08R19R08G21G27G16R10R18R09
                                R16R01
  24403829.150 6 128242996.00706  99929609.99202  24403831.878 2  24403830.716 6
     -2562.032 6     -1996.344 2        37.750          16.000
  23368226.751 7 122800862.35007  95688999.54103  23368228.167 3  23368228.791 6
      3704.324 7      2886.494 3        42.500          23.500
  21071485.157 8 110731401.36208  86284199.48105  21071483.144 5  21071482.746 6
      2363.777 8      1841.897 5        50.500          33.750
  20267159.855 8 106504643.24508  82990620.16506  20267161.100 6  20267161.697 7
      1285.636 8      1001.797 6        50.750          37.000
  19357281.856 7 103548403.97007  80537663.79206                  19357286.336 6
       952.208 7       740.561 6        43.250          39.250
  23228532.773 5 124387751.83305  96746046.24606                  23228539.769 6
     -1816.384 5     -1412.528 6        34.500          37.250
  25701888.086 5 135064340.87905
     -1966.832 5                        34.000
  20507633.476 8 107768338.66908  83975343.46806  20507633.701 6  20507633.516 7
     -1025.790 8      -799.307 6        49.250          38.000
  22085298.501 7 116059027.44207  90435596.65004  22085295.878 4
     -2099.062 7     -1635.627 4        46.250          27.250
  21610267.443 7 115194894.83907  89596052.24905                  21610275.010 5
      3746.770 7      2914.287 5        44.500          33.000
  21488107.454 7 114704974.13607  89215008.65306                  21488112.357 6
     -2891.754 7     -2248.156 6        44.500          41.000
  19286895.076 8 102990939.81108  80104082.38207                  19286898.721 7
      1240.755 8       964.989 7        48.750          47.500
  21549692.606 6 115114583.65506  89533586.57405                  21549696.645 5
     -2455.792 6     -1910.100 5        40.250          33.750
  23424877.621 6 125219404.82106  97392884.31405                  23424886.240 5
       732.925 6       570.034 5        38.000          32.750
 19  3 19 19 48 25.0000000  0 14G26G30G07G08R19R08G21G27G16R10R18R09
                                R16R01
  24404316.379 6 128245556.66106  99931605.28902  24404319.213 2  24404317.948 5
     -2559.556 6     -1994.426 2        39.000          16.000
  23367521.900 7 122797158.80107  95686113.64703  23367523.386 3  23367523.843 6
      3701.216 7      2884.065 3        43.000          23.250
  21071035.450 8 110729037.88308  86282357.81105  21071033.380 5  21071033.071 6
      2361.501 8      1840.129 5        50.250          34.000
  20266915.063 8 106503357.06008  82989617.94006  20266916.346 6  20266916.924 7
      1285.268 8      1001.510 6        50.750          38.000
  19357103.815 7 103547451.12407  80536922.69206                  19357107.996 6
       952.296 7       740.493 6        43.250          39.000
  23228872.250 5 124389569.12305  96747459.70706                  23228879.077 6
     -1819.760 5     -1415.431 6        35.250          36.750
  25702261.959 5
     -1964.184 5                        32.750
  20507828.277 8 107769363.77408  83976142.25006  20507828.672 6  20507828.535 7
     -1025.830 8      -799.330 6        51.500          38.250
  22085697.537 7 116061124.67807  90437230.85704  22085694.983 4
     -2097.607 7     -1634.500 4        45.500          27.500
  21609564.705 7 115191148.77107  89593138.67605                  21609571.631 5
      3743.579 7      2912.275 5        44.250          33.500
  21488649.115 7 114707865.07607  89217257.21307                  21488654.036 7
     -2891.158 7     -2249.605 7        44.500          42.000
  19286662.727 8 102989698.72408  80103117.04607                  19286666.102 7
      1239.848 8       964.616 7        49.250          46.750
  21550151.819 6 115117037.39906  89535495.01305                  21550156.573 5
     -2453.222 6     -1907.762 5        40.250          34.750
  23424740.746 6 125218673.29006  97392315.25805                  23424748.891 5
       728.776 6       567.405 5        38.750          32.000
 19  3 19 19 48 26.0000000  0 14G26G30G07G08R19R08G21G27G16R10R18R09
                                R16R01
  24404803.428 6 128248115.38106  99933599.10302  24404806.160 2  24404805.556 5
     -2558.842 6     -1993.899 2        39.000          16.750
  23366817.732 7 122793458.64307  95683230.40803  23366819.316 3  23366819.735 6
      3699.712 7      2882.885 3        42.500          23.500
  21070586.326 8 110726677.12708  86280518.26105  21070584.156 5  21070583.829 6
      2359.872 8      1838.862 5        50.500          34.000
  20266670.584 8 106502072.21908  82988616.76806  20266671.856 6  20266672.394 7
      1283.782 8      1000.347 6        49.500          38.250
  19356925.693 7 103546498.96907  80536182.11506                  19356929.839 6
       951.176 7       740.076 6        43.250          39.500
  23229213.324 5 124391390.80405  96748876.54406                  23229219.097 6
     -1823.093 5     -1417.656 6        33.000          36.250
  25702636.107 5
     -1964.970 5                        31.000
  20508023.400 8 107770389.14308  83976941.23706  20508023.778 6  20508023.709 7
     -1027.003 8      -800.264 6        51.000          38.250
  22086096.397 7 116063220.73007  90438864.14704  22086093.830 4
     -2095.896 7     -1633.172 4        45.250          27.250
  21608862.235 7 115187405.77607  89590227.46705                  21608869.772 5
      3742.454 7      2911.125 5        44.500          33.500
  21489190.895 7 114710756.35707  89219505.93106                  21489195.318 6
     -2891.326 7     -2248.409 6        44.250          41.750
  19286430.628 8 102988459.00008  80102152.84807                  19286433.767 7
      1239.157 8       963.613 7        49.000          47.000
  21550610.896 6 115119489.70306  89537402.42905                  21550615.732 5
     -2452.365 6     -1907.393 5        40.750          34.250
  23424604.219 6 125217945.23006  97391749.06605                  23424611.956 5
       728.291 6       565.587 5        38.750          33.250
 19  3 19 19 48 27.0000000  0 14G26G30G07G08R19R08G21G27G16R10R18R09
                                R16R01
  24405290.160 6 128250672.64906  99935591.78402  24405292.820 2  24405292.045 5
     -2557.271 6     -1992.686 2        37.750          16.750
  23366113.535 7 122789758.31907  95680347.04103  23366115.133 3  23366115.855 6
      3700.550 7      2883.560 3        42.750          23.250
  21070137.264 8 110724316.90908  86278679.12805  21070135.040 5  21070134.753 6
      2360.202 8      1839.115 5        50.000          34.000
  20266426.380 8 106500788.63408  82987616.57906  20266427.625 6  20266428.077 7
      1282.740 8       999.523 6        50.250          38.250
  19356747.817 7 103545547.62407  80535442.17706                  19356752.155 6
       950.757 7       739.605 6        43.000          40.000
  23229553.263 5 124393213.34505  96750294.08706                  23229558.892 6
     -1822.604 5     -1417.628 6        31.250          37.750
  25703009.909 5
     -1961.497 5                        31.250
  20508218.499 8 107771414.10908  83977739.91206  20508218.812 6  20508218.925 7
     -1024.743 8      -798.505 6        50.000          38.000
  22086494.959 7 116065315.71507  90440496.60404  22086492.479 4
     -2094.534 7     -1632.087 4        45.750          27.250
  21608160.029 7 115183662.44307  89587315.94705                  21608168.089 5
      3743.956 7      2912.602 5        44.750          35.500
  21489732.178 7 114713645.95407  89221753.47007                  21489736.375 7
     -2889.211 7     -2245.986 7        44.500          43.000
  19286198.504 8 102987219.17908  80101188.52707                  19286201.410 7
      1240.009 8       964.520 7        48.750          47.750
  21551069.689 6 115121942.14806  89539309.85005                  21551075.513 5
     -2452.990 6     -1907.565 5        39.250          35.250
  23424467.694 6 125217216.55006  97391182.32405                  23424475.093 5
       729.770 6       567.145 5        38.750          32.750
 19  3 19 19 48 28.0000000  0 14G26G30G07G08R19R08G21G27G16R10R18R09
                                R16R01
  24405776.303 6 128253229.67906  99937584.32102  24405779.502 2  24405778.579 5
     -2557.691 6     -1993.014 2        40.250          16.750
  23365409.298 7 122786057.34007  95677463.14504  23365410.857 4  23365411.424 6
      3701.409 7      2884.215 4        42.250          24.000
  21069688.222 8 110721957.44008  86276840.58005  21069686.039 5  21069685.764 6
      2358.739 8      1837.981 5        49.250          34.000
  20266182.561 8 106499507.39608  82986618.20806  20266183.823 6  20266184.127 7
      1279.559 8       997.062 6        50.000          38.500
  19356570.178 7 103544598.05807  80534703.63606                  19356574.599 6
       947.890 7       737.049 6        42.500          40.250
  23229894.849 5 124395037.12005  96751712.44506                  23229899.123 6
     -1823.768 5     -1418.807 6        34.750          36.500
  25703383.329 5
     -1959.746 5                        35.250
  20508413.554 8 107772439.29308  83978538.74906  20508413.878 6  20508413.872 7
     -1026.283 8      -799.693 6        50.500          38.250
  22086893.473 7 116067409.95907  90442128.46204  22086890.982 4
     -2095.076 7     -1632.514 4        45.500          27.250
  21607457.566 7 115179918.35207  89584403.85905                  21607465.176 5
      3744.140 7      2912.525 5        44.500          35.250
  21490273.136 7 114716533.70807  89223999.45007                  21490277.205 7
     -2888.332 7     -2244.543 7        43.250          42.250
  19285966.430 8 102985979.53608  80100224.34908                  19285969.324 8
      1238.727 8       963.502 8        48.500          48.000
  21551528.661 6 115124395.92306  89541218.21605                  21551534.749 5
     -2455.590 6     -1909.370 5        40.750          34.750
  23424331.185 6 125216486.47006  97390614.48905                  23424339.228 5
       730.175 6       567.879 5        37.750          31.750
 19  3 19 19 48 29.0000000  0 14G26G30G07G08R19R08G21G27G16R10R18R09
                                R16R01
  24406262.804 6 128255787.18506  99939577.15502  24406266.207 2  24406265.050 5
     -2557.902 6     -1993.115 2        39.250          17.000
  23364704.407 6 122782353.52206  95674577.05504  23364706.004 4  23364706.715 6
      3706.636 6      2888.286 4        41.750          24.000
  21069239.075 8 110719597.10908  86275001.36105  21069236.901 5  21069236.772 6
      2361.768 8      1840.342 5        49.500          33.500
  20265939.145 8 106498228.05408  82985621.31506  20265940.374 6  20265940.666 7
      1279.242 8       996.818 6        49.750          38.500
  19356392.939 7 103543650.35407  80533966.50406                  19356397.047 6
       947.194 7       736.622 6        42.500          40.500
  23230235.591 6                                                  23230238.917 6
     -1820.720 6     -1416.472 6        39.500          38.250
  25703755.298 4
     -1954.881 4                        29.750
  20508608.598 8 107773464.38408  83979337.51306  20508608.926 6  20508609.006 7
     -1024.663 8      -798.432 6        51.250          38.500
  22087291.952 7 116069503.99807  90443760.16004  22087289.457 4
     -2093.823 7     -1631.504 4        44.750          27.000
  21606754.812 7 115176171.24007  89581489.48505                  21606763.314 5
      3749.312 7      2916.547 5        45.250          35.500
  21490813.760 7 114719418.81807  89226243.52207                  21490817.446 7
     -2883.756 7     -2243.046 7        44.750          43.000
  19285734.210 8 102984739.24808  80099259.67707                  19285737.121 7
      1241.356 8       965.755 7        48.250          47.750
  21551988.163 6 115126851.99306  89543128.56706                  21551993.980 6
     -2457.139 6     -1911.345 6        40.250          36.500
  23424194.516 6 125215752.65506  97390043.73605                  23424201.067 5
       736.582 6       572.792 5        37.750          31.750
 19  3 19 19 48 30.0000000  0 14G26G30G07G08R19R08G21G27G16R10R18R09
                                R16R01
  24406750.316 6 128258348.40306  99941572.89902  24406753.668 2  24406751.993 5
     -2563.764 6     -1997.758 2        38.500          17.250
  23363998.445 6 122778643.61006  95671686.20704  23363999.958 4  23364000.850 6
      3713.244 6      2893.443 4        40.750          24.000
  21068789.197 8 110717233.32208  86273159.44105  21068787.078 5  21068786.870 7
      2365.580 8      1843.321 5        49.750          33.750
  20265695.900 8 106496949.37008  82984624.93506  20265697.051 6  20265697.270 7
      1278.619 8       996.333 6        49.500          38.500
  19356216.069 7 103542704.82207  80533231.09707                  19356220.287 7
       944.396 7       734.171 7        42.750          42.250
  23230574.964 6                                                  23230578.923 5
     -1813.611 6     -1409.827 5        38.250          33.250
  25704127.565 4
     -1954.864 4                        28.000
  20508803.671 8 107774490.04808  83980136.72506  20508804.103 6  20508804.154 7
     -1026.304 8      -799.713 6        51.000          38.750
  22087690.817 7 116071599.99107  90445393.38004  22087688.281 4
     -2097.796 7     -1634.633 4        45.500          27.000
  21606050.816 7 115172418.20307  89578570.35305                  21606059.734 5
      3755.987 7      2921.200 5        44.250          35.250
  21491354.084 7 114722302.90507  89228486.60407                  21491357.944 7
     -2884.348 7     -2243.374 7        45.500          42.000
  19285501.720 8 102983497.56008  80098293.92307                  19285504.621 7
      1242.137 8       966.232 7        48.500          47.250
  21552448.669 6 115129312.80206  89545042.46405                  21552454.049 5
     -2463.199 6     -1915.307 5        38.500          35.250
  23424056.316 6 125215013.06406  97389468.32205                  23424062.179 5
       742.726 6       578.539 5        37.250          32.000
 19  3 19 19 48 31.0000000  0 14G26G30G07G08R19R08G21G27G16R10R18R09
                                R16R01
  24407238.395 6 128260914.39006  99943572.33702  24407241.946 2  24407240.215 6
     -2568.324 6     -2001.261 2        37.000          17.500
  23363291.510 6 122774928.46606  95668791.28304  23363292.914 4  23363293.799 6
      3716.919 6      2896.294 4        40.250          24.000
  21068338.766 8 110714866.62508  86271315.25205  21068336.701 5  21068336.583 7
      2367.577 8      1844.876 5        49.750          34.000
  20265452.682 8 106495671.25808  82983628.99506  20265453.822 6  20265453.992 7
      1277.254 8       995.278 6        49.750          38.500
  19356039.550 7 103541762.00707  80532497.77807                  19356043.694 7
       940.799 7       731.594 7        42.750          42.250
  23230913.224 6 124400486.95206  96755951.22705                  23230917.636 5
     -1809.162 6     -1407.735 5        36.250          32.500
  25704499.786 5 135078065.82205
     -1957.741 5                        31.000
  20508999.129 8 107775517.47008  83980937.30606  20508999.598 6  20508999.650 7
     -1029.131 8      -801.904 6        50.750          39.000
  22088090.313 7 116073699.45807  90447029.31304  22088087.762 4
     -2101.642 7     -1637.632 4        44.750          27.500
  21605345.709 7 115168660.19507  89575647.50305                  21605354.509 5
      3759.760 7      2924.732 5        44.500          35.750
  21491894.494 7 114725188.12307  89230730.63306                  21491898.947 6
     -2886.969 7     -2245.190 6        45.750          41.250
  19285269.017 8 102982255.59008  80097327.92307                  19285272.257 7
      1241.181 8       965.401 7        48.500          47.500
  21552910.182 6 115131778.66806  89546960.42706                  21552915.033 6
     -2469.505 6     -1920.374 6        39.500          36.750
  23423917.209 6 125214269.42506  97388890.03905                  23423922.749 5
       744.657 6       578.745 5        39.500          33.000
 19  3 19 19 48 32.0000000  0 14G26G30G07G08R19R08G21G27G16R10R18R09
                                R16R01
  24407727.857 6 128263485.97806  99945576.15502  24407731.254 2  24407729.935 6
     -2573.944 6     -2005.648 2        36.250          17.250
  23362583.694 6 122771208.22206  95665892.37503  23362584.926 3  23362585.901 6
      3723.525 6      2901.475 3        39.750          23.750
  21067887.848 8 110712497.08508  86269468.84305  21067885.782 5  21067885.720 6
      2371.932 8      1848.273 5        49.750          34.250
  20265209.592 8 106494393.76508  82982633.53406  20265210.704 6  20265210.952 7
      1278.056 8       995.905 6        50.000          38.500
  19355864.093 7 103540822.17207  80531766.77207                  19355867.922 7
       939.086 7       730.482 7        43.250          42.250
  23231251.324 6 124402292.70406  96757355.67305                  23231255.925 5
     -1802.119 6     -1401.800 5        36.000          31.500
  25704872.482 4 135080023.36504
     -1958.674 4                        27.500
  20509195.007 8 107776547.03308  83981739.55206  20509195.500 6  20509195.659 7
     -1029.943 8      -802.541 6        50.750          39.250
  22088490.668 7 116075802.97307  90448668.41204  22088488.035 4
     -2104.700 7     -1640.018 4        44.250          27.250
  21604640.044 7 115164897.46107  89572720.95606                  21604648.581 6
      3766.318 7      2928.786 6        43.000          37.000
  21492435.249 7 114728075.15807  89232976.05706                  21492440.037 6
     -2887.212 7     -2245.862 6        45.000          40.500
  19285036.491 8 102981013.58708  80096361.88307                  19285039.761 7
      1242.821 8       966.662 7        49.000          47.250
  21553372.746 6 115134250.26806  89548882.75706                  21553376.950 6
     -2473.909 6     -1924.042 6        39.750          37.250
  23423777.699 6 125213522.15306  97388308.80305                  23423782.766 5
       749.741 6       583.497 5        36.000          34.000
 19  3 19 19 48 33.0000000  0 14G26G30G07G08R19R08G21G27G16R10R18R09
                                R16R01
  24408218.731 6 128266063.07106  99947584.27102  24408221.612 2  24408220.730 6
     -2578.547 6     -2009.271 2        36.500          17.000
  23361874.519 6 122767482.78906  95662989.40803  23361875.928 3  23361876.614 6
      3726.852 6      2904.065 3        39.750          23.750
  21067436.172 8 110710124.07508  86267619.73305  21067434.215 5  21067434.068 6
      2373.998 8      1849.873 5        50.250          34.000
  20264966.403 8 106493115.60408  82981637.55106  20264967.470 6  20264967.666 7
      1278.476 8       996.225 6        50.000          38.500
  19355688.920 7 103539884.27907  80531037.28907                  19355692.474 7
       937.163 7       729.055 7        43.750          42.750
  23231586.814 6 124404092.58906  96758755.52705                  23231592.895 5
     -1797.474 6     -1399.015 5        36.250          32.500
  25705244.655 4
     -1960.824 4                        28.750
  20509391.264 8 107777578.36108  83982543.18406  20509391.728 6  20509391.875 7
     -1032.215 8      -804.328 6        50.750          39.250
  22088891.701 7 116077910.43307  90450310.58804  22088889.046 4
     -2108.838 7     -1643.240 4        45.250          27.250
  21603933.259 7 115161129.90507  89569790.66606                  21603942.033 6
      3769.384 7      2931.381 6        43.250          37.000
  21492976.322 7 114730964.51507  89235223.33906                  21492981.602 6
     -2890.131 7     -2248.542 6        43.250          41.250
  19284803.686 8 102979771.16208  80095395.53907                  19284807.092 7
      1242.239 8       966.401 7        49.000          47.000
  21553836.420 6 115136726.54806  89550808.73706                  21553840.233 6
     -2477.590 6     -1927.179 6        39.750          36.250
  23423637.658 5 125212771.91405  97387725.35105                  23423642.486 5
       751.209 5       584.247 5        33.250          32.750
 19  3 19 19 48 34.0000000  0 13G26G30G07G08R19R08G27G16R10R18R09R16
                                R01
  24408710.320 6 128268645.65206  99949596.68002  24408713.057 2  24408711.951 6
     -2585.845 6     -2014.926 2        39.000          17.750
  23361164.855 6 122763753.97906  95660083.82203  23361166.349 3  23361166.749 6
      3730.226 6      2906.693 3        41.500          23.750
  21066984.204 8 110707748.82308  86265768.87305  21066982.228 5  21066982.090 6
      2375.752 8      1851.250 5        50.250          34.000
  20264723.088 8 106491837.09508  82980641.29606  20264724.169 6  20264724.450 7
      1278.000 8       995.861 6        49.750          38.500
  19355513.967 7 103538948.71107  80530309.62007                  19355517.403 7
       933.735 7       726.329 7        43.500          42.500
  23231922.385 5 124405888.11605  96760151.99605                  23231927.938 5
     -1793.941 5     -1394.964 5        35.000          32.500
  20509588.145 8 107778612.22708  83983348.78706  20509588.448 6  20509588.703 7
     -1035.681 8      -807.016 6        50.500          39.500
  22089293.711 7 116080022.31907  90451956.21104  22089290.888 4
     -2114.865 7     -1647.944 4        45.250          27.500
  21603225.761 7 115157359.43507  89566858.03706                  21603234.110 6
      3771.540 7      2933.222 6        44.000          36.000
  21493518.125 7 114733857.68107  89237473.58806                  21493523.935 6
     -2895.116 7     -2251.703 6        42.750          41.750
  19284571.102 8 102978529.36108  80094429.69107                  19284574.703 7
      1240.997 8       965.438 7        48.250          47.750
  21554300.728 6 115139207.20006  89552738.10605                  21554304.631 5
     -2483.844 6     -1931.382 5        40.250          34.250
  23423497.059 6 125212020.81106  97387141.03105                  23423501.562 5
       750.908 6       584.396 5        37.500          31.000
 19  3 19 19 48 35.0000000  0 13G26G30G07G08R19R08G27G16R10R18R09R16
                                R01
  24409203.219 6 128271233.87906  99951613.46703  24409205.570 3  24409204.436 5
     -2590.631 6     -2018.648 3        36.000          18.000
  23360454.794 6 122760022.94306  95657176.50303  23360456.286 3  23360456.426 6
      3731.483 6      2907.670 3        41.750          23.750
  21066531.902 8 110705372.09008  86263916.85905  21066529.933 5  21066529.447 6
      2377.145 8      1852.326 5        49.250          33.750
  20264479.831 8 106490558.31908  82979644.82906  20264480.819 6  20264481.130 7
      1278.723 8       996.412 6        49.750          38.500
  19355339.403 7 103538015.72107  80529583.96207                  19355343.248 7
       931.614 7       724.641 7        43.750          42.500
  23232257.006 5 124407679.98105  96761545.69105                  23232262.618 5
     -1790.708 5     -1392.739 5        33.250          34.500
  20509785.531 8 107779649.26008  83984156.85306  20509785.785 6  20509786.057 7
     -1038.845 8      -809.477 6        51.000          39.750
  22089696.594 7 116082139.15007  90453605.67904  22089693.692 4
     -2119.484 7     -1651.538 4        46.000          27.750
  21602517.912 6 115153587.10406  89563923.96205                  21602526.223 5
      3772.791 6      2934.316 5        41.750          35.250
  21494061.033 7 114736755.92007  89239727.77107                  21494066.807 7
     -2901.347 7     -2256.230 7        44.750          43.250
  19284338.895 8 102977289.05708  80093465.00207                  19284342.616 7
      1239.245 8       963.843 7        48.500          47.750
  21554765.907 6 115141692.09706  89554670.79506                  21554769.616 6
     -2486.926 6     -1934.187 6        41.500          36.000
  23423356.783 6 125211270.16006  97386557.27705                  23423362.334 5
       749.542 6       582.901 5        36.500          33.000
 19  3 19 19 48 36.0000000  0 13G26G30G07G08R19R08G27G16R10R18R09R16
                                R01
  24409695.962 6 128273824.35106  99953631.99302  24409698.481 2  24409697.438 6
     -2589.982 6     -2018.153 2        36.500          17.750
  23359744.601 7 122756289.88207  95654267.60504  23359745.866 4  23359745.941 6
      3734.391 7      2909.924 4        42.000          24.000
  21066079.274 8 110702993.87808  86262063.70305  21066077.360 5  21066076.839 6
      2379.017 8      1853.782 5        49.000          33.250
  20264236.350 8 106489278.82408  82978647.81306  20264237.321 6  20264237.626 7
      1279.668 8       997.151 6        49.750          38.500
  19355165.348 7 103537083.55307  80528858.93607                  19355169.038 7
       932.184 7       725.069 7        43.750          42.250
  23232591.236 5 124409469.39205  96762937.47205                  23232596.785 5
     -1789.475 5     -1391.417 5        30.000          34.750
  20509983.108 8 107780687.17108  83984965.60606  20509983.283 6  20509983.624 7
     -1037.200 8      -808.205 6        50.750          40.000
  22090099.823 7 116084257.66807  90455256.46704  22090096.844 4
     -2117.914 7     -1650.315 4        45.250          28.250
  21601809.941 7 115149812.95107  89560988.54305                  21601818.235 5
      3775.146 7      2936.091 5        42.000          35.500
  21494604.458 7 114739655.94607  89241983.34107                  21494609.957 7
     -2899.014 7     -2254.743 7        44.750          42.500
  19284106.701 8 102976048.68608  80092500.27907                  19284110.329 7
      1241.227 8       965.237 7        48.500          47.750
  21555231.962 6 115144178.57006  89556604.68206                  21555235.336 6
     -2486.857 6     -1934.017 6        41.000          36.500
  23423216.101 5 125210519.21205  97385973.27805                  23423221.832 5
       751.727 5       585.143 5        35.250          32.000
 19  3 19 19 48 37.0000000  0 13G26G30G07G08R19R08G27G16R10R18R09R16
                                R01
  24410189.076 6 128276416.67406  99955651.96802  24410191.827 2  24410191.051 6
     -2593.230 6     -2020.659 2        36.000          17.750
  23359034.282 7 122752556.70407  95651358.62904  23359035.531 4  23359035.347 6
      3734.002 7      2909.635 4        42.500          24.000
  21065626.791 8 110700616.53108  86260211.22705  21065624.961 5  21065624.510 6
      2377.715 8      1852.774 5        49.000          32.750
  20263993.260 8 106488001.20108  82977652.25706  20263994.203 6  20263994.536 7
      1277.623 8       995.561 6        49.750          38.250
  19354991.518 7 103536153.97007  80528135.94607                  19354994.932 7
       928.922 7       722.431 7        43.750          42.250
  23232925.187 5 124411259.01005  96764329.42305                  23232930.969 5
     -1788.471 5     -1392.011 5        32.000          34.000
  20510181.037 8 107781727.05708  83985775.90306  20510181.166 6  20510181.441 7
     -1040.269 8      -810.592 6        51.000          40.250
  22090503.416 7 116086378.09607  90456908.74404  22090500.395 4
     -2121.093 7     -1652.791 4        45.750          28.250
  21601101.687 7 115146038.76407  89558053.01105                  21601109.937 5
      3774.534 7      2936.105 5        42.000          35.500
  21495148.448 7 114742557.47307  89244240.12707                  21495153.125 7
     -2902.551 7     -2257.706 7        44.750          42.500
  19283874.566 8 102974809.88208  80091536.75707                  19283878.276 7
      1238.716 8       963.493 7        48.500          47.750
  21555698.144 6 115146667.40306  89558540.53706                  21555701.275 6
     -2489.125 6     -1936.940 6        40.750          36.250
  23423075.225 6 125209768.79706  97385389.58305                  23423081.625 5
       750.421 6       583.944 5        38.250          32.500
