     2.10           OBSERVATION DATA    M                   RINEX VERSION / TYPE
sbf2rin-12.1.2                          17-OCT-18 13:27     PGM / RUN BY / DATE 
CAR_BACK                                                    MARKER NAME         
CAR_BACK                                                    MARKER NUMBER       
Unknown             Unknown                                 OBSERVER / AGENCY   
3013542             SEPT ALTUS APS3G    4.1.5               REC # / TYPE / VERS 
                    APSAPS-3L       NONE                    ANT # / TYPE        
  1761302.4120 -4078205.6254  4561408.5190                  APPROX POSITION XYZ 
        0.0936        0.0000        0.0000                  ANTENNA: DELTA H/E/N
     1     1                                                WAVELENGTH FACT L1/2
     4    C1    L1    L2    P2                              # / TYPES OF OBSERV 
     1.000                                                  INTERVAL            
  2018    10    16    19     5   36.0000000     GPS         TIME OF FIRST OBS   
  2018    10    16    20     1   25.0000000     GPS         TIME OF LAST OBS    
    20                                                      # OF SATELLITES     
                                                            END OF HEADER       
 18 10 16 19  5 36.0000000  0 13G30G15G20G21R07R24R06G27G13R09R16R23
                                R08
  24897450.244 5 130837086.91705 101950908.68201  24897453.146 1
  20171243.187 9 106000596.20809  82597865.72807  20171241.361 7
  22698619.330 7 119282045.91407  92947053.31403  22698618.646 3
  21862128.621 7 114886262.14107  89521763.67504  21862127.109 4
  20161861.030 7 107928021.99207
  22984604.298 6 122909018.08906
  23513849.450 5 125474391.20605
  24989218.521 5 131319229.98905 102326685.94702  24989225.514 2
  21217556.761 8 111499015.15008  86882333.95605  21217555.670 5
  22144598.740 7 118250924.87907
  22540220.919 5 120405821.23605
  20391602.087 7 109081316.75007
  20336963.334 7 108903523.27907
 18 10 16 19  5 36.0000000  4  1
ANTENNA;APSAPS-3L       NONE;0.094;0.082                    COMMENT             
 18 10 16 19  5 37.0000000  0 13G30G15G20G21R07R24R06G27G13R09R16R23
                                R08
  24897880.857 5 130839351.58105 101952673.37301  24897883.835 1
  20171123.926 9 105999969.53809  82597377.41507  20171122.103 7
  22698003.936 7 119278811.83107  92944533.25003  22698003.230 3
  21861829.443 7 114884690.24907  89520538.82104  21861828.042 4
  20162085.857 7 107929225.62307
  22983896.984 6 122905239.27306
  23514401.615 5 125477332.87505
  24988873.314 6 131317415.76406 102325272.28102  24988880.256 2
  21217885.567 8 111500742.71508  86883680.11105  21217884.401 5
  22144028.519 7 118247880.27107
  22540396.394 5 120406759.14305
  20391492.422 7 109080729.84707
  20336617.801 7 108901672.45907
 18 10 16 19  5 38.0000000  0 13G30G15G20G21R07R24R06G27G13R09R16R23
                                R08
  24898311.296 5 130841616.83905 101954438.52501  24898314.667 1
  20171004.821 9 105999343.55809  82596889.63807  20171002.979 7
  22697388.390 6 119275578.04306  92942013.41203  22697387.868 3
  21861530.578 7 114883118.98107  89519314.45404  21861529.083 4
  20162310.828 7 107930429.71807
  22983190.604 6 122901461.15306
  23514953.468 5 125480274.73805
  24988528.140 5 131315602.25905 102323859.15702  24988535.131 2
  21218214.373 8 111502470.86008  86885026.71605  21218213.258 5
  22143458.644 7 118244836.41107
  22540572.050 5 120407698.06005
  20391382.817 7 109080144.04807
  20336272.173 7 108899822.13107
 18 10 16 19  5 39.0000000  0 13G30G15G20G21R07R24R06G27G13R09R16R23
                                R08
  24898742.457 5 130843882.44905 101956203.93501  24898745.682 1
  20170885.812 9 105998718.18909  82596402.33807  20170883.971 7
  22696772.944 6 119272344.46206  92939493.73903  22696772.501 3
  21861231.809 7 114881548.20907  89518090.47704  21861230.186 4
  20162535.696 7 107931634.21307
  22982484.505 6 122897683.62406
  23515505.326 5 125483216.63905
  24988183.292 5 131313789.37605 102322446.53002  24988190.123 2
  21218543.351 8 111504199.48908  86886373.70005  21218542.203 5
  22142888.701 7 118241793.21607
  22540748.126 6 120408637.84806
  20391273.528 7 109079559.24907
  20335926.739 7 108897972.19407
 18 10 16 19  5 40.0000000  0 13G30G15G20G21R07R24R06G27G13R09R16R23
                                R08
  24899173.818 6 130846148.47106 101957969.64701  24899176.845 1
  20170766.857 9 105998093.23909  82595915.36307  20170765.048 7
  22696157.749 7 119269110.87807  92936974.06303  22696157.197 3
  21860933.170 7 114879977.79507  89516866.77904  21860931.374 4
  20162760.616 7 107932838.88707
  22981778.003 6 122893906.48406
  23516056.789 5 125486158.41805
  24987838.293 5 131311976.96405 102321034.25402  24987845.182 2
  21218872.380 8 111505928.41508  86887720.91405  21218871.212 5
  22142319.100 7 118238750.48307
  22540924.055 6 120409578.34706
  20391164.453 7 109078975.25907
  20335581.277 7 108896122.46307
 18 10 16 19  5 41.0000000  0 13G30G15G20G21R07R24R06G27G13R09R16R23
                                R08
  24899605.812 5 130848414.48305 101959735.34101  24899608.160 1
  20170647.993 9 105997468.55609  82595428.59807  20170646.179 7
  22695542.366 6 119265877.18006  92934454.29503  22695541.861 3
  21860634.460 7 114878407.55407  89515643.21704  21860632.581 4
  20162985.571 7 107934043.58407
  22981072.092 6 122890129.61906
  23516607.530 5 125489099.94605
  24987493.371 6 131310164.83606 102319622.20602  24987500.304 2
  21219201.363 8 111507657.47508  86889068.23105  21219200.225 5
  22141749.378 7 118235708.02407
  22541100.271 6 120410519.38306
  20391055.296 7 109078391.93107
  20335235.963 7 108894272.79707
 18 10 16 19  5 42.0000000  0 13G30G15G20G21R07R24R06G27G13R09R16R23
                                R08
  24900037.194 5 130850680.88205 101961501.44301  24900039.551 1
  20170529.231 9 105996844.40009  82594942.24307  20170527.404 7
  22694927.239 7 119262643.58507  92931934.61303  22694926.580 3
  21860335.809 7 114876837.74807  89514419.99003  21860333.845 3
  20163210.585 7 107935248.53307
  22980365.748 6 122886353.24106
  23517158.633 5 125492041.42805
  24987148.621 5 131308353.24105 102318210.58202  24987155.537 2
  21219530.488 8 111509386.94008  86890415.86705  21219529.319 5
  22141179.484 7 118232666.14007
  22541276.479 6 120411461.30606
  20390946.399 7 109077809.53807
  20334890.609 7 108892423.46607
 18 10 16 19  5 43.0000000  0 13G30G15G20G21R07R24R06G27G13R09R16R23
                                R08
  24900468.000 5 130852947.87105 101963267.94201  24900470.995 1
  20170410.601 9 105996220.87509  82594456.38007  20170408.758 7
  22694312.105 6 119259410.18806  92929415.07603  22694311.262 3
  21860037.220 7 114875268.48707  89513197.18803  21860035.221 3
  20163435.742 7 107936453.88707
  22979659.330 6 122882577.50406
  23517709.764 5 125494983.04105
  24986803.853 5 131306542.29305 102316799.47602  24986810.909 2
  21219859.580 8 111511116.90408  86891763.88905  21219858.506 5
  22140609.781 7 118229624.96707
  22541452.950 5 120412404.11105
  20390837.881 7 109077228.15207
  20334545.261 7 108890574.56807
 18 10 16 19  5 44.0000000  0 13G30G15G20G21R07R24R06G27G13R09R16R23
                                R08
  24900898.622 5 130855215.03105 101965034.52101  24900902.328 1
  20170291.975 9 105995597.73309  82593970.81407  20170290.184 7
  22693696.855 7 119256176.78407  92926895.54503  22693695.855 3
  21859738.501 7 114873699.52707  89511974.62003  21859736.628 3
  20163660.962 7 107937659.40307
  22978953.723 6 122878802.14306
  23518260.169 5 125497924.54305
  24986459.388 6 131304731.77006 102315388.67502  24986466.357 2
  21220188.848 8 111512847.13508  86893112.12005  21220187.752 5
  22140040.183 7 118226584.20007
  22541629.579 6 120413347.59506
  20390729.201 7 109076647.55907
  20334199.934 7 108888725.84507
 18 10 16 19  5 45.0000000  0 13G30G15G20G21R07R24R06G27G13R09R16R23
                                R08
  24901329.539 5 130857482.75605 101966801.60901  24901333.799 1
  20170173.500 9 105994975.34609  82593485.83607  20170171.749 7
  22693081.633 6 119252943.71606  92924376.28403  22693080.640 3
  21859439.857 7 114872131.24007  89510752.57903  21859438.183 3
  20163886.194 7 107938865.47207
  22978248.395 6 122875027.52906
  23518811.862 5 125500866.21605
  24986114.761 6 131302922.01206 102313978.45902  24986121.931 2
  21220518.228 8 111514577.99308  86894460.84205  21220517.122 5
  22139470.769 7 118223544.26007
  22541806.668 6 120414292.12306
  20390620.913 7 109076068.10407
  20333854.753 7 108886877.67707
 18 10 16 19  5 46.0000000  0 13G30G15G20G21R07R24R06G27G13R09R16R23
                                R08
  24901760.814 5 130859750.46805 101968568.64001  24901765.320 1
  20170055.052 9 105994353.09009  82593000.96307  20170053.359 7
  22692466.138 7 119249710.37207  92921856.79403  22692465.398 3
  21859141.359 7 114870562.99507  89509530.56903  21859139.783 3
  20164111.324 7 107940071.45707
  22977542.532 6 122871253.06906
  23519361.970 5 125503807.52705
  24985770.375 5 131301112.42105 102312568.38602  24985777.535 2
  21220847.612 8 111516308.86508  86895809.57005  21220846.493 5
  22138901.498 7 118220504.49107
  22541983.649 6 120415237.05106
  20390512.611 7 109075489.17307
  20333509.601 7 108885029.44807
 18 10 16 19  5 47.0000000  0 13G30G15G20G21R07R24R06G27G13R09R16R23
                                R08
  24902192.682 5 130862018.77905 101970336.09701  24902196.831 1
  20169936.763 9 105993731.47209  82592516.58607  20169935.080 7
  22691850.707 7 119246477.27307  92919337.50403  22691850.152 3
  21858842.987 7 114868995.30107  89508308.99103  21858841.477 3
  20164336.730 7 107941277.81507
  22976836.834 6 122867479.24806
  23519913.397 5 125506748.91305
  24985426.296 5 131299303.47405 102311158.80402  24985433.274 2
  21221177.094 8 111518040.24708  86897158.69905  21221175.949 5
  22138332.251 7 118217465.39807
  22542160.722 6 120416182.97006
  20390404.532 7 109074911.27107
  20333164.567 7 108883181.66807
 18 10 16 19  5 48.0000000  0 13G30G15G20G21R07R24R06G27G13R09R16R23
                                R08
  24902625.588 5 130864287.61305 101972103.99301  24902628.075 1
  20169818.604 9 105993110.63609  82592032.81607  20169816.944 7
  22691235.491 7 119243244.53207  92916818.48203  22691235.027 3
  21858544.703 7 114867428.29307  89507087.94603  21858543.309 3
  20164562.151 7 107942484.68907
  22976131.266 6 122863706.20006
  23520464.965 5 125509690.58305
  24985082.207 5 131297495.34305 102309749.88602  24985089.156 2
  21221506.669 8 111519772.26908  86898508.32805  21221505.516 5
  22137763.095 7 118214427.16207
  22542337.656 5 120417129.95805
  20390296.870 7 109074334.57607
  20332819.637 7 108881334.47307
 18 10 16 19  5 49.0000000  0 13G30G15G20G21R07R24R06G27G13R09R16R23
                                R08
  24903058.652 5 130866557.04705 101973872.38601  24903060.226 1
  20169700.614 9 105992490.56409  82591549.64507  20169698.942 7
  22690620.448 7 119240012.14907  92914299.74103  22690619.973 3
  21858246.739 7 114865861.94907  89505867.41403  21858245.298 3
  20164787.570 7 107943692.07607
  22975426.052 6 122859933.86106
  23521016.009 5 125512632.45405
  24984738.209 5 131295688.01405 102308341.57702  24984745.181 2
  21221836.394 8 111521504.93708  86899858.45705  21221835.187 5
  22137194.265 7 118211389.74907
  22542514.323 5 120418077.99805
  20390189.184 7 109073759.03307
  20332474.754 7 108879487.84207
 18 10 16 19  5 50.0000000  0 13G30G15G20G21R07R24R06G27G13R09R16R23
                                R08
  24903491.366 5 130868826.43505 101975640.73401  24903492.278 1
  20169582.667 9 105991870.51409  82591066.48807  20169580.949 7
  22690005.207 7 119236779.36207  92911780.68103  22690004.785 3
  21857948.676 7 114864295.56207  89504646.85603  21857947.233 3
  20165013.032 7 107944899.26807
  22974721.007 6 122856161.53906
  23521567.887 5 125515573.79905
  24984393.939 5 131293880.75505 102306933.30302  24984401.219 2
  21222166.289 8 111523237.50708  86901208.51105  21222164.866 5
  22136625.814 7 118208352.37007
  22542691.903 5 120419026.34605
  20390081.537 7 109073183.88107
  20332129.983 7 108877641.02907
 18 10 16 19  5 51.0000000  0 13G30G15G20G21R07R24R06G27G13R09R16R23
                                R08
  24903923.620 5 130871096.03305 101977409.27401  24903924.197 1
  20169464.796 9 105991250.91109  82590583.68007  20169463.051 7
  22689389.943 7 119233546.61707  92909261.66103  22689389.571 3
  21857650.737 7 114862729.51907  89503426.56303  21857649.199 3
  20165238.527 7 107946106.69907
  22974015.629 6 122852389.63206
  23522118.896 5 125518515.01105
  24984050.176 5 131292073.88405 102305525.35002  24984057.360 2
  21222496.039 8 111524970.39808  86902558.81805  21222494.630 5
  22136057.182 7 118205315.49807
  22542869.355 6 120419975.44706
  20389974.194 7 109072609.56407
  20331785.139 7 108875794.45207
 18 10 16 19  5 52.0000000  0 13G30G15G20G21R07R24R06G27G13R09R16R23
                                R08
  24904355.549 5 130873366.62105 101979178.59101  24904356.156 1
  20169347.127 9 105990632.44709  82590101.76307  20169345.367 7
  22688774.939 7 119230314.60007  92906743.19903  22688774.508 3
  21857352.902 7 114861164.51907  89502207.08603  21857351.371 3
  20165464.203 7 107947315.06907
  22973310.868 6 122848618.86806
  23522670.293 5 125521456.88705
  24983706.410 6 131290268.20806 102304118.32802  24983713.752 2
  21222825.915 8 111526704.29208  86903909.90705  21222824.574 5
  22135488.890 7 118202279.80607
  22543047.486 5 120420925.92005
  20389867.283 7 109072036.79807
  20331440.659 7 108873948.81107
 18 10 16 19  5 53.0000000  0 13G30G15G20G21R07R24R06G27G13R09R16R23
                                R08
  24904788.031 5 130875637.10205 101980947.80501  24904788.289 1
  20169229.459 9 105990013.97409  82589619.83507  20169227.673 7
  22688160.022 7 119227082.15207  92904224.40803  22688159.320 3
  21857055.028 7 114859599.42507  89500987.52704  21857053.521 4
  20165689.808 7 107948523.16607
  22972606.389 6 122844848.07606
  23523220.805 5 125524398.13705
  24983362.900 6 131288462.53206 102302711.30902  24983370.121 2
  21223155.794 8 111528438.04808  86905260.88405  21223154.463 5
  22134920.462 7 118199244.15807
  22543226.083 6 120421876.74806
  20389760.603 7 109071464.39407
  20331096.193 7 108872102.94307
 18 10 16 19  5 54.0000000  0 13G30G15G20G21R07R24R06G27G13R09R16R23
                                R08
  24905220.772 5 130877908.05305 101982717.36001  24905220.337 1
  20169111.870 9 105989396.11809  82589138.39007  20169110.101 7
  22687544.991 7 119223849.92807  92901705.79303  22687544.217 3
  21856757.421 7 114858034.85807  89499768.38604  21856755.823 4
  20165915.540 7 107949731.59807
  22971901.319 6 122841077.91606
  23523771.688 5 125527339.52205
  24983019.412 6 131286657.48606 102301304.77802  24983026.624 2
  21223485.742 8 111530172.29508  86906612.24405  21223484.442 5
  22134352.224 7 118196209.15507
  22543404.543 5 120422828.45205
  20389653.755 7 109070893.01807
  20330751.468 7 108870257.48507
 18 10 16 19  5 55.0000000  0 13G30G15G20G21R07R24R06G27G13R09R16R23
                                R08
  24905653.709 5 130880179.29405 101984487.17801  24905652.953 1
  20168994.374 9 105988778.74709  82588657.32207  20168992.618 7
  22686929.785 7 119220617.73107  92899187.19803  22686929.105 3
  21856459.657 7 114856470.68307  89498549.55404  21856458.209 4
  20166141.438 7 107950940.23307
  22971196.405 6 122837308.21706
  23524322.562 5 125530280.92105
  24982676.033 6 131284852.97006 102299898.65502  24982683.244 2
  21223815.770 8 111531906.89408  86907963.88105  21223814.483 5
  22133784.087 7 118193174.70807
  22543582.807 5 120423780.95005
  20389547.010 7 109070322.53207
  20330406.896 7 108868412.32107
 18 10 16 19  5 56.0000000  0 13G30G15G20G21R07R24R06G27G13R09R16R23
                                R08
  24906087.747 5 130882450.97605 101986257.32501  24906085.439 1
  20168876.969 9 105988161.78509  82588176.57307  20168875.216 7
  22686314.644 7 119217385.58407  92896668.65203  22686314.002 3
  21856162.198 7 114854906.84407  89497330.97604  21856160.618 4
  20166367.184 7 107952149.06907
  22970491.223 5 122833538.95105
  23524874.587 5 125533222.18305
  24982332.470 6 131283048.86406 102298492.86202  24982339.944 2
  21224145.904 8 111533641.78308  86909315.73905  21224144.583 5
  22133215.758 7 118190140.71807
  22543760.642 6 120424734.10806
  20389440.430 7 109069752.86307
  20330062.544 7 108866567.40007
 18 10 16 19  5 57.0000000  0 12G15G20G21R07R24R06G27G13R09R16R23R08
  20168759.603 9 105987544.68909  82587695.71807  20168757.791 7
  22685699.554 7 119214152.85907  92894149.64703  22685698.832 3
  21855864.727 7 114853342.77107  89496112.21504  21855862.992 4
  20166592.951 7 107953357.52807
  22969786.402 6 122829769.52406
  23525425.614 5 125536162.73905
  24981989.448 6 131281244.68306 102297087.00902  24981996.626 2
  21224475.912 8 111535376.40308  86910667.39305  21224474.629 5
  22132647.301 7 118187106.62107
  22543939.441 5 120425687.37805
  20389334.092 7 109069183.42207
  20329718.028 7 108864722.10207
 18 10 16 19  5 57.0000000  4  1
ANTENNA;APSAPS-3L       NONE;0.094;0.082                    COMMENT             
 18 10 16 19  5 58.0000000  0 13G30G15G20G21R07R24R06G27G13R09R16R23
                                R08
  24906956.654 5 130886993.61805 101989796.98501  24906949.960 1
  20168642.270 9 105986928.16309  82587215.30807  20168640.469 7
  22685084.475 7 119210920.31107  92891630.77103  22685083.680 3
  21855567.117 7 114851779.16607  89494893.82204  21855565.432 4
  20166818.783 7 107954566.36807
  22969081.301 6 122826000.66706
  23525976.830 5 125539103.32705
  24981646.427 6 131279441.05006 102295681.58002  24981653.411 2
  21224805.967 8 111537111.46508  86912019.39205  21224804.765 5
  22132079.252 7 118184073.12907
  22544118.233 6 120426641.51606
  20389227.813 7
  20329373.572 7 108862877.17007
 18 10 16 19  5 59.0000000  0 13G30G15G20G21R07R24R06G27G13R09R16R23
                                R08
  24907388.978 5 130889265.56005 101991567.34601  24907382.286 1
  20168525.006 9 105986312.08809  82586735.25007  20168523.241 7
  22684469.349 7 119207687.80107  92889111.93803  22684468.572 3
  21855269.535 7 114850215.94407  89493675.72204  21855267.921 4
  20167044.628 7 107955775.43907
  22968376.186 6 122822232.22106
  23526527.863 5 125542043.80705
  24981303.312 6 131277637.92206 102294276.55002  24981310.268 2
  21225136.135 8 111538846.85608  86913371.64005  21225134.985 5
  22131511.380 7 118181040.12907
  22544297.244 5 120427596.41105
  20389121.785 7
  20329029.137 7 108861032.47507
 18 10 16 19  6  0.0000000  0 13G30G15G20G21R07R24R06G27G13R09R16R23
                                R08
  24907821.516 5 130891538.42005 101993338.43701  24907815.179 1
  20168407.958 9 105985697.08409  82586256.02507  20168406.214 7
  22683854.270 7 119204455.94607  92886593.61003  22683853.630 3
  21854972.237 7 114848653.72107  89492458.40904  21854970.617 4
  20167270.350 7 107956985.31407
  22967671.419 6 122818464.83806
  23527080.024 5 125544984.82705
  24980960.521 5 131275835.85405 102292872.34302  24980967.317 2
  21225466.622 8 111540583.19508  86914724.63305  21225465.384 5
  22130943.718 7 118178008.30607
  22544476.759 5 120428552.68305
  20389015.851 7
  20328684.787 7 108859188.66607
 18 10 16 19  6  1.0000000  0 13G30G15G20G21R07R24R06G27G13R09R16R23
                                R08
  24908253.804 5 130893811.91005 101995109.94501  24908247.755 1
  20168291.106 9 105985082.83809  82585777.39207  20168289.330 7
  22683239.504 7 119201224.43507  92884075.54703  22683238.755 3
  21854674.967 7 114847092.13107  89491241.58504  21854673.491 4
  20167496.343 7 107958195.68307
  22966966.940 6 122814698.21906
  23527630.479 5 125547926.07005
  24980617.761 6 131274034.61106 102291468.76702  24980624.531 2
  21225797.171 8 111542320.14908  86916078.10105  21225795.864 5
  22130375.981 7 118174977.25207
  22544655.869 6 120429510.01006
  20388910.074 7 109066916.16407
  20328340.389 7 108857345.40507
 18 10 16 19  6  2.0000000  0 13G30G15G20G21R07R24R06G27G13R09R16R23
                                R08
  24908685.449 5 130896085.91705 101996881.92101  24908680.411 1
  20168174.378 9 105984469.31209  82585299.31807  20168172.590 7
  22682624.389 7 119197993.25607  92881557.74603  22682623.876 3
  21854377.860 7 114845531.21207  89490025.28004  21854376.477 4
  20167722.419 7 107959406.55707
  22966262.479 6 122810932.29306
  23528182.338 5 125550867.54005
  24980275.427 6 131272234.09306 102290065.76902  24980281.902 2
  21226127.875 8 111544057.71308  86917432.04605  21226126.478 5
  22129808.568 7 118171946.97107
  22544835.328 5 120430468.33205
  20388804.641 7 109066352.27907
  20327996.101 7 108855502.69707
 18 10 16 19  6  3.0000000  0 13G30G15G20G21R07R24R06G27G13R09R16R23
                                R08
  24909117.381 5 130898359.97005 101998653.83601  24909113.470 1
  20168057.671 9 105983856.00009  82584821.41307  20168055.898 7
  22682009.423 7 119194761.85907  92879039.77403  22682008.947 3
  21854080.799 7 114843970.39007  89488809.05504  21854079.404 4
  20167948.515 7 107960617.41807
  22965558.258 6 122807166.59906
  23528734.511 5 125553808.63605
  24979932.595 6 131270433.79606 102288662.94902  24979939.331 2
  21226458.585 8 111545795.35108  86918786.05205  21226457.114 5
  22129241.216 7 118168916.97107
  22545014.218 5 120431427.20805
  20388699.513 7 109065788.97407
  20327651.939 7 108853659.99807
 18 10 16 19  6  4.0000000  0 13G30G15G20G21R07R24R06G27G13R09R16R23
                                R08
  24909547.860 5 130900634.28605 102000426.01901  24909546.032 1
  20167941.063 9 105983243.07309  82584343.80707  20167939.278 7
  22681394.650 7 119191530.45207  92876521.79703  22681394.041 3
  21853783.629 7 114842409.88107  89487593.07404  21853782.377 4
  20168174.674 7 107961828.41807
  22964853.855 6 122803401.28306
  23529286.197 5 125556749.56505
  24979590.342 5 131268633.92205 102287260.43202  24979596.854 2
  21226789.330 8 111547533.26008  86920140.26705  21226787.786 5
  22128674.093 7 118165887.40307
  22545193.410 6 120432386.75106
  20388594.127 7 109065226.44507
  20327307.725 7 108851817.50107
 18 10 16 19  6  5.0000000  0 13G30G15G20G21R07R24R06G27G13R09R16R23
                                R08
  24909979.479 5 130902909.07205 102002198.62201  24909979.042 1
  20167824.563 9 105982630.70109  82583866.63407  20167822.761 7
  22680779.825 7 119188299.16607  92874003.91103  22680779.180 3
  21853486.875 7 114840849.82907  89486377.44904  21853485.488 4
  20168400.878 7 107963039.73307
  22964149.411 6 122799636.54406
  23529837.355 5 125559690.56705
  24979247.569 5 131266834.60405 102285858.37202  24979254.431 2
  21227120.247 8 111549271.58308  86921494.80105  21227118.552 5
  22128106.841 7 118162858.42407
  22545372.980 6 120433347.08106
  20388489.235 7 109064664.87007
  20326963.707 7 108849975.37207
 18 10 16 19  6  6.0000000  0 13G30G15G20G21R07R24R06G27G13R09R16R23
                                R08
  24910411.202 5 130905183.86705 102003971.18801  24910411.953 1
  20167708.108 9 105982018.56209  82583389.64307  20167706.284 7
  22680164.901 7 119185067.71707  92871485.90103  22680164.291 3
  21853190.249 7 114839289.93407  89485161.94703  21853188.675 3
  20168627.337 7 107964251.04407
  22963445.363 6 122795872.01106
  23530387.905 5 125562631.22305
  24978905.160 5 131265035.59305 102284456.55302  24978912.052 2
  21227451.096 8 111551010.00608  86922849.41605  21227449.331 5
  22127539.582 7 118159829.73407
  22545553.169 6 120434307.94506
  20388384.473 7 109064103.92107
  20326619.602 7 108848133.25307
 18 10 16 19  6  7.0000000  0 13G30G15G20G21R07R24R06G27G13R09R16R23
                                R08
  24910843.476 5 130907459.14105 102005744.11601  24910844.851 1
  20167591.733 9 105981407.06909  82582913.15507  20167589.933 7
  22679550.124 7 119181836.49207  92868968.06603  22679549.479 3
  21852893.569 7 114837730.58807  89483946.87103  21852892.005 3
  20168853.772 7 107965462.80307
  22962741.409 5 122792108.08605
  23530938.459 5 125565572.02505
  24978562.975 5 131263237.19005 102283055.18902  24978569.785 2
  21227781.947 8 111552748.95108  86924204.44005  21227780.213 5
  22126972.474 7 118156801.73407
  22545732.952 6 120435269.75006
  20388279.643 7 109063544.00607
  20326275.661 7 108846291.55507
 18 10 16 19  6  8.0000000  0 13G30G15G20G21R07R24R06G27G13R09R16R23
                                R08
  24911275.195 5 130909735.19705 102007517.67501  24911277.905 1
  20167475.515 9 105980796.49909  82582437.38707  20167473.747 7
  22678935.159 7 119178605.79007  92866450.63703  22678934.725 3
  21852596.968 7 114836172.07907  89482732.45003  21852595.474 3
  20169080.289 7 107966675.23607
  22962037.466 6 122788345.09106
  23531488.870 5 125568513.20505
  24978220.613 6 131261439.74906 102281654.59202  24978227.666 2
  21228112.965 8 111554488.70208  86925560.09005  21228111.243 5
  22126405.729 7 118153774.71507
  22545913.337 5 120436232.82005
  20388175.197 7 109062985.42607
  20325931.930 7 108844450.58107
 18 10 16 19  6  9.0000000  0 13G30G15G20G21R07R24R06G27G13R09R16R23
                                R08
  24911707.941 5 130912011.61905 102009291.49601  24911711.009 1
  20167359.378 9 105980186.42609  82581962.00307  20167357.654 7
  22678320.376 7 119175375.18607  92863933.27603  22678319.944 3
  21852300.609 7 114834613.98007  89481518.35003  21852298.938 3
  20169306.751 7 107967887.94507
  22961334.224 6 122784582.61706
  23532039.947 5 125571454.32605
  24977878.464 5 131259642.86305 102280254.43202  24977885.627 2
  21228444.128 8 111556228.82408  86926916.02905  21228442.331 5
  22125838.919 7 118150748.23207
  22546093.683 6 120437196.69506
  20388071.083 7 109062427.76807
  20325588.282 7 108842609.89307
 18 10 16 19  6 10.0000000  0 13G30G15G20G21R07R24R06G27G13R09R16R23
                                R08
  24912141.291 5 130914288.12505 102011065.33201  24912144.255 1
  20167243.316 9 105979576.62709  82581486.83607  20167241.616 7
  22677705.515 7 119172144.45007  92861415.82303  22677705.055 3
  21852004.096 7 114833056.07107  89480304.39603  21852002.483 3
  20169533.037 7 107969100.66607
  22960630.399 6 122780820.41506
  23532590.537 5 125574395.15505
  24977536.807 6 131257846.22406 102278854.44102  24977543.695 2
  21228775.341 8 111557969.08908  86928272.07605  21228773.419 5
  22125272.182 7 118147722.07807
  22546274.095 6 120438161.13706
  20387966.961 7 109061870.76107
  20325244.754 7 108840769.26807
 18 10 16 19  6 11.0000000  0 13G30G15G20G21R07R24R06G27G13R09R16R23
                                R08
  24912575.002 5 130916565.78605 102012840.19901  24912577.694 1
  20167127.502 9 105978968.07509  82581012.64307  20167125.819 7
  22677090.936 7 119168914.55207  92858899.01303  22677090.408 3
  21851707.729 7 114831499.33207  89479091.35303  21851706.287 3
  20169759.814 7 107970314.39807
  22959927.432 6 122777059.43206
  23533142.306 5 125577336.75005
  24977195.528 6 131256050.89606 102277455.48202  24977202.014 2
  21229106.740 8 111559710.47208  86929628.99605  21229104.739 5
  22124705.792 7 118144697.22407
  22546455.560 6 120439127.10106
  20387863.100 7 109061315.41507
  20324901.117 7 108838929.71607
 18 10 16 19  6 12.0000000  0 13G30G15G20G21R07R24R06G27G13R09R16R23
                                R08
  24913008.964 5 130918844.28005 102014615.65301  24913011.214 1
  20167011.874 9 105978360.58609  82580539.27307  20167010.214 7
  22676476.361 7 119165685.30107  92856382.71603  22676475.963 3
  21851411.911 7 114829943.56707  89477879.07803  21851410.221 3
  20169986.593 7 107971528.95907
  22959224.911 6 122773299.57906
  23533693.556 5 125580278.88105
  24976854.232 5 131254256.67605 102276057.39302  24976860.494 2
  21229438.283 8 111561452.78508  86930986.64405  21229436.230 5
  22124139.422 7 118141673.50107
  22546637.141 6 120440094.39706
  20387759.346 7 109060761.52507
  20324558.046 7 108837091.07407
 18 10 16 19  6 13.0000000  0 13G30G15G20G21R07R24R06G27G13R09R16R23
                                R08
  24913443.051 5 130921122.97605 102016391.27701  24913444.787 1
  20166896.317 9 105977753.45809  82580066.18607  20166894.689 7
  22675861.854 7 119162455.99607  92853866.37803  22675861.463 3
  21851115.973 7 114828388.08307  89476667.01103  21851114.218 3
  20170213.637 7 107972743.65007
  22958522.365 6 122769540.01506
  23534244.371 5 125583220.84205
  24976513.075 6 131252462.79406 102274659.55702  24976519.090 2
  21229769.871 8 111563195.34008  86932344.48005  21229767.756 5
  22123573.327 7 118138650.18407
  22546818.425 6 120441062.31006
  20387656.004 7 109060208.38607
  20324214.722 7 108835252.62407
 18 10 16 19  6 14.0000000  0 13G30G15G20G21R07R24R06G27G13R09R16R23
                                R08
  24913877.107 5 130923401.83005 102018166.96401  24913878.440 1
  20166780.810 9 105977146.56209  82579593.28107  20166779.201 7
  22675247.573 7 119159226.52107  92851349.91503  22675246.879 3
  21850820.191 7 114826832.73607  89475455.04603  21850818.192 3
  20170440.478 7 107973958.33007
  22957819.116 6 122765780.71506
  23534795.525 5 125586162.49805
  24976171.754 6 131250669.15506 102273261.93402  24976177.749 2
  21230101.518 8 111564937.99108  86933702.39305  21230099.300 5
  22123007.585 7 118135627.16707
  22547000.140 6 120442030.75006
  20387552.720 7 109059655.86907
  20323871.431 7 108833414.17507
 18 10 16 19  6 15.0000000  0 13G30G15G20G21R07R24R06G27G13R09R16R23
                                R08
  24914310.569 5 130925681.16105 102019943.12701  24914312.201 1
  20166665.467 9 105976540.33009  82579120.89107  20166663.837 7
  22674633.208 7 119155997.27807  92848833.62603  22674632.299 3
  21850524.446 7 114825277.97907  89474243.54703  21850522.323 3
  20170667.558 7 107975173.44307
  22957116.724 6 122762021.99006
  23535346.565 5 125589104.24705
  24975830.486 6 131248876.23106 102271864.85102  24975836.470 2
  21230433.191 8 111566681.17708  86935060.71905  21230430.965 5
  22122441.361 7 118132604.84307
  22547181.796 6 120443000.12906
  20387449.587 7 109059104.37207
  20323528.202 7 108831576.16707
 18 10 16 19  6 16.0000000  0 13G30G15G20G21R07R24R06G27G13R09R16R23
                                R08
  24914744.213 5 130927960.96505 102021719.68801  24914746.172 1
  20166550.255 9 105975934.70209  82578648.97307  20166548.595 7
  22674018.879 7 119152768.26507  92846317.51303  22674017.849 3
  21850228.686 7 114823723.73807  89473032.45103  21850226.574 3
  20170894.675 7 107976388.95707
  22956413.980 6 122758263.95106
  23535898.169 5 125592046.12305
  24975489.527 6 131247083.93506 102270468.25402  24975495.308 2
  21230765.022 8 111568424.85208  86936419.42305  21230762.719 5
  22121875.608 7 118129583.19307
  22547363.296 6 120443970.46906
  20387346.702 7 109058553.90007
  20323185.209 7 108829738.55507
 18 10 16 19  6 17.0000000  0 13G30G15G20G21R07R24R06G27G13R09R16R23
                                R08
  24915178.048 5 130930240.36605 102023495.87201  24915180.018 1
  20166435.005 9 105975328.88309  82578176.90607  20166433.321 7
  22673404.390 7 119149538.63807  92843800.91603  22673403.337 3
  21849932.677 7 114822169.20807  89471821.12603  21849930.749 3
  20171121.739 7 107977603.99207
  22955710.894 6 122754505.66706
  23536450.204 5 125594987.18905
  24975148.733 6 131245291.47806 102269071.52902  24975154.118 2
  21231096.766 8 111570168.19508  86937777.87005  21231094.446 5
  22121309.644 7 118126561.39107
  22547544.628 6 120444940.86506
  20387243.803 7 109058003.61007
  20322841.865 7 108827900.54907
 18 10 16 19  6 18.0000000  0 13G30G15G20G21R07R24R06G27G13R09R16R23
                                R08
  24915611.848 5 130932520.55305 102025272.51501  24915613.948 1
  20166319.891 9 105974723.89209  82577705.48507  20166318.199 7
  22672789.805 7 119146309.42707  92841284.64903  22672788.846 3
  21849636.955 7 114820615.43707  89470610.39303  21849635.063 3
  20171348.878 7 107978819.62207
  22955007.697 5 122750748.22905
  23537001.555 5 125597928.59705
  24974807.832 6 131243499.86506 102267675.46002  24974813.077 2
  21231428.652 8 111571912.24208  86939136.87005  21231426.307 5
  22120743.666 7 118123540.48207
  22547725.985 6 120445912.47906
  20387141.116 7 109057454.57607
  20322498.696 7 108826063.21007
 18 10 16 19  6 19.0000000  0 13G30G15G20G21R07R24R06G27G13R09R16R23
                                R08
  24916045.066 5 130934800.93805 102027049.43401  24916047.861 1
  20166204.820 9 105974119.33109  82577234.39807  20166203.157 7
  22672175.244 6 119143080.23306  92838768.39603  22672174.351 3
  21849341.511 7 114819061.99207  89469399.91203  21849339.408 3
  20171575.927 7 107980035.45607
  22954305.032 5 122746991.21405
  23537553.343 5 125600869.87105
  24974467.143 6 131241708.69506 102266279.73402  24974472.129 2
  21231760.520 8 111573656.59108  86940496.10405  21231758.245 5
  22120177.855 7 118120520.05707
  22547908.133 6 120446884.72706
  20387038.766 7 109056906.37007
  20322155.552 7 108824226.10107
 18 10 16 19  6 20.0000000  0 13G30G15G20G21R07R24R06G27G13R09R16R23
                                R08
  24916479.627 5 130937081.67605 102028826.61401  24916481.877 1
  20166089.851 9 105973515.22709  82576763.66807  20166088.205 7
  22671560.852 6 119139851.10106  92836252.18403  22671559.772 3
  21849045.967 7 114817508.92407  89468189.73503  21849043.906 3
  20171802.987 7 107981251.51707
  22953602.263 6 122743234.67206
  23538104.548 5 125603811.08105
  24974126.384 6 131239918.02106 102264884.39902  24974131.306 2
  21232092.486 8 111575401.26908  86941855.59105  21232090.227 5
  22119612.236 7 118117500.15107
  22548089.900 6 120447857.70706
  20386936.426 7 109056359.00807
  20321812.498 7 108822389.24807
 18 10 16 19  6 21.0000000  0 13G30G15G20G21R07R24R06G27G13R09R16R23
                                R08
  24916915.226 5 130939362.98205 102030604.27001  24916915.964 1
  20165975.035 9 105972911.93909  82576293.57507  20165973.410 7
  22670946.464 6 119136622.36306  92833736.29803  22670945.380 3
  21848750.629 7 114815956.58807  89466980.11603  21848748.515 3
  20172030.202 7 107982468.14107
  22952899.721 6 122739478.93306
  23538655.692 5 125606752.59005
  24973785.428 6 131238128.15006 102263489.71602  24973790.649 2
  21232424.653 8 111577146.62008  86943215.60605  21232422.339 5
  22119046.850 7 118114481.09407
  22548272.041 6 120448831.77306
  20386834.210 7 109055812.85107
  20321469.542 7 108820552.99307
 18 10 16 19  6 22.0000000  0 13G30G15G20G21R07R24R06G27G13R09R16R23
                                R08
  24917350.499 5 130941644.43405 102032382.03501  24917350.163 1
  20165860.250 9 105972308.86709  82575823.64707  20165858.659 7
  22670332.033 6 119133393.43506  92831220.24703  22670330.979 3
  21848455.317 7 114814404.38807  89465770.60603  21848453.128 3
  20172257.491 7 107983684.75207
  22952197.285 5 122735723.37305
  23539206.247 5 125609693.75105
  24973444.656 6 131236338.56306 102262095.22802  24973450.063 2
  21232756.722 8 111578892.06608  86944575.69305  21232754.469 5
  22118481.575 7 118111462.30707
  22548454.520 6 120449806.38406
  20386732.194 7 109055267.28707
  20321126.563 7 108818716.73907
 18 10 16 19  6 23.0000000  0 13G30G15G20G21R07R24R06G27G13R09R16R23
                                R08
  24917785.871 5 130943926.03905 102034159.90401  24917784.384 1
  20165745.529 9 105971706.13309  82575353.98407  20165743.975 7
  22669717.445 6 119130164.42506  92828704.13003  22669716.421 3
  21848159.830 7 114812852.40507  89464561.27003  21848157.836 3
  20172484.717 7 107984901.47907
  22951494.627 5 122731968.15705
  23539757.154 5 125612634.71605
  24973104.025 6 131234549.32106 102260701.02402  24973109.536 2
  21233088.992 8 111580637.71708  86945935.94105  21233086.643 5
  22117916.295 7 118108443.89207
  22548637.442 6 120450781.56906
  20386630.331 7
  20320783.568 7 108816880.60407
 18 10 16 19  6 24.0000000  0 13G30G15G20G21R07R24R06G27G13R09R16R23
                                R08
  24918221.162 5 130946208.56905 102035938.45701  24918218.843 1
  20165631.009 9 105971104.51709  82574885.19307  20165629.497 7
  22669103.232 6 119126936.13906  92826188.58703  22669101.993 3
  21847864.664 7 114811301.49607  89463352.77703  21847862.713 3
  20172712.203 7 107986119.09707
  22950792.279 5 122728214.06805
  23540308.084 5 125615576.31705
  24972763.852 6 131232761.22906 102259307.72002  24972769.192 2
  21233421.351 8 111582384.35508  86947296.96005  21233419.001 5
  22117351.000 7 118105426.67807
  22548820.483 6 120451758.21606
  20386528.694 7
  20320440.827 7 108815045.41007
 18 10 16 19  6 25.0000000  0 13G30G15G20G21R07R24R06G27G13R09R16R23
                                R08
  24918655.584 5 130948491.22305 102037717.15901  24918653.189 1
  20165516.595 9 105970503.14309  82574416.59107  20165515.064 7
  22668488.826 7 119123707.68807  92823672.91303  22668487.575 3
  21847569.591 7 114809750.72707  89462144.38803  21847567.524 3
  20172939.643 7
  22950090.057 6 122724460.17806
  23540859.159 5 125618517.60105
  24972423.631 6 131230973.38406 102257914.58902  24972428.906 2
  21233753.767 8 111584131.10008  86948658.05905  21233751.363 5
  22116785.961 7 118102409.74807
  22549003.720 6 120452735.37806
  20386427.402 7
  20320098.138 7 108813210.27107
 18 10 16 19  6 26.0000000  0 13G30G15G20G21R07R24R06G27G13R09R16R23
                                R08
  24919089.840 5 130950774.08705 102039496.00401  24919087.701 1
  20165402.227 9 105969902.14009  82573948.27807  20165400.711 7
  22667874.321 6 119120479.19206  92821157.19903  22667873.191 3
  21847274.449 7 114808200.25607  89460936.23403  21847272.347 3
  20173166.939 7
  22949388.799 6 122720706.71606
  23541409.999 5 125621458.70405
  24972083.701 6 131229185.94306 102256521.78402  24972088.682 2
  21234086.291 8 111585878.09808  86950019.35605  21234083.770 5
  22116221.095 7 118099393.21907
  22549186.914 6 120453713.23206
  20386326.299 7
  20319755.390 7 108811375.29107
 18 10 16 19  6 27.0000000  0 13G30G15G20G21R07R24R06G27G13R09R16R23
                                R08
  24919523.748 5 130953057.69605 102041275.44401  24919522.289 1
  20165288.011 9 105969302.02509  82573480.65507  20165286.533 7
  22667260.161 6 119117251.18506  92818641.88003  22667258.960 3
  21846979.529 7 114806650.56407  89459728.68303  21846977.399 3
  20173394.552 7
  22948687.104 6 122716954.12606
  23541960.641 5 125624400.11705
  24971743.631 6 131227399.42006 102255129.69202  24971748.602 2
  21234418.895 8 111587625.84908  86951381.23305  21234416.338 5
  22115656.321 7 118096377.63707
  22549369.857 6 120454692.21806
  20386225.326 7 109052553.96307
  20319412.746 7 108809540.98407
 18 10 16 19  6 28.0000000  0 13G30G15G20G21R07R24R06G27G13R09R16R23
                                R08
  24919957.288 5 130955341.34605 102043054.94101  24919956.940 1
  20165173.911 9 105968702.10409  82573013.18507  20165172.399 7
  22666645.886 7 119114022.96907  92816126.39303  22666644.671 3
  21846684.777 7 114805101.00607  89458521.22903  21846682.487 3
  20173621.965 7
  22947985.874 6 122713201.70506
  23542511.085 5 125627341.24005
  24971403.592 6 131225613.12406 102253737.74702  24971408.634 2
  21234751.496 8 111589373.66708  86952743.16605  21234748.920 5
  22115091.601 7 118093362.32207
  22549552.776 6 120455671.70106
  20386124.498 7 109052013.90807
  20319070.155 7 108807706.66107
 18 10 16 19  6 29.0000000  0 13G30G15G20G21R07R24R06G27G13R09R16R23
                                R08
  24920391.548 5 130957625.40305 102044834.71101  24920391.613 1
  20165059.891 9 105968102.76309  82572546.16507  20165058.364 7
  22666031.646 7 119110794.89907  92813611.01303  22666030.387 3
  21846390.091 7 114803551.92207  89457314.15103  21846387.668 3
  20173849.804 7
  22947284.829 6 122709449.92706
  23543062.462 5 125630282.36505
  24971064.106 6 131223827.40406 102252346.28402  24971068.790 2
  21235084.266 8 111591121.93108  86954105.45005  21235081.586 5
  22114527.131 7 118090347.63007
  22549736.178 6 120456652.04806
  20386023.798 7 109051474.85707
  20318727.760 7 108805872.72107
 18 10 16 19  6 30.0000000  0 13G30G15G20G21R07R24R06G27G13R09R16R23
                                R08
  24920825.375 5 130959909.58205 102046614.56501  24920826.309 1
  20164945.885 9 105967503.69409  82572079.35907  20164944.382 7
  22665417.404 6 119107566.71806  92811095.54103  22665416.035 3
  21846095.449 7 114802003.04107  89456107.22503  21846092.921 3
  20174077.707 7
  22946583.872 6 122705698.35706
  23543613.712 5 125633223.22605
  24970724.533 6 131222042.02506 102250955.07502  24970728.996 2
  21235416.984 8 111592870.34708  86955467.85205  21235414.275 5
  22113962.655 7 118087333.27907
  22549919.343 6 120457632.97106
  20385923.302 7 109050936.44507
  20318385.407 7 108804038.87907
 18 10 16 19  6 31.0000000  0 13G30G15G20G21R07R24R06G27G13R09R16R23
                                R08
  24921259.277 5 130962194.06205 102048394.66701  24921261.031 1
  20164831.957 9 105966905.08309  82571612.90807  20164830.490 7
  22664802.957 6 119104338.57406  92808580.10403  22664801.670 3
  21845800.638 7 114800454.52207  89454900.58603  21845798.290 3
  20174305.599 7 107994647.50107
  22945882.743 6 122701947.26106
  23544165.878 5 125636164.00905
  24970384.911 6 131220257.09006 102249564.22102  24970389.314 2
  21235749.737 8 111594619.07308  86956830.49305  21235747.040 5
  22113398.466 7 118084319.46007
  22550102.745 6 120458614.60706
  20385822.801 7 109050398.88607
  20318043.111 7 108802205.28807
 18 10 16 19  6 32.0000000  0 13G30G15G20G21R07R24R06G27G13R09R16R23
                                R08
  24921693.933 4 130964478.65404 102050174.81801  24921695.731 1
  20164718.129 9 105966306.73309  82571146.66007  20164716.651 7
  22664188.580 6 119101110.28706  92806064.54903  22664187.305 3
  21845506.030 7 114798906.18507  89453694.09203  21845503.651 3
  20174533.412 8 107995866.46008
  22945181.467 5 122698196.37805
  23544717.027 5 125639104.51005
  24970045.285 6 131218472.44206 102248173.58702  24970049.658 2
  21236082.554 8 111596367.94308  86958193.24805  21236079.813 5
  22112834.111 7 118081305.92407
  22550286.837 6 120459596.80106
  20385722.274 7 109049861.97007
  20317700.871 7 108800371.77307
 18 10 16 19  6 33.0000000  0 13G30G15G20G21R07R24R06G27G13R09R16R23
                                R08
  24922128.935 3 130966763.48803 102051955.30301  24922130.542 1
  20164604.354 9 105965708.84509  82570680.77107  20164602.889 7
  22663574.224 7 119097882.03507  92803549.02803  22663573.006 3
  21845211.524 7 114797358.22807  89452487.89603  21845209.060 3
  20174761.290 7 107997085.59907
  22944480.123 6 122694445.96206
  23545268.434 5 125642044.97405
  24969705.683 6 131216688.28606 102246783.34102  24969710.083 2
  21236415.452 7 111598117.14207  86959556.26205  21236412.650 5
  22112269.985 7 118078292.91207
  22550470.308 6 120460579.72406
  20385622.360 7 109049325.89907
  20317358.416 7 108798538.51407
 18 10 16 19  6 34.0000000  0 13G30G15G20G21R07R24R06G27G13R09R16R23
                                R08
  24922564.253 3 130969048.46803 102053735.86101  24922565.340 1
  20164490.680 9 105965111.38309  82570215.21807  20164489.202 7
  22662959.956 6 119094653.81106  92801033.52703  22662958.682 3
  21844916.867 7 114795810.60307  89451281.95503  21844914.546 3
  20174989.151 8 107998304.91408
  22943778.468 5 122690695.98305
  23545819.797 5 125644985.26905
  24969366.068 6 131214904.58106 102245393.44402  24969370.620 2
  21236748.382 7 111599866.65107  86960919.51405  21236745.571 5
  22111705.836 7 118075280.35907
  22550654.478 6 120461563.38506
  20385522.301 7 109048790.67707
  20317016.025 7 108796705.47407
 18 10 16 19  6 35.0000000  0 13G30G15G20G21R07R24R06G27G13R09R16R23
                                R08
  24922995.367 3
  20164377.046 9 105964514.42809  82569750.06007  20164375.610 7
  22662345.620 7 119091425.68107  92798518.10903  22662344.330 3
  21844622.376 7 114794263.40107  89450076.34103  21844620.156 3
  20175216.975 8 107999524.54208
  22943077.045 6 122686946.49006
  23546371.285 5 125647925.56405
  24969026.736 6 131213121.41406 102244003.95702  24969031.224 2
  21237081.347 7 111601616.52707  86962283.05405  21237078.532 5
  22111141.827 7 118072268.37307
  22550839.213 6 120462547.88206
  20385422.416 7 109048256.35407
  20316673.669 7 108794872.74707
 18 10 16 19  6 36.0000000  0 12G15G20G21R07R24R06G27G13R09R16R23R08
  20164263.617 9 105963918.20309  82569285.46707  20164262.156 7
  22661731.509 7 119088197.87407  92796002.93903  22661730.076 3
  21844328.084 7 114792716.83207  89448871.22103  21844325.865 3
  20175444.971 8 108000744.68808
  22942375.708 6 122683197.73206
  23546920.972 5 125650866.08605
  24968687.401 6 131211339.01006 102242615.06602  24968691.957 2
  21237414.382 7 111603366.99507  86963647.05305  21237411.606 5
  22110578.004 7 118069257.18307
  22551023.892 6 120463533.37806
  20385323.009 7 109047723.17107
  20316331.484 7 108793040.55307
 18 10 16 19  6 37.0000000  0 12G15G20G21R07R24R06G27G13R09R16R23R08
  20164150.261 9 105963322.55509  82568821.32707  20164148.822 7
  22661117.477 6 119084970.24906  92793487.90403  22661115.886 3
  21844033.750 7 114791170.77707  89447666.50203  21844031.615 3
  20175673.074 8 108001965.18708
  22941674.858 6 122679449.57606
  23547472.056 5 125653806.58805
  24968348.556 6 131209557.21806 102241226.66702  24968352.821 2
  21237747.523 7 111605117.91207  86965011.40505  21237744.737 5
  22110014.285 7 118066246.60607
  22551208.876 6 120464519.71606
  20385223.575 7 109047190.95807
  20315989.454 7 108791208.73707
 18 10 16 19  6 38.0000000  0 12G15G20G21R07R24R06G27G13R09R16R23R08
  20164037.006 9 105962727.44509  82568357.60507  20164035.588 7
  22660503.296 6 119081742.74706  92790972.96503  22660501.686 3
  21843739.453 7 114789625.19707  89446462.16003  21843737.489 3
  20175901.118 8 108003185.97308
  22940973.936 6 122675701.95206
  23548022.944 5 125656747.13905
  24968009.653 6 131207775.97306 102239838.68402  24968013.782 2
  21238080.811 7 111606869.24307  86966376.07605  21238077.971 5
  22109450.521 7 118063236.64207
  22551393.730 6 120465506.89006
  20385124.189 7 109046659.69807
  20315647.511 7 108789377.25607
 18 10 16 19  6 39.0000000  0 12G15G20G21R07R24R06G27G13R09R16R23R08
  20163923.909 9 105962133.31709  82567894.64707  20163922.540 7
  22659888.956 7 119078515.81107  92788458.47103  22659887.634 3
  21843445.620 6 114788080.49606  89445258.48903  21843443.494 3
  20176129.317 8 108004407.49608
  22940273.405 6 122671955.30706
  23548574.630 5 125659688.12405
  24967670.969 6 131205995.74406 102238451.49602  24967674.927 2
  21238414.221 7 111608621.42707  86967741.41205  21238411.380 5
  22108886.737 7 118060227.74907
  22551579.144 6 120466495.33906
  20385024.951 7 109046129.83707
  20315305.658 7 108787546.56507
 18 10 16 19  6 40.0000000  0 13G30G15G20G21R07R24R06G27G13R09R16R23
                                R08
  24925181.253 3
  20163810.852 9 105961539.35109  82567431.81607  20163809.516 7
  22659274.823 7 119075288.64707  92785943.79703  22659273.541 3
  21843151.748 7 114786535.86707  89444054.88503  21843149.534 3
  20176357.515 8 108005628.91708
  22939573.135 6 122668208.82006
  23549126.056 5 125662628.77205
  24967332.255 6 131204215.70006 102237064.44802  24967336.135 2
  21238747.636 8 111610373.63308  86969106.76705  21238744.784 5
  22108323.091 7 118057219.03307
  22551765.155 6 120467484.23806
  20384925.914 7 109045600.51007
  20314963.792 7 108785715.83807
 18 10 16 19  6 41.0000000  0 12G15G20G21R07R24R06G27G13R09R16R23R08
  20163697.905 9 105960945.97909  82566969.45007  20163696.612 7
  22658660.560 7 119072061.65107  92783429.25703  22658659.471 3
  21842858.038 7 114784991.74107  89442851.66103  21842855.609 3
  20176585.772 8 108006850.68708
  22938872.571 6 122664462.94806
  23549676.622 5 125665569.45005
  24966993.724 6 131202436.24806 102235677.83902  24966997.449 2
  21239081.149 8 111612126.30308  86970472.48305  21239078.278 5
  22107759.680 7 118054210.95307
  22551950.648 6 120468474.03806
  20384827.120 7 109045072.16207
  20314621.871 7 108783885.50807
 18 10 16 19  6 42.0000000  0 12G15G20G21R07R24R06G27G13R09R16R23R08
  20163585.050 9 105960353.04509  82566507.42307  20163583.779 7
  22658046.568 7 119068834.69707  92780914.74603  22658045.361 3
  21842564.472 6 114783447.97006  89441648.72703  21842561.833 3
  20176813.987 8 108008072.66808
  22938171.671 6 122660717.46606
  23550226.862 5 125668509.97505
  24966655.140 6 131200657.27706 102234291.63002  24966658.849 2
  21239414.816 7 111613879.27907  86971838.43605  21239411.838 5
  22107196.282 7 118051203.37507
  22552136.107 6 120469464.53606
  20384728.457 7 109044544.65007
  20314280.127 7 108782055.38907
 18 10 16 19  6 43.0000000  0 12G15G20G21R07R24R06G27G13R09R16R23R08
  20163472.348 9 105959761.11209  82566046.17707  20163471.152 7
  22657432.671 7 119065608.33107  92778400.69003  22657431.398 3
  21842270.895 6 114781905.11306  89440446.50103  21842268.302 3
  20177042.428 8 108009295.44208
  22937471.282 6 122656973.04606
  23550777.416 5 125671450.97905
  24966316.725 6 131198879.33406 102232906.23702  24966320.477 2
  21239748.526 7 111615633.11607  86973205.06504  21239745.538 4
  22106633.074 7 118048196.86007
  22552321.681 6 120470456.32906
  20384630.080 7 109044018.54707
  20313938.472 7 108780226.06407
 18 10 16 19  6 44.0000000  0 12G15G20G21R07R24R06G27G13R09R16R23R08
  20163359.778 9 105959169.57309  82565585.23807  20163358.588 7
  22656818.768 7 119062381.95207  92775886.63503  22656817.413 3
  21841977.286 7 114780362.59307  89439244.53803  21841974.767 3
  20177270.863 8 108010518.38908
  22936770.414 6 122653229.00706
  23551329.138 5 125674391.83405
  24965978.144 6 131197101.78706 102231521.14402  24965982.244 2
  21240082.299 8 111617387.23708  86974571.91105  21240079.268 5
  22106069.940 7 118045190.82207
  22552507.646 6 120471448.82806
  20384531.838 7 109043493.22107
  20313596.872 7 108778396.94107
 18 10 16 19  6 45.0000000  0 12G15G20G21R07R24R06G27G13R09R16R23R08
  20163247.313 9 105958578.63609  82565124.76707  20163246.131 7
  22656204.883 7 119059155.76407  92773372.72003  22656203.424 3
  21841683.857 7 114778820.57507  89438042.96903  21841681.312 3
  20177499.350 8 108011741.67908
  22936070.340 6 122649485.56606
  23551880.194 5 125677332.79705
  24965639.807 6 131195324.89606 102230136.55302  24965644.104 2
  21240416.148 7 111619141.81907  86975939.11605  21240413.115 5
  22105506.955 7 118042185.42607
  22552693.175 6 120472442.17006
  20384433.728 7 109042968.91207
  20313255.440 7 108776568.23207
 18 10 16 19  6 46.0000000  0 12G15G20G21R07R24R06G27G13R09R16R23R08
  20163134.904 9 105957988.00909  82564664.53807  20163133.737 7
  22655590.989 7 119055929.49207  92770858.74103  22655589.430 3
  21841390.374 7 114777278.77007  89436841.56103  21841387.911 3
  20177727.826 8 108012965.02708
  22935370.115 6 122645742.44206
  23552431.323 5 125680273.53805
  24965301.316 6 131193548.36606 102228752.25102  24965305.996 2
  21240750.021 7 111620896.60407  86977306.48405  21240747.007 5
  22104944.242 7 118039180.41107
  22552878.635 6 120473436.14206
  20384335.802 7 109042445.28307
  20312913.754 7 108774739.68307
 18 10 16 19  6 47.0000000  0 12G15G20G21R07R24R06G27G13R09R16R23R08
  20163022.503 9 105957397.50409  82564204.40307  20163021.361 7
  22654976.885 7 119052702.91807  92768344.52703  22654975.413 3
  21841097.272 7 114775737.00807  89435640.18803  21841094.488 3
  20177956.457 8 108014188.29208
  22934670.387 6 122641999.41406
  23552981.749 5 125683213.84205
  24964963.263 6 131191771.94406 102227368.03102  24964967.910 2
  21241083.911 7 111622651.36807  86978673.83105  21241080.876 5
  22104381.580 7 118036175.55807
  22553064.541 6 120474430.52106
  20384237.955 7 109041922.17607
  20312572.386 7 108772911.03607
 18 10 16 19  6 48.0000000  0 12G15G20G21R07R24R06G27G13R09R16R23R08
  20162910.343 9 105956807.76709  82563744.86907  20162909.137 7
  22654362.786 7 119049476.71507  92765830.60103  22654361.491 3
  21840803.867 7 114774195.94007  89434439.36303  21840801.216 3
  20178185.220 8 108015412.11008
  22933971.023 6 122638257.16806
  23553533.031 5 125686154.37805
  24964625.154 6 131189996.30806 102225984.41702  24964629.949 2
  21241417.883 7 111624406.77107  86980041.68005  21241414.870 5
  22103819.201 7 118033171.53107
  22553250.603 6 120475425.98606
  20384140.483 7 109041400.24807
  20312230.976 7 108771082.94407
 18 10 16 19  6 49.0000000  0 12G15G20G21R07R24R06G27G13R09R16R23R08
  20162798.201 9 105956218.47909  82563285.68307  20162796.997 7
  22653748.873 7 119046250.54307  92763316.70503  22653747.501 3
  21840510.654 7 114772655.24707  89433238.81803  21840507.972 3
  20178413.939 8 108016636.13708
  22933271.529 6 122634515.37106
  23554084.356 5 125689094.88205
  24964287.997 6 131188221.18306 102224601.19202  24964292.064 2
  21241751.939 7 111626162.50307  86981409.77805  21241748.927 5
  22103256.875 7 118030168.01907
  22553437.045 6 120476422.16106
  20384043.069 7 109040879.15507
  20311889.556 7 108769255.08507
 18 10 16 19  6 50.0000000  0 13G30G15G20G21R07R24R06G27G13R09R16R23
                                R08
  24929556.391 3
  20162686.197 9 105955629.77109  82562826.95107  20162684.970 7
  22653134.993 7 119043024.57107  92760802.96703  22653133.619 3
  21840217.519 7 114771115.04507  89432038.66103  21840214.857 3
  20178642.646 8 108017860.46608
  22932572.028 6 122630774.12306
  23554634.899 5 125692035.42705
  24963950.600 6 131186446.65606 102223218.43902  24963954.296 2
  21242086.084 7 111627918.67607  86982778.22205  21242083.074 5
  22102694.518 7 118027165.11407
  22553623.752 6 120477419.22506
  20383945.704 7 109040359.03507
  20311548.224 7 108767427.58607
 18 10 16 19  6 51.0000000  0 13G30G15G20G21R07R24R06G27G13R09R16R23
                                R08
  24929994.016 4
  20162574.314 9 105955041.65309  82562368.67607  20162573.054 7
  22652521.179 7 119039798.75607  92758289.34203  22652519.804 3
  21839924.545 7 114769575.32207  89430838.87303  21839921.827 3
  20178871.645 8 108019085.12808
  22931872.896 6 122627033.49806
  23555186.092 5 125694975.96605
  24963613.120 6 131184672.72806 102221836.15802  24963616.680 2
  21242420.291 7 111629675.30707  86984147.02305  21242417.305 5
  22102132.207 7 118024162.85507
  22553810.735 6 120478417.11706
  20383848.897 7 109039839.90007
  20311207.135 7 108765600.48907
 18 10 16 19  6 52.0000000  0 13G30G15G20G21R07R24R06G27G13R09R16R23
                                R08
  24930429.404 4
  20162462.520 9 105954454.07909  82561910.82707  20162461.237 7
  22651907.390 7 119036573.09207  92755775.83603  22651905.971 3
  21839631.754 7 114768036.08707  89429639.48403  21839628.860 3
  20179100.653 8 108020310.09108
  22931174.066 6 122623293.42606
  23555738.276 5 125697916.48705
  24963275.782 6 131182899.40306 102220454.34502  24963279.206 2
  21242754.481 7 111631432.36207  86985516.15605  21242751.631 5
  22101570.048 7 118021161.20507
  22553997.777 6 120479415.85906
  20383752.042 7 109039321.71307
  20310865.881 7 108763773.77707
 18 10 16 19  6 53.0000000  0 13G30G15G20G21R07R24R06G27G13R09R16R23
                                R08
  24930865.933 3
  20162350.764 9 105953866.78709  82561453.19807  20162349.468 7
  22651293.592 7 119033347.29007  92753262.23103  22651292.129 3
  21839338.658 7 114766497.03607  89428440.22403  21839335.915 3
  20179329.622 8 108021535.11708
  22930474.975 6 122619553.60206
  23556289.512 5 125700856.80805
  24962938.701 6 131181126.35506 102219072.75302  24962941.778 2
  21243088.797 7 111633189.55807  86986885.40105  21243086.010 5
  22101007.965 7 118018159.93407
  22554185.011 6 120480415.15906
  20383655.165 7 109038804.18707
  20310524.817 7 108761947.15307
 18 10 16 19  6 54.0000000  0 13G30G15G20G21R07R24R06G27G13R09R16R23
                                R08
  24931303.356 4
  20162239.151 9 105953279.93409  82560995.90907  20162237.794 7
  22650679.735 7 119030121.54507  92750748.65903  22650678.269 3
  21839045.947 7 114764958.35507  89427241.24703  21839043.028 3
  20179558.650 8 108022760.36108
  22929775.654 6 122615814.29006
  23556840.294 5 125703796.99105
  24962601.413 6 131179353.77206 102217691.52502  24962604.407 2
  21243423.232 7 111634947.06307  86988254.88705  21243420.424 5
  22100446.181 7 118015159.13907
  22554372.184 6 120481415.22406
  20383558.692 7 109038287.48307
  20310183.817 7 108760120.75907
 18 10 16 19  6 55.0000000  0 13G30G15G20G21R07R24R06G27G13R09R16R23
                                R08
  24931738.342 3
  20162127.569 9 105952693.49709  82560538.94507  20162126.191 7
  22650065.885 7 119026895.78507  92748235.08003  22650064.418 3
  21838753.113 7 114763419.99507  89426042.52903  21838750.226 3
  20179787.592 8 108023985.77708
  22929076.535 6 122612075.37606
  23557391.486 5 125706737.10605
  24962264.090 6 131177581.64106 102216310.64702  24962267.131 2
  21243757.635 7 111636704.84407  86989624.58505  21243754.853 5
  22099884.274 7 118012158.83607
  22554559.993 6 120482415.99606
  20383462.258 7 109037771.57007
  20309842.946 7 108758294.56207
 18 10 16 19  6 56.0000000  0 13G30G15G20G21R07R24R06G27G13R09R16R23
                                R08
  24932172.290 3
  20162016.097 9 105952107.76009  82560082.52507  20162014.723 7
  22649451.967 7 119023670.33507  92745721.74103  22649450.607 3
  21838460.415 7 114761882.24107  89424844.27703  21838457.599 3
  20180016.691 8 108025211.67808
  22928377.444 6 122608337.15306
  23557942.303 5 125709677.37405
  24961927.011 6 131175810.23906 102214930.34902  24961930.037 2
  21244092.324 7 111638463.20607  86990994.73805  21244089.415 5
  22099322.407 7 118009159.29507
  22554748.097 6 120483417.76806
  20383365.841 7 109037256.76507
  20309502.060 7 108756468.85207
 18 10 16 19  6 57.0000000  0 13G30G15G20G21R07R24R06G27G13R09R16R23
                                R08
  24932606.825 4
  20161904.765 9 105951522.90709  82559626.79707  20161903.428 7
  22648838.288 7 119020445.36407  92743208.77303  22648836.886 3
  21838167.811 7 114760345.31707  89423646.66103  21838165.074 3
  20180245.923 8 108026438.21008
  22927678.406 6 122604599.83706
  23558493.620 5 125712618.00105
  24961589.811 6 131174039.74306 102213550.73802  24961593.047 2
  21244427.208 7 111640222.31707  86992365.46905  21244424.138 5
  22098760.933 7 118006160.68207
  22554935.971 6 120484420.67906
  20383270.079 7 109036743.24107
  20309161.177 7 108754643.84807
 18 10 16 19  6 58.0000000  0 13G30G15G20G21R07R24R06G27G13R09R16R23
                                R08
  24933042.468 4
  20161793.625 9 105950938.78209  82559171.63307  20161792.259 7
  22648224.531 7 119017220.70707  92740696.05403  22648223.236 3
  21837875.427 7 114758809.06007  89422449.58203  21837872.728 3
  20180475.108 8 108027665.25508
  22926979.720 6 122600863.22006
  23559044.663 5 125715558.80905
  24961253.153 6 131172270.00006 102212171.71702  24961256.195 2
  21244762.106 7 111641982.02607  86993736.67005  21244758.978 5
  22098199.628 7 118003162.84707
  22555124.382 6 120485424.61706
  20383174.274 7 109036230.87207
  20308820.412 7 108752819.38607
 18 10 16 19  6 59.0000000  0 12G15G20G21R07R24R06G27G13R09R16R23R08
  20161682.603 9 105950355.12509  82558716.83607  20161681.198 7
  22647611.029 7 119013996.12407  92738183.39403  22647609.627 3
  21837583.469 7 114757273.13907  89421252.76103  21837580.499 3
  20180704.382 8 108028892.51408
  22926280.915 6 122597127.09106
  23559595.374 5 125718499.53205
  24960916.460 6 131170500.75506 102210793.09202  24960919.473 2
  21245097.069 7 111643742.07407  86995108.13504  21245093.880 4
  22097638.470 7 118000165.54307
  22555312.569 6 120486429.30606
  20383078.606 7 109035719.36007
  20308479.844 7 108750995.19107
 18 10 16 19  7  0.0000000  0 12G15G20G21R07R24R06G27G13R09R16R23R08
  20161571.595 9 105949771.88709  82558262.36407  20161570.212 7
  22646997.273 7 119010771.53807  92735670.73803  22646996.013 3
  21837291.304 7 114755737.59007  89420056.22803  21837288.292 3
  20180933.699 8 108030119.93708
  22925582.487 6 122593391.35906
  23560146.637 5 125721440.11205
  24960580.087 6 131168731.96306 102209414.82102  24960582.876 2
  21245431.995 7 111645502.41807  86996479.83004  21245428.898 4
  22097077.350 7 117997168.74707
  22555500.657 6 120487434.70206
  20382983.026 7 109035208.68607
  20308139.238 7 108749171.21607
 18 10 16 19  7  1.0000000  0 12G15G20G21R07R24R06G27G13R09R16R23R08
  20161460.690 9 105949188.94009  82557808.12007  20161459.285 7
  22646383.844 7 119007546.86007  92733158.00403  22646382.381 3
  21836999.279 7 114754202.22307  89418859.84503  21836996.111 3
  20181163.033 8 108031347.40908
  22924883.430 6 122589655.91106
  23560697.264 5 125724380.49605
  24960243.486 6 131166963.48206 102208036.78302  24960246.328 2
  21245767.109 7 111647262.91607  86997851.64804  21245763.886 4
  22096516.557 7 117994172.28607
  22555688.762 6 120488440.63506
  20382887.605 7 109034698.70107
  20307798.762 7 108747347.32107
 18 10 16 19  7  2.0000000  0 12G15G20G21R07R24R06G27G13R09R16R23R08
  20161349.827 9 105948606.21009  82557354.04507  20161348.397 7
  22645770.211 7 119004321.98507  92730645.11503  22645768.736 3
  21836707.007 7 114752666.99907  89417663.56503  21836703.945 3
  20181392.227 8 108032574.87508
  22924184.694 6 122585920.68806
  23561248.200 5 125727320.55705
  24959906.937 6 131165195.24906 102206658.93202  24959909.740 2
  21246102.205 7 111649023.51907  86999223.54804  21246098.940 4
  22095955.219 7 117991176.09307
  22555876.708 6 120489447.07206
  20382792.488 7 109034189.32707
  20307458.208 7 108745523.44207
 18 10 16 19  7  3.0000000  0 12G15G20G21R07R24R06G27G13R09R16R23R08
  20161238.993 9 105948023.83509  82556900.24607  20161237.568 7
  22645156.354 7 119001097.04907  92728132.18003  22645155.059 3
  21836414.894 7 114751132.05107  89416467.50503  21836411.791 3
  20181621.550 8 108033802.45108
  22923486.446 6 122582185.82006
  23561799.399 5 125730260.36905
  24959570.390 6 131163427.38606 102205281.36802  24959573.237 2
  21246437.366 7 111650784.33807  87000595.61404  21246434.021 4
  22095393.930 7 117988180.32007
  22556065.093 6 120490454.19806
  20382697.496 7 109033680.71207
  20307117.609 7 108743699.71507
 18 10 16 19  7  4.0000000  0 12G15G20G21R07R24R06G27G13R09R16R23R08
  20161128.439 9 105947442.89409  82556447.56407  20161127.016 7
  22644542.887 7 118997873.14007  92725620.04903  22644541.584 3
  21836123.016 7 114749598.46107  89415272.49003  21836119.928 3
  20181851.113 8 108035031.24708
  22922788.431 6 122578452.40506
  23562351.085 5 125733201.18905
  24959234.397 6 131161661.00306 102203904.96802  24959237.034 2
  21246772.666 7 111652546.45607  87001968.69204  21246769.343 4
  22094832.985 7 117985186.01007
  22556254.440 6 120491463.04406
  20382602.593 7
  20306777.255 7 108741877.21607
 18 10 16 19  7  5.0000000  0 13G30G15G20G21R07R24R06G27G13R09R16R23
                                R08
  24936070.718 4
  20161017.969 9 105946862.34809  82555995.19007  20161016.545 7
  22643929.430 7 118994649.22707  92723107.91003  22643928.171 3
  21835831.193 7 114748065.16007  89414077.71403  21835828.164 3
  20182080.676 8 108036260.19108
  22922090.498 6 122574719.44006
  23562902.409 5 125736141.82405
  24958898.243 6 131159895.02206 102202528.87102  24958900.871 2
  21247107.951 7 111654308.84407  87003341.97804  21247104.702 4
  22094272.301 7 117982192.18007
  22556443.507 6 120492472.59206
  20382507.995 7
  20306436.839 7 108740054.92607
 18 10 16 19  7  6.0000000  0 13G30G15G20G21R07R24R06G27G13R09R16R23
                                R08
  24936508.624 5
  20160907.601 9 105946282.38309  82555543.27107  20160906.190 7
  22643316.086 7 118991425.47807  92720595.89903  22643314.754 3
  21835539.261 7 114746532.35607  89412883.31503  21835536.413 3
  20182310.312 8 108037489.46708
  22921392.200 6 122570987.04306
  23563453.903 5 125739082.48305
  24958562.300 6 131158129.65606 102201153.27202  24958564.860 2
  21247443.211 7 111656071.66707  87004715.60404  21247440.149 4
  22093711.694 7 117979199.00507
  22556632.844 6 120493483.05206
  20382413.619 7
  20306096.403 7 108738233.03507
 18 10 16 19  7  7.0000000  0 13G30G15G20G21R07R24R06G27G13R09R16R23
                                R08
  24936948.565 5
  20160797.275 9 105945702.36409  82555091.30807  20160795.816 7
  22642702.550 7 118988201.28107  92718083.53703  22642701.243 3
  21835247.632 7 114744999.41807  89411688.82203  21835244.635 3
  20182539.784 8 108038718.44408
  22920694.374 6 122567254.57706
  23564005.031 5 125742022.55105
  24958226.136 6 131156364.25806 102199777.63902  24958228.844 2
  21247778.639 7 111657834.30307  87006089.08704  21247775.561 4
  22093151.361 7 117976205.79907
  22556821.751 6 120494493.70106
  20382319.324 7 109031658.17807
  20305756.122 7 108736410.90307
 18 10 16 19  7  8.0000000  0 13G30G15G20G21R07R24R06G27G13R09R16R23
                                R08
  24937388.049 5
  20160686.989 9 105945122.73209  82554639.64607  20160685.510 7
  22642088.965 7 118984977.06207  92715571.16703  22642087.710 3
  21834956.006 7 114743466.78507  89410494.55703  21834952.915 3
  20182769.388 8 108039947.56708
  22919996.527 6 122563522.49206
  23564556.358 5 125744962.49505
  24957890.115 6 131154599.27506 102198402.34102  24957892.922 2
  21248113.977 7 111659597.21007  87007462.78004  21248111.004 4
  22092590.867 7 117973213.06207
  22557011.074 6 120495504.95206
  20382225.109 7 109031154.24607
  20305416.072 7 108734588.95107
 18 10 16 19  7  9.0000000  0 13G30G15G20G21R07R24R06G27G13R09R16R23
                                R08
  24937827.614 5
  20160576.766 9 105944543.56609  82554188.34807  20160575.303 7
  22641475.345 7 118981752.89707  92713058.83503  22641474.266 3
  21834664.329 7 114741934.54807  89409300.61603  21834661.379 3
  20182998.966 8 108041176.91008
  22919298.414 6 122559790.88406
  23565107.020 5 125747902.33305
  24957554.285 6 131152834.81006 102197027.43602  24957557.108 2
  21248449.439 7 111661360.43707  87008836.72504  21248446.533 4
  22092030.443 7 117970220.84407
  22557200.348 6 120496516.97406
  20382131.254 7 109030651.19207
  20305075.942 7 108732767.22407
 18 10 16 19  7 10.0000000  0 13G30G15G20G21R07R24R06G27G13R09R16R23
                                R08
  24938266.540 5
  20160466.694 9 105943965.25809  82553737.72107  20160465.247 7
  22640861.945 7 118978529.20907  92710546.86903  22640860.817 3
  21834372.933 7 114740403.08407  89408107.26803  21834369.986 3
  20183228.823 8 108042406.86208
  22918601.028 6 122556060.11406
  23565658.535 5 125750842.52005
  24957218.847 6 131151071.19606 102195653.19302  24957221.455 2
  21248785.000 7 111663124.39507  87010211.23904  21248782.199 4
  22091470.188 7 117967229.56407
  22557390.051 6 120497530.18606
  20382037.420 7 109030149.39007
  20304735.931 7 108730946.15307
 18 10 16 19  7 11.0000000  0 13G30G15G20G21R07R24R06G27G13R09R16R23
                                R08
  24938704.607 4
  20160356.764 9 105943387.48309  82553287.50607  20160355.295 7
  22640248.518 7 118975305.63207  92708034.99403  22640247.369 3
  21834081.561 7 114738872.08007  89406914.27703  21834078.610 3
  20183458.583 8 108043637.12908
  22917903.051 6 122552329.92606
  23566209.451 5 125753782.64805
  24956882.988 6 131149308.16806 102194279.40902  24956885.917 2
  21249120.749 7 111664888.75707  87011586.06704  21249117.929 4
  22090910.086 7 117964238.87007
  22557579.618 6 120498544.19106
  20381943.870 7 109029648.50407
  20304395.762 7 108729125.41207
 18 10 16 19  7 12.0000000  0 13G30G15G20G21R07R24R06G27G13R09R16R23
                                R08
  24939142.128 5
  20160246.845 9 105942810.00609  82552837.52307  20160245.404 7
  22639634.986 7 118972081.95807  92705523.03503  22639633.911 3
  21833790.178 7 114737341.28307  89405721.44603  21833787.275 3
  20183688.302 8 108044867.46908
  22917205.485 6 122548600.03306
  23566759.841 5 125756722.62105
  24956547.632 6 131147545.44806 102192905.86502  24956550.429 2
  21249456.671 7 111666653.28907  87012961.02604  21249453.690 4
  22090349.862 7 117961248.52607
  22557769.273 6 120499558.79206
  20381850.328 7 109029148.33007
  20304055.832 7 108727304.79007
 18 10 16 19  7 13.0000000  0 13G30G15G20G21R07R24R06G27G13R09R16R23
                                R08
  24939580.861 4
  20160137.040 9 105942232.99009  82552387.90107  20160135.604 7
  22639021.633 7 118968858.33707  92703011.12203  22639020.472 3
  21833498.842 7 114735810.86207  89404528.90903  21833496.034 3
  20183918.158 8 108046098.03208
  22916507.899 6 122544870.58206
  23567311.597 5 125759662.47605
  24956212.297 6 131145783.25106 102191532.72602  24956215.080 2
  21249792.487 7 111668418.13907  87014336.23604  21249789.553 4
  22089789.945 7 117958258.70107
  22557959.153 6 120500574.15006
  20381757.126 7 109028649.01707
  20303715.791 7 108725484.41907
 18 10 16 19  7 14.0000000  0 13G30G15G20G21R07R24R06G27G13R09R16R23
                                R08
  24940017.792 5
  20160027.263 9 105941656.31309  82551938.54207  20160025.870 7
  22638408.277 7 118965634.65007  92700499.15103  22638407.050 3
  21833207.907 7 114734280.70207  89403336.57603  21833204.860 3
  20184148.124 8 108047328.70008
  22915810.352 6 122541141.53106
  23567862.128 5 125762602.16505
  24955877.208 6 131144021.40606 102190159.84902  24955879.780 2
  21250128.364 7 111670183.21207  87015711.60904  21250125.466 4
  22089230.069 7 117955269.28307
  22558149.401 6 120501590.14006
  20381663.858 7 109028150.43707
  20303375.758 7 108723664.19407
 18 10 16 19  7 15.0000000  0 13G30G15G20G21R07R24R06G27G13R09R16R23
                                R08
  24940455.591 5
  20159917.637 9 105941080.17909  82551489.60507  20159916.239 7
  22637794.855 7 118962411.09107  92697987.29103  22637793.637 3
  21832916.871 7 114732751.00407  89402144.60403  21832913.806 3
  20184378.175 8 108048559.65408
  22915113.282 6 122537412.99306
  23568413.188 5 125765541.83005
  24955541.919 6 131142260.11306 102188787.40802  24955544.578 2
  21250464.364 7 111671948.67907  87017087.30004  21250461.437 4
  22088670.401 6 117952280.44206
  22558339.352 6 120502606.96806
  20381570.722 7 109027652.81307
  20303035.902 7 108721844.32607
 18 10 16 19  7 16.0000000  0 13G30G15G20G21R07R24R06G27G13R09R16R23
                                R08
  24940893.466 5
  20159808.079 9 105940504.58609  82551041.09207  20159806.711 7
  22637181.539 7 118959187.67007  92695475.53703  22637180.243 3
  21832625.837 7 114731221.77907  89400952.99003  21832622.806 3
  20184608.260 8 108049790.93508
  22914416.310 6 122533684.99406
  23568963.313 5 125768481.56105
  24955206.911 6 131140499.39106 102187415.40102  24955209.448 2
  21250800.480 7 111673714.56207  87018463.31304  21250797.475 4
  22088111.048 6 117949292.23706
  22558529.710 6 120503624.63106
  20381477.755 7 109027156.12207
  20302696.221 7 108720024.79507
 18 10 16 19  7 17.0000000  0 13G30G15G20G21R07R24R06G27G13R09R16R23
                                R08
  24941331.573 5
  20159698.642 9 105939929.65109  82550593.09107  20159697.300 7
  22636568.262 7 118955964.50107  92692963.98203  22636566.879 3
  21832334.894 7 114729693.10007  89399761.80903  21832331.918 3
  20184838.397 8 108051022.62908
  22913718.907 6 122529957.66006
  23569513.499 5 125771421.35405
  24954872.056 6 131138739.37606 102186043.97102  24954874.474 2
  21251136.532 7 111675480.96107  87019839.72804  21251133.616 4
  22087551.585 6 117946304.75306
  22558720.315 6 120504643.24406
  20381385.256 7 109026660.47707
  20302356.457 7 108718205.72307
 18 10 16 19  7 18.0000000  0 13G30G15G20G21R07R24R06G27G13R09R16R23
                                R08
  24941769.953 5
  20159589.329 9 105939355.28009  82550145.52807  20159588.000 7
  22635954.918 7 118952741.48507  92690452.55003  22635953.609 3
  21832043.833 7 114728164.91807  89398571.02503  21832041.111 3
  20185068.605 8 108052254.64008
  22913021.727 6 122526230.90306
  23570064.203 5 125774361.16805
  24954536.996 6 131136979.94406 102184672.98402  24954539.635 2
  21251472.723 7 111677247.79507  87021216.48004  21251469.886 4
  22086992.272 7 117943317.87407
  22558911.001 6 120505662.67206
  20381292.931 7 109026165.77707
  20302016.764 7 108716387.00007
 18 10 16 19  7 19.0000000  0 13G30G15G20G21R07R24R06G27G13R09R16R23
                                R08
  24942207.510 5
  20159480.190 9 105938781.55209  82549698.46807  20159478.825 7
  22635341.596 7 118949518.72007  92687941.29403  22635340.367 3
  21831753.075 7 114726637.31207  89397380.68703  21831750.335 3
  20185298.896 8 108053487.04008
  22912324.936 6 122522504.79806
  23570614.621 5 125777301.11805
  24954202.592 6 131135221.17006 102183302.51302  24954204.889 2
  21251809.049 7 111679015.13907  87022593.63504  21251806.228 4
  22086433.124 7 117940331.70807
  22559102.183 6 120506683.02306
  20381200.598 7 109025672.12307
  20301677.012 7 108714568.75207
 18 10 16 19  7 20.0000000  0 13G30G15G20G21R07R24R06G27G13R09R16R23
                                R08
  24942645.926 5
  20159371.210 9 105938208.55709  82549251.97807  20159369.780 7
  22634728.260 7 118946296.26607  92685430.28903  22634727.160 3
  21831462.348 7 114725110.34307  89396190.84103  21831459.715 3
  20185529.360 8 108054719.95108
  22911628.319 6 122518779.43106
  23571165.332 5 125780241.19805
  24953868.120 5 131133463.15005 102181932.64002  24953870.300 2
  21252145.477 7 111680783.07407  87023971.24804  21252142.651 4
  22085874.044 7 117937346.37007
  22559293.326 6 120507704.42206
  20381108.738 7 109025179.60407
  20301337.656 7 108712751.05607
 18 10 16 19  7 20.0000000  4  1
ANTENNA;APSAPS-3L       NONE;0.094;0.082                    COMMENT             
 18 10 16 19  7 21.0000000  0 13G30G15G20G21R07R24R06G27G13R09R16R23
                                R08
  24943083.617 5
  20159262.278 9 105937636.26009  82548806.03307  20159260.865 7
  22634114.982 7 118943074.13007  92682919.53603  22634113.993 3
  21831171.982 7 114723584.00407  89395001.48103  21831169.314 3
  20185759.806 8 108055953.34008
  22910931.762 6 122515054.74806
  23571716.292 5 125783181.46905
  24953533.852 6 131131705.88006 102180563.35402  24953535.845 2
  21252481.982 7 111682551.58407  87025349.30204  21252479.185 4
  22085315.257 7 117934361.78707
  22559484.954 6 120508726.80906
  20381016.865 7 109024688.16507
  20300998.043 7 108710933.86607
 18 10 16 19  7 22.0000000  0 13G30G15G20G21R07R24R06G27G13R09R16R23
                                R08
  24943521.953 5
  20159153.468 9 105937064.32209  82548360.36707  20159152.017 7
  22633501.787 7 118939851.92107  92680408.72703  22633500.799 3
  21830881.679 7 114722057.93007  89393812.33603  21830878.968 3
  20185990.234 8 108057186.85108
  22910235.219 6 122511330.42106
  23572267.750 5 125786121.56105
  24953199.603 6 131129948.99806 102179194.37302  24953201.488 2
  21252818.460 7 111684320.31407  87026727.53304  21252815.737 4
  22084756.346 6 117931377.59706
  22559676.366 6 120509749.85106
  20380924.648 7 109024197.51207
  20300658.786 7 108709116.82007
 18 10 16 19  7 23.0000000  0 13G30G15G20G21R07R24R06G27G13R09R16R23
                                R08
  24943959.832 5
  20159044.768 9 105936492.84509  82547915.06007  20159043.258 7
  22632888.746 7 118936629.79207  92677897.97303  22632887.606 3
  21830591.537 7 114720532.24507  89392623.48603  21830588.639 3
  20186220.798 8 108058420.58808
  22909539.033 6 122507606.56706
  23572819.278 5 125789061.61605
  24952865.406 5 131128192.60405 102177825.74902  24952867.257 2
  21253155.089 7 111686089.38407  87028106.02704  21253152.356 4
  22084197.495 6 117928393.94206
  22559868.627 6 120510773.65506
  20380832.788 7 109023707.71207
  20300319.307 7 108707299.99907
 18 10 16 19  7 24.0000000  0 13G30G15G20G21R07R24R06G27G13R09R16R23
                                R08
  24944397.273 5
  20158936.076 9 105935921.79409  82547470.08607  20158934.584 7
  22632275.633 7 118933407.68207  92675387.24903  22632274.461 3
  21830301.351 7 114719006.90107  89391434.90403  21830298.368 3
  20186451.410 8 108059654.49808
  22908842.292 6 122503883.15206
  23573369.818 5 125792001.54505
  24952531.014 5 131126436.64005 102176457.45702  24952533.092 2
  21253491.749 7 111687858.74607  87029484.74804  21253489.052 4
  22083639.019 7 117925410.79307
  22560060.796 6 120511798.09706
  20380741.272 7 109023218.72207
  20299980.145 7 108705483.41707
 18 10 16 19  7 25.0000000  0 13G30G15G20G21R07R24R06G27G13R09R16R23
                                R08
  24944835.648 4
  20158827.507 9 105935351.33209  82547025.57107  20158826.026 7
  22631662.664 7 118930185.74407  92672876.64203  22631661.272 3
  21830011.270 6 114717482.04806  89390246.70703  21830008.244 3
  20186681.907 8 108060888.74708
  22908146.355 6 122500160.33406
  23573921.296 5 125794941.51905
  24952197.423 5 131124681.33405 102175089.68402  24952199.053 2
  21253828.538 7 111689628.55007  87030863.81704  21253825.845 4
  22083080.711 7 117922428.26907
  22560252.947 6 120512823.44806
  20380650.168 7 109022730.73107
  20299641.045 7 108703667.23607
 18 10 16 19  7 26.0000000  0 13G30G15G20G21R07R24R06G27G13R09R16R23
                                R08
  24945274.788 5
  20158719.094 9 105934781.63809  82546581.65307  20158717.612 7
  22631049.579 7 118926964.17807  92670366.33403  22631048.181 3
  21829721.326 6 114715957.90206  89389059.06503  21829718.233 3
  20186912.568 8 108062123.53408
  22907450.530 6 122496438.29106
  23574472.508 5 125797881.72605
  24951863.312 5 131122926.78805 102173722.50402  24951865.121 2
  21254165.373 7 111691399.00407  87032243.39104  21254162.773 4
  22082522.249 7 117919446.58207
  22560445.374 6 120513849.87106
  20380559.258 7 109022243.90107
  20299302.170 7 108701851.63307
 18 10 16 19  7 27.0000000  0 13G30G15G20G21R07R24R06G27G13R09R16R23
                                R08
  24945713.786 5
  20158610.723 9 105934212.19109  82546137.92807  20158609.251 7
  22630436.631 7 118923742.44907  92667855.89003  22630435.131 3
  21829431.388 7 114714433.91207  89387871.53603  21829428.239 3
  20187143.245 8 108063358.34308
  22906754.825 6 122492716.52206
  23575023.071 5 125800821.63305
  24951529.345 5 131121172.52305 102172355.54502  24951531.221 2
  21254502.347 7 111693169.56907  87033623.05204  21254499.741 4
  22081963.983 7 117916465.20607
  22560638.101 6 120514876.81106
  20380468.434 7 109021757.71507
  20298963.220 7 108700036.07007
 18 10 16 19  7 28.0000000  0 13G30G15G20G21R07R24R06G27G13R09R16R23
                                R08
  24946151.879 5
  20158502.529 9 105933643.66609  82545694.92207  20158501.060 7
  22629823.791 7 118920521.24907  92665345.86003  22629822.112 3
  21829141.525 6 114712910.78006  89386684.67203  21829138.447 3
  20187373.934 8 108064593.83908
  22906058.973 6 122488995.65506
  23575574.503 5 125803761.93805
  24951195.117 5 131119419.22105 102170989.32502  24951197.504 2
  21254839.490 7 111694940.91407  87035003.32204  21254836.866 4
  22081406.096 7 117913484.81907
  22560830.547 6 120515904.97806
  20380377.990 7 109021272.86107
  20298624.513 7 108698221.26207
 18 10 16 19  7 29.0000000  0 13G30G15G20G21R07R24R06G27G13R09R16R23
                                R08
  24946591.024 5
  20158394.379 9 105933075.35509  82545252.08307  20158392.901 7
  22629210.796 7 118917299.84707  92662835.68303  22629209.097 3
  21828851.572 6 114711387.77006  89385497.91403  21828848.703 3
  20187604.791 8 108065829.31908
  22905363.186 6 122485275.04606
  23576124.967 5 125806701.86205
  24950861.467 5 131117666.15505 102169623.30802  24950863.831 2
  21255176.677 7 111696712.35807  87036383.66604  21255173.999 4
  22080848.257 7 117910504.73107
  22561023.233 6 120516933.67006
  20380287.566 7 109020788.61007
  20298285.575 7 108696406.47307
 18 10 16 19  7 30.0000000  0 13G30G15G20G21R07R24R06G27G13R09R16R23
                                R08
  24947029.614 5
  20158286.251 9 105932506.95209  82544809.16907  20158284.723 7
  22628597.676 7 118914077.96507  92660325.12603  22628596.002 3
  21828561.672 6 114709864.58306  89384311.01503  21828558.889 3
  20187835.439 8 108067064.44408
  22904667.799 6 122481554.33006
  23576675.433 5 125809641.19505
  24950527.734 5 131115913.03205 102168257.21802  24950530.145 2
  21255513.671 7 111698483.56007  87037763.82304  21255511.088 4
  22080290.344 6 117907524.59006
  22561215.427 6 120517962.50206
  20380197.464 7 109020304.63807
  20297946.873 7 108694591.37007
 18 10 16 19  7 31.0000000  0 13G30G15G20G21R07R24R06G27G13R09R16R23
                                R08
  24947468.406 5
  20158178.194 9 105931939.07709  82544366.67107  20158176.653 7
  22627984.668 7 118910856.18907  92657814.64503  22627982.915 3
  21828271.873 6 114708341.86106  89383124.47803  21828269.177 3
  20188066.246 8 108068299.86508
  22903972.402 6 122477834.14006
  23577225.966 5 125812580.48405
  24950194.217 5 131114160.45705 102166891.57702  24950196.576 2
  21255850.747 7 111700255.15507  87039144.28704  21255848.235 4
  22079732.289 6 117904545.02606
  22561407.879 6 120518992.13206
  20380107.008 7 109019821.60307
  20297608.007 7 108692776.57807
 18 10 16 19  7 32.0000000  0 13G30G15G20G21R07R24R06G27G13R09R16R23
                                R08
  24947907.546 5
  20158070.284 9 105931371.60609  82543924.48507  20158068.663 7
  22627371.456 7 118907634.44307  92655304.19303  22627369.793 3
  21827982.260 6 114706819.47706  89381938.20403  21827979.541 3
  20188297.052 8 108069535.45608
  22903276.745 6 122474114.37706
  23577776.326 5 125815519.64105
  24949861.331 5 131112408.36105 102165526.30602  24949863.096 2
  21256188.042 7 111702027.04507  87040524.97805  21256185.436 5
  22079174.414 6 117901565.97506
  22561600.642 6 120520022.45406
  20380016.887 7 109019339.34807
  20297269.226 7 108690961.99407
 18 10 16 19  7 33.0000000  0 13G30G15G20G21R07R24R06G27G13R09R16R23
                                R08
  24948346.422 5
  20157962.456 9 105930804.91209  82543482.90607  20157960.817 7
  22626758.310 7 118904413.04107  92652794.01303  22626756.716 3
  21827692.622 7 114705297.76407  89380752.45803  21827690.052 3
  20188527.903 8 108070771.56308
  22902581.296 6 122470395.37606
  23578327.821 5 125818459.04105
  24949528.049 6 131110657.00306 102164161.62102  24949529.803 2
  21256525.556 7 111703799.56807  87041906.16805  21256522.793 5
  22078616.635 6 117898587.72206
  22561793.624 6 120521053.84806
  20379926.668 7 109018858.27707
  20296930.507 7 108689147.97507
 18 10 16 19  7 34.0000000  0 13G30G15G20G21R07R24R06G27G13R09R16R23
                                R08
  24948786.023 5
  20157854.782 9 105930239.13709  82543042.04307  20157853.153 7
  22626145.480 7 118901192.14107  92650284.22603  22626143.764 3
  21827403.277 7 114703776.89107  89379567.36203  21827400.756 3
  20188759.045 8 108072008.33808
  22901885.992 6 122466677.33106
  23578877.929 5 125821398.85705
  24949195.155 5 131108906.64705 102162797.69802  24949196.721 2
  21256863.088 7 111705572.88207  87043287.97005  21256860.275 5
  22078058.924 6 117895610.47606
  22561986.648 6 120522086.48706
  20379836.792 7 109018378.54207
  20296591.841 7 108687334.68507
 18 10 16 19  7 35.0000000  0 13G30G15G20G21R07R24R06G27G13R09R16R23
                                R08
  24949224.783 5
  20157747.181 9 105929673.69609  82542601.44007  20157745.544 7
  22625532.682 7 118897971.20407  92647774.39603  22625530.789 3
  21827114.196 7 114702256.26507  89378382.46403  21827111.393 3
  20188990.239 8 108073245.21708
  22901191.088 6 122462959.63206
  23579428.311 5 125824338.52205
  24948862.382 5 131107156.60705 102161434.05402  24948863.715 2
  21257200.572 7 111707346.40807  87044669.93705  21257197.798 5
  22077501.161 6 117892633.62606
  22562179.627 6 120523119.76906
  20379747.289 7 109017899.55007
  20296253.103 7 108685521.55407
 18 10 16 19  7 36.0000000  0 13G30G15G20G21R07R24R06G27G13R09R16R23
                                R08
  24949664.088 5
  20157639.716 9 105929108.96209  82542161.38807  20157638.077 7
  22624919.788 7 118894750.55307  92645264.80803  22624917.940 3
  21826824.962 7 114700736.28207  89377198.06103  21826822.110 3
  20189221.378 8 108074482.57108
  22900496.592 6 122459242.64306
  23579979.741 5 125827278.33905
  24948529.861 5 131105407.35605 102160071.01102  24948530.843 2
  21257538.159 7 111709120.48707  87046052.33405  21257535.418 5
  22076943.738 6 117889657.54106
  22562372.493 6 120524154.01606
  20379658.191 7 109017421.66907
  20295914.551 7 108683708.95407
 18 10 16 19  7 37.0000000  0 13G30G15G20G21R07R24R06G27G13R09R16R23
                                R08
  24950103.899 5
  20157532.312 9 105928544.60709  82541721.63007  20157530.678 7
  22624306.813 7 118891529.87207  92642755.18403  22624305.042 3
  21826535.798 7 114699216.58907  89376013.88103  21826532.962 3
  20189452.572 8 108075720.11708
  22899801.369 6 122455526.04606
  23580529.631 5 125830218.02105
  24948196.700 5 131103658.47305 102158708.25302  24948198.033 2
  21257875.850 7 111710894.81407  87047434.92805  21257873.107 5
  22076386.682 6 117886681.92006
  22562565.559 6 120525188.94606
  20379568.827 7 109016944.55807
  20295575.964 7 108681896.54807
 18 10 16 19  7 38.0000000  0 13G30G15G20G21R07R24R06G27G13R09R16R23
                                R08
  24950542.503 5
  20157424.983 9 105927980.85809  82541282.34607  20157423.399 7
  22623693.892 7 118888309.41407  92640245.73603  22623692.134 3
  21826246.868 7 114697697.41507  89374830.11203  21826243.934 3
  20189683.835 8 108076958.04608
  22899106.409 6 122451810.08106
  23581080.665 5 125833157.74805
  24947863.949 5 131101910.22605 102157345.99002  24947865.358 2
  21258213.735 7 111712669.61907  87048817.89405  21258210.893 5
  22075829.540 6 117883706.95606
  22562759.364 6 120526224.73706
  20379479.718 7 109016468.45607
  20295237.504 7 108680084.53407
 18 10 16 19  7 39.0000000  0 13G30G15G20G21R07R24R06G27G13R09R16R23
                                R08
  24950982.086 5
  20157317.770 9 105927417.88109  82540843.66307  20157316.264 7
  22623081.007 7 118885089.31507  92637736.56703  22623079.343 3
  21825957.986 7 114696178.94607  89373646.88803  21825955.000 3
  20189915.305 8 108078196.46808
  22898412.076 6 122448094.87806
  23581632.075 5 125836097.71405
  24947531.183 5 131100162.77305 102155984.32502  24947532.835 2
  21258551.644 7 111714445.06507  87050201.35805  21258548.805 5
  22075272.893 6 117880732.81606
  22562953.546 6 120527261.61806
  20379390.901 7 109015993.52607
  20294899.204 7 108678273.08607
 18 10 16 19  7 40.0000000  0 13G30G15G20G21R07R24R06G27G13R09R16R23
                                R08
  24951422.169 5
  20157210.648 9 105926855.06609  82540405.10507  20157209.155 7
  22622468.258 7 118881868.96707  92635227.21303  22622466.489 3
  21825669.162 7 114694660.54907  89372463.71603  21825666.062 3
  20190146.644 8 108079434.77908
  22897717.225 6 122444379.85006
  23582183.879 5 125839037.29605
  24947198.279 5 131098415.55605 102154622.82902  24947200.356 2
  21258889.522 7 111716220.54907  87051584.85005  21258886.708 5
  22074716.045 6 117877758.94106
  22563147.194 6 120528298.92506
  20379302.101 7 109015519.15607
  20294560.772 7 108676461.58107
 18 10 16 19  7 41.0000000  0 13G30G15G20G21R07R24R06G27G13R09R16R23
                                R08
  24951861.882 6
  20157103.658 9 105926292.83109  82539967.00007  20157102.158 7
  22621855.270 7 118878648.81707  92632718.00703  22621853.698 3
  21825380.050 7 114693142.66707  89371280.94903  21825377.249 3
  20190378.130 8 108080673.44308
  22897022.436 6 122440665.43206
  23582734.247 5 125841976.92205
  24946865.998 5 131096668.94505 102153261.84302  24946867.971 2
  21259227.458 7 111717996.48107  87052968.69405  21259224.700 5
  22074159.344 6 117874785.71406
  22563341.857 6 120529337.06506
  20379213.777 7 109015045.75507
  20294222.513 7 108674650.45407
 18 10 16 19  7 42.0000000  0 13G30G15G20G21R07R24R06G27G13R09R16R23
                                R08
  24952301.675 6
  20156996.803 9 105925731.19309  82539529.36007  20156995.277 7
  22621242.616 7 118875428.83007  92630208.92603  22621240.947 3
  21825090.984 7 114691625.28807  89370098.58903  21825088.561 3
  20190609.632 8 108081912.47308
  22896327.890 6 122436951.61606
  23583284.883 5 125844916.56205
  24946534.401 5 131094922.94405 102151901.32202  24946535.663 2
  21259565.449 7 111719772.87907  87054352.89905  21259562.790 5
  22073602.687 6 117871813.15306
  22563536.144 6 120530376.13806
  20379125.375 7 109014573.35307
  20293884.458 7 108672839.73207
 18 10 16 19  7 43.0000000  0 13G30G15G20G21R07R24R06G27G13R09R16R23
                                R08
  24952742.277 5 131127539.64815
  20156890.012 9 105925169.73409  82539091.85807  20156888.432 7
  22620630.061 7 118872208.62907  92627699.68303  22620628.187 3
  21824802.211 7 114690108.00507  89368916.29203  21824799.953 3
  20190841.207 8 108083151.44508
  22895633.371 6 122433237.96006
  23583835.764 5 125847855.86505
  24946202.741 5 131093177.15305 102150540.99602  24946203.430 2
  21259903.431 7 111721549.30707  87055737.12905  21259900.849 5
  22073046.276 7 117868840.79207
  22563731.300 6 120531415.64606
  20379037.219 7 109014101.50707
  20293546.436 7 108671028.99707
 18 10 16 19  7 44.0000000  0 13G30G15G20G21R07R24R06G27G13R09R16R23
                                R08
  24953183.452 6 131129850.64006
  20156783.339 9 105924609.05909  82538654.97107  20156781.730 7
  22620017.444 7 118868988.81807  92625190.74003  22620015.517 3
  21824513.552 7 114688591.44807  89367734.56203  21824511.493 3
  20191072.735 8 108084390.97008
  22894938.780 6 122429525.07206
  23584386.580 5 125850795.38005
  24945870.518 5 131091432.15405 102149181.24202  24945871.359 2
  21260241.589 7 111723326.39107  87057121.87105  21260239.051 5
  22072489.919 7 117865869.29907
  22563926.195 6 120532456.21906
  20378949.652 7 109013630.83907
  20293208.152 7 108669218.87607
 18 10 16 19  7 45.0000000  0 13G30G15G20G21R07R24R06G27G13R09R16R23
                                R08
  24953620.003 5 131132161.94705 102180920.00311  24953624.479 1
  20156676.794 9 105924048.90509  82538218.48607  20156675.127 7
  22619404.600 7 118865769.12507  92622681.88103  22619402.788 3
  21824225.125 7 114687075.32307  89366553.16603  21824223.002 3
  20191304.373 8 108085630.79308
  22894244.542 6 122425812.75806
  23584937.245 5 125853734.89805
  24945538.168 5 131089687.74805 102147821.98402  24945539.385 2
  21260579.823 7 111725103.86507  87058506.91305  21260577.348 5
  22071933.959 7 117862898.38707
  22564121.501 6 120533497.62306
  20378861.820 7 109013161.09907
  20292870.216 7 108667409.05107
 18 10 16 19  7 46.0000000  0 13G30G15G20G21R07R24R06G27G13R09R16R23
                                R08
  24954059.895 5 131134473.38405 102182721.10301  24954064.308 1
  20156570.238 9 105923489.02909  82537782.22007  20156568.581 7
  22618791.733 7 118862549.29007  92620172.93103  22618790.037 3
  21823936.613 7 114685559.37507  89365371.90503  21823934.547 3
  20191536.020 8 108086870.62308
  22893550.358 6 122422100.71606
  23585488.134 5 125856674.14405
  24945206.480 5 131087943.59005 102146462.89002  24945207.425 2
  21260918.066 7 111726881.49007  87059892.07405  21260915.666 5
  22071378.013 7 117859927.84307
  22564316.721 6 120534539.60106
  20378774.213 7 109012692.01907
  20292532.163 7 108665599.28107
 18 10 16 19  7 47.0000000  0 13G30G15G20G21R07R24R06G27G13R09R16R23
                                R08
  24954500.171 5 131136785.63805 102184522.84801  24954504.325 1
  20156463.934 9 105922930.13209  82537346.71507  20156462.215 7
  22618179.112 7 118859330.03707  92617664.41803  22618177.430 3
  21823648.243 7 114684044.35807  89364191.37203  21823646.270 3
  20191767.753 8 108088111.21908
  22892855.882 6 122418389.67406
  23586038.509 5 125859613.83605
  24944875.315 5 131086200.47505 102145104.62002  24944875.685 2
  21261256.377 7 111728659.94907  87061277.88405  21261254.159 5
  22070821.851 7 117856958.34907
  22564512.137 6 120535582.85706
  20378686.859 7 109012224.30907
  20292194.161 7 108663790.27707
 18 10 16 19  7 48.0000000  0 13G30G15G20G21R07R24R06G27G13R09R16R23
                                R08
  24954940.304 5 131139098.51505 102186325.09801  24954944.583 1
  20156357.757 9 105922372.01809  82536911.82107  20156356.005 7
  22617566.541 7 118856111.15807  92615156.19103  22617564.902 3
  21823359.925 7 114682530.03907  89363011.37903  21823358.074 3
  20191999.597 8 108089352.36608
  22892161.926 6 122414679.43906
  23586590.022 5 125862553.81205
  24944543.680 5 131084458.17405 102143746.99302  24944544.105 2
  21261594.971 7 111730439.06507  87062664.20805  21261592.773 5
  22070266.066 7 117853989.71207
  22564707.415 6 120536627.17806
  20378599.840 7 109011757.78907
  20291856.504 7 108661981.88507
 18 10 16 19  7 49.0000000  0 13G30G15G20G21R07R24R06G27G13R09R16R23
                                R08
  24955380.155 5 131141411.46805 102188127.41501  24955384.930 1
  20156251.563 9 105921814.09809  82536477.07807  20156249.835 7
  22616953.917 7 118852892.08207  92612647.82503  22616952.357 3
  21823071.846 7 114681015.83607  89361831.47803  21823069.963 3
  20192231.434 8 108090593.47108
  22891468.079 6 122410969.43406
  23587141.085 5 125865493.41805
  24944212.351 5 131082716.14405 102142389.56002  24944212.552 2
  21261933.504 7 111732218.22907  87064050.57405  21261931.377 5
  22069709.960 7 117851021.34307
  22564902.889 6 120537671.93906
  20378512.693 7 109011291.86707
  20291518.876 7 108660173.52607
 18 10 16 19  7 50.0000000  0 13G30G15G20G21R07R24R06G27G13R09R16R23
                                R08
  24955820.623 5 131143725.19205 102189930.30901  24955824.992 1
  20156145.557 9 105921257.15309  82536043.09407  20156143.853 7
  22616341.508 7 118849673.55907  92610139.87903  22616339.883 3
  21822783.924 7 114679502.53007  89360652.29003  21822782.035 3
  20192463.446 8 108091835.32108
  22890774.149 6 122407260.40406
  23587692.692 5 125868433.47505
  24943880.724 5 131080975.06505 102141032.87502  24943881.205 2
  21262272.124 7 111733998.24707  87065437.60005  21262270.134 5
  22069154.116 7 117848053.98907
  22565098.691 6 120538717.97306
  20378425.537 7
  20291181.351 7 108658365.95507
 18 10 16 19  7 51.0000000  0 13G30G15G20G21R07R24R06G27G13R09R16R23
                                R08
  24956260.470 5 131146038.98305 102191733.27301  24956264.946 1
  20156039.627 9 105920700.49109  82535609.33107  20156037.907 7
  22615729.101 7 118846454.94407  92607631.87203  22615727.410 3
  21822496.238 7 114677989.42207  89359473.24703  21822494.081 3
  20192695.576 8 108093077.18508
  22890080.568 6 122403551.65606
  23588244.473 5 125871373.35705
  24943549.300 5 131079234.30105 102139676.43302  24943549.943 2
  21262610.785 7 111735778.40907  87066824.74205  21262608.891 5
  22068598.543 7 117845087.00007
  22565294.221 6 120539764.60506
  20378338.614 7
  20290843.850 7 108656558.47507
 18 10 16 19  7 51.0000000  4  1
ANTENNA;APSAPS-3L       NONE;0.094;0.082                    COMMENT             
 18 10 16 19  7 52.0000000  0 13G30G15G20G21R07R24R06G27G13R09R16R23
                                R08
  24956700.804 5 131148353.52105 102193536.83501  24956705.459 1
  20155933.830 9 105920144.61909  82535176.18407  20155932.118 7
  22615116.644 7 118843236.70807  92605124.15303  22615114.958 3
  21822208.446 7 114676477.03607  89358294.76003  21822206.305 3
  20192927.724 8 108094319.59908
  22889387.500 6 122399843.69506
  23588795.557 5 125874313.42905
  24943218.761 5 131077494.40205 102138320.66902  24943218.823 2
  21262949.596 7 111737559.21207  87068212.38205  21262947.773 5
  22068043.200 7 117842120.88007
  22565490.430 6 120540812.28606
  20378252.167 7
  20290506.440 7 108654751.55307
 18 10 16 19  7 53.0000000  0 13G30G15G20G21R07R24R06G27G13R09R16R23
                                R08
  24957141.281 4 131150668.37704 102195340.63101  24957146.142 1
  20155828.101 9 105919589.28409  82534743.45807  20155826.440 7
  22614504.218 7 118840018.59707  92602616.52403  22614502.516 3
  21821920.830 7 114674965.09007  89357116.61503  21821918.641 3
  20193159.897 8 108095562.32008
  22888694.246 6 122396136.28706
  23589346.523 5 125877253.50805
  24942887.726 5 131075754.95105 102136965.23302  24942887.767 2
  21263288.556 7 111739340.43907  87069600.35205  21263286.757 5
  22067487.848 7 117839155.35707
  22565687.114 6 120541860.80806
  20378165.656 7 109009439.09307
  20290169.238 7 108652944.96207
 18 10 16 19  7 54.0000000  0 12G15G20G21R07R24R06G27G13R09R16R23R08
  20155722.571 9 105919034.84809  82534311.42907  20155720.945 7
  22613891.879 7 118836800.98207  92600109.29403  22613890.145 3
  21821633.551 7 114673453.97107  89355939.11703  21821631.098 3
  20193392.225 8 108096805.70008
  22888001.527 6 122392429.77306
  23589897.909 5 125880193.95005
  24942556.607 5 131074016.53505 102135610.65402  24942556.956 2
  21263627.614 7 111741122.40807  87070988.89905  21263625.908 5
  22066932.702 7 117836190.78207
  22565883.849 6 120542910.50006
  20378079.441 7 109008978.65407
  20289832.156 7 108651139.05407
 18 10 16 19  7 55.0000000  0 13G30G15G20G21R07R24R06G27G13R09R16R23
                                R08
  24958026.403 4
  20155617.084 9 105918480.67609  82533879.60807  20155615.495 7
  22613279.721 7 118833583.23807  92597601.95803  22613277.806 3
  21821345.899 7 114671943.03407  89354761.76203  21821343.604 3
  20193624.436 8 108098049.10608
  22887308.457 6 122388723.57106
  23590448.061 5 125883134.12205
  24942225.595 5 131072278.38205 102134256.23601  24942226.186 1
  21263966.781 7 111742904.51107  87072377.55105  21263965.067 5
  22066377.322 7 117833226.56107
  22566080.815 6 120543960.72006
  20377993.629 7 109008518.89307
  20289494.985 7 108649333.21807
 18 10 16 19  7 56.0000000  0 13G30G15G20G21R07R24R06G27G13R09R16R23
                                R08
  24958465.610 4
  20155511.675 9 105917926.75109  82533447.97907  20155510.108 7
  22612667.228 7 118830365.33507  92595094.50503  22612665.453 3
  21821058.390 7 114670432.25707  89353584.53503  21821056.119 3
  20193856.736 8 108099292.52708
  22886615.672 6 122385017.63406
  23591000.247 5 125886073.95405
  24941894.646 5 131070540.54305 102132902.05501  24941895.442 1
  21264306.038 7 111744686.74507  87073766.30605  21264304.262 5
  22065822.048 7 117830262.62607
  22566277.866 6 120545011.50406
  20377907.840 7 109008059.77607
  20289157.741 7 108647527.45707
 18 10 16 19  7 57.0000000  0 13G30G15G20G21R07R24R06G27G13R09R16R23
                                R08
  24958906.114 5
  20155406.380 9 105917373.46409  82533016.84407  20155404.828 7
  22612055.013 7 118827147.66207  92592587.23003  22612053.171 3
  21820770.899 7 114668922.06007  89352407.75803  21820768.736 3
  20194089.109 8 108100536.34408
  22885922.628 6 122381312.34806
  23591551.372 5 125889013.99605
  24941564.194 5 131068803.31405 102131548.38401  24941564.801 1
  21264645.260 7 111746469.48107  87075155.44805  21264643.573 5
  22065267.017 7 117827299.42907
  22566474.782 6 120546063.17706
  20377822.474 7 109007601.70507
  20288820.590 7 108645722.15207
 18 10 16 19  7 58.0000000  0 13G30G15G20G21R07R24R06G27G13R09R16R23
                                R08
  24959346.412 5
  20155301.246 9 105916820.58209  82532586.02907  20155299.620 7
  22611442.713 7 118823930.00407  92590079.96403  22611440.912 3
  21820483.520 7 114667412.18807  89351231.23703  21820481.466 3
  20194321.635 8 108101780.31308
  22885229.661 6 122377607.49606
  23592102.502 5 125891953.84805
  24941233.891 5 131067066.57405 102130195.07701  24941234.255 1
  21264984.650 7 111748252.47907  87076544.79405  21264982.911 5
  22064712.231 7 117824336.70407
  22566671.812 6 120547115.55006
  20377736.921 7 109007144.41407
  20288483.463 7 108643917.03907
 18 10 16 19  7 59.0000000  0 13G30G15G20G21R07R24R06G27G13R09R16R23
                                R08
  24959787.279 5
  20155196.151 9 105916268.21909  82532155.61507  20155194.514 7
  22610830.418 7 118820712.47007  92587572.80403  22610828.676 3
  21820196.176 7 114665902.74407  89350055.05103  21820194.271 3
  20194554.073 8 108103024.56708
  22884537.110 6 122373903.14506
  23592652.483 5 125894893.65105
  24940903.018 5 131065330.33805 102128842.16501  24940903.829 1
  21265324.017 8 111750035.85808  87077934.43805  21265322.298 5
  22064157.677 7 117821374.52807
  22566869.070 6 120548168.75006
  20377651.373 7 109006688.04507
  20288146.366 7 108642112.24007
 18 10 16 19  8  0.0000000  0 13G30G15G20G21R07R24R06G27G13R09R16R23
                                R08
  24960228.261 5
  20155091.185 9 105915716.46309  82531725.67807  20155089.530 7
  22610218.242 7 118817495.13807  92585065.79403  22610216.439 3
  21819909.105 7 114664393.85507  89348879.28803  21819907.153 3
  20194786.548 8 108104269.20808
  22883844.364 6 122370199.44506
  23593202.908 5 125897833.51505
  24940572.637 5 131063594.79105 102127489.81001  24940573.523 1
  21265663.443 8 111751819.72308  87079324.46405  21265661.775 5
  22063602.927 7 117818413.04407
  22567066.541 6 120549222.81706
  20377565.984 7
  20287809.279 7 108640307.83707
 18 10 16 19  8  1.0000000  0 13G30G15G20G21R07R24R06G27G13R09R16R23
                                R08
  24960668.944 5
  20154986.303 9 105915165.42009  82531296.29407  20154984.684 7
  22609606.121 7 118814278.10307  92582559.01403  22609604.265 3
  21819622.245 7 114662885.57507  89347704.00803  21819620.191 3
  20195019.114 8 108105514.36008
  22883151.927 6 122366496.44306
  23593752.905 5 125900773.60305
  24940242.438 5 131061859.98805 102126138.01402  24940243.370 2
  21266002.969 8 111753604.14608  87080714.92305  21266001.390 5
  22063048.427 7 117815452.37207
  22567264.608 6 120550277.91706
  20377481.435 7
  20287472.457 7 108638503.95407
 18 10 16 19  8  2.0000000  0 13G30G15G20G21R07R24R06G27G13R09R16R23
                                R08
  24961109.993 5
  20154881.516 9 105914614.82809  82530867.26107  20154879.922 7
  22608993.854 7 118811061.14107  92580052.29203  22608992.109 3
  21819335.294 7 114661377.68507  89346529.02803  21819333.252 3
  20195251.647 8 108106759.70608
  22882459.597 6 122362793.92306
  23594302.792 5 125903713.59405
  24939912.161 5 131060125.60205 102124786.52301  24939913.311 1
  21266342.679 8 111755388.91208  87082105.64705  21266341.095 5
  22062493.845 7 117812492.22107
  22567462.521 6 120551333.77806
  20377396.543 7
  20287135.520 7 108636700.34807
 18 10 16 19  8  3.0000000  0 13G30G15G20G21R07R24R06G27G13R09R16R23
                                R08
  24961551.960 5
  20154776.789 9 105914064.65609  82530438.55407  20154775.242 7
  22608381.724 7 118807844.16007  92577545.55803  22608379.899 3
  21819048.187 7 114659870.14207  89345354.32003  21819046.312 3
  20195484.384 8 108108005.19808
  22881767.294 6 122359091.83306
  23594853.025 5 125906653.47905
  24939582.780 5 131058391.71405 102123435.44601  24939583.336 1
  21266682.349 8 111757173.94108  87083496.58005  21266680.795 5
  22061939.591 7 117809532.54607
  22567660.083 6 120552390.32006
  20377311.547 7 109004872.45807
  20286798.953 7 108634896.97507
 18 10 16 19  8  4.0000000  0 13G30G15G20G21R07R24R06G27G13R09R16R23
                                R08
  24961993.300 5
  20154672.117 9 105913514.65409  82530009.98107  20154670.601 7
  22607769.418 7 118804626.99107  92575038.67703  22607767.707 3
  21818761.096 7 114658362.67807  89344179.67103  21818759.529 3
  20195717.099 8 108109250.60208
  22881074.891 6 122355389.91606
  23595404.365 5 125909593.01805
  24939252.834 5 131056658.01905 102122084.52601  24939253.402 1
  21267022.047 8 111758959.00608  87084887.53705  21267020.513 5
  22061385.351 6 117806573.11406
  22567857.863 6 120553447.31006
  20377227.027 6 109004420.44006
  20286462.136 7 108633093.57407
 18 10 16 19  8  5.0000000  0 13G30G15G20G21R07R24R06G27G13R09R16R23
                                R08
  24962435.293 5
  20154567.539 9 105912965.29609  82529581.91007  20154566.086 7
  22607157.278 7 118801410.02407  92572531.95303  22607155.555 3
  21818474.340 7 114656855.78207  89343005.47403  21818472.840 3
  20195949.796 8 108110496.42308
  22880382.566 6 122351688.68706
  23595955.375 5 125912532.66505
  24938922.520 5 131054924.98505 102120734.11301  24938923.606 1
  21267361.819 8 111760744.58208  87086278.89705  21267360.312 5
  22060830.956 6 117803614.37506
  22568055.781 6 120554505.22906
  20377142.771 6 109003969.47106
  20286125.480 7 108631290.62107
 18 10 16 19  8  6.0000000  0 13G30G15G20G21R07R24R06G27G13R09R16R23
                                R08
  24962877.393 5
  20154463.233 9 105912417.07509  82529154.72607  20154461.772 7
  22606545.128 7 118798193.81607  92570025.81603  22606543.484 3
  21818187.696 7 114655349.94407  89341832.09103  21818186.245 3
  20196182.675 8 108111743.18708
  22879690.889 6 122347988.60106
  23596506.763 5 125915472.93305
  24938593.449 5 131053193.16005 102119384.63502  24938594.034 2
  21267701.867 7 111762531.16107  87087671.04105  21267700.302 5
  22060277.012 6 117800656.86006
  22568253.991 6 120555564.59406
  20377058.594 7 109003520.05607
  20285788.955 7 108629488.61907
 18 10 16 19  8  7.0000000  0 13G30G15G20G21R07R24R06G27G13R09R16R23
                                R08
  24963318.944 5
  20154358.984 9 105911869.25409  82528727.85207  20154357.521 7
  22605933.051 7 118794977.60807  92567519.67603  22605931.422 3
  21817901.275 7 114653844.42807  89340658.96803  21817899.703 3
  20196415.623 8 108112990.10408
  22878999.556 6 122344288.89806
  23597057.977 5 125918413.02505
  24938264.154 5 131051461.77105 102118035.49902  24938264.547 2
  21268041.833 7 111764318.00107  87089063.38305  21268040.334 5
  22059722.950 6 117797699.82606
  22568452.428 6 120556624.62406
  20376974.919 7 109003071.43207
  20285452.341 7 108627686.79907
 18 10 16 19  8  8.0000000  0 13G30G15G20G21R07R24R06G27G13R09R16R23
                                R08
  24963761.183 5
  20154254.855 9 105911321.97309  82528301.40107  20154253.386 7
  22605320.949 7 118791761.54507  92565013.65103  22605319.426 3
  21817614.934 6 114652339.37506  89339486.19803  21817613.322 3
  20196648.598 8 108114237.30508
  22878307.956 6 122340589.76706
  23597609.567 5 125921353.11605
  24937934.593 5 131049730.88205 102116686.75402  24937935.163 2
  21268381.899 8 111766105.25508  87090456.04705  21268380.450 5
  22059169.091 6 117794743.38606
  22568651.210 6 120557685.45206
  20376891.225 7 109002623.74807
  20285115.758 7 108625885.30607
 18 10 16 19  8  9.0000000  0 13G30G15G20G21R07R24R06G27G13R09R16R23
                                R08
  24964202.974 5
  20154150.857 9 105910775.14309  82527875.29807  20154149.349 7
  22604709.060 7 118788545.51207  92562507.65003  22604707.422 3
  21817328.687 6 114650834.69306  89338313.71303  21817326.995 3
  20196881.573 8 108115484.69408
  22877616.340 6 122336891.12006
  23598160.115 5 125924293.08305
  24937605.554 5 131048000.52305 102115338.42402  24937605.922 2
  21268722.111 8 111767892.81308  87091848.95205  21268720.633 5
  22058615.416 6 117791787.48806
  22568850.226 6 120558747.01606
  20376807.777 7 109002176.92807
  20284779.320 7 108624084.05707
 18 10 16 19  8 10.0000000  0 13G30G15G20G21R07R24R06G27G13R09R16R23
                                R08
  24964644.422 5
  20154046.915 9 105910228.75809  82527449.54407  20154045.379 7
  22604097.227 7 118785329.52407  92560001.67403  22604095.360 3
  21817042.489 6 114649330.35906  89337141.49203  21817040.673 3
  20197114.671 8 108116732.30508
  22876924.837 6 122333192.89806
  23598710.902 5 125927232.98405
  24937276.503 5 131046270.68405 102113990.49902  24937276.793 2
  21269062.214 8 111769680.69108  87093242.10105  21269060.874 5
  22058061.965 6 117788832.07106
  22569048.751 6 120559809.28406
  20376724.395 7 109001730.94307
  20284443.035 7 108622283.07907
 18 10 16 19  8 11.0000000  0 13G30G15G20G21R07R24R06G27G13R09R16R23
                                R08
  24965086.272 5
  20153943.104 9 105909682.96309  82527024.24807  20153941.521 7
  22603485.589 7 118782113.71307  92557495.84903  22603483.307 3
  21816756.193 6 114647826.55106  89335969.69703  21816754.480 3
  20197347.764 8 108117980.28908
  22876233.697 6 122329495.31706
  23599261.992 5 125930172.95605
  24936947.365 5 131044541.37705 102112642.97102  24936947.726 2
  21269402.475 8 111771469.01908  87094635.60405  21269401.191 5
  22057508.239 6 117785877.31806
  22569247.927 6 120560872.48106
  20376641.423 7
  20284106.790 7 108620482.50607
 18 10 16 19  8 12.0000000  0 13G30G15G20G21R07R24R06G27G13R09R16R23
                                R08
  24965524.196 5
  20153839.396 9 105909137.82809  82526599.46807  20153837.779 7
  22602873.798 7 118778898.16807  92554990.23203  22602871.401 3
  21816470.284 6 114646323.33606  89334798.36303  21816468.386 3
  20197580.859 8 108119228.69808
  22875542.516 6 122325798.39806
  23599813.255 5 125933113.02505
  24936618.512 5 131042812.82405 102111296.03902  24936618.793 2
  21269742.822 8 111773257.87208  87096029.51705  21269741.598 5
  22056955.133 6 117782923.30106
  22569446.697 6 120561936.63306
  20376558.416 7
  20283770.608 7 108618682.39807
 18 10 16 19  8 13.0000000  0 13G30G15G20G21R07R24R06G27G13R09R16R23
                                R08
  24965966.115 5 131197058.60915
  20153735.722 9 105908592.91709  82526174.86107  20153734.096 7
  22602261.884 7 118775682.45707  92552484.48503  22602259.491 3
  21816184.205 6 114644820.24706  89333627.12103  21816182.363 3
  20197814.114 8 108120477.07208
  22874851.489 6 122322101.69206
  23600364.237 5 125936052.75805
  24936289.926 5 131041084.48805 102109949.30202  24936289.928 2
  21270083.286 8 111775046.80808  87097423.49405  21270082.041 5
  22056402.037 6 117779969.60806
  22569646.317 6 120563001.27106
  20376475.496 7 109000398.67407
  20283434.480 7 108616882.30907
 18 10 16 19  8 14.0000000  0 13G30G15G20G21R07R24R06G27G13R09R16R23
                                R08
  24966408.058 5 131199381.18405
  20153632.102 9 105908048.70409  82525750.80007  20153630.533 7
  22601650.008 7 118772467.03807  92549978.96403  22601647.607 3
  21815898.203 6 114643317.80106  89332456.38303  21815896.434 3
  20198047.454 8 108121725.89708
  22874160.381 6 122318405.72106
  23600914.388 5 125938992.64705
  24935960.795 5 131039356.92005 102108603.15802  24935961.201 2
  21270423.858 8 111776836.31108  87098817.91205  21270422.595 5
  22055849.135 6 117777016.68306
  22569845.405 6 120564066.90606
  20376392.702 7 108999956.42807
  20283098.596 7 108615082.73707
 18 10 16 19  8 15.0000000  0 13G30G15G20G21R07R24R06G27G13R09R16R23
                                R08
  24966849.983 5 131201703.93905
  20153528.565 9 105907504.82009  82525326.99507  20153527.037 7
  22601037.957 7 118769251.55407  92547473.39503  22601035.715 3
  21815612.375 6 114641815.61306  89331285.84403  21815610.496 3
  20198280.837 8
  22873468.775 6 122314710.10406
  23601465.630 5 125941932.34905
  24935631.817 5 131037629.70705 102107257.27502  24935632.541 2
  21270764.439 8 111778626.01008  87100212.48005  21270763.167 5
  22055296.130 6 117774064.15206
  22570045.053 6 120565133.12906
  20376310.024 7
  20282762.745 7 108613283.26207
 18 10 16 19  8 16.0000000  0 13G30G15G20G21R07R24R06G27G13R09R16R23
                                R08
  24967291.557 5 131204027.11005
  20153425.144 9 105906961.40509  82524903.55507  20153423.631 7
  22600426.041 7 118766036.12507  92544967.86603  22600423.827 3
  21815326.441 6 114640313.80206  89330115.61003  21815324.683 3
  20198514.244 8
  22872777.178 6 122311015.00306
  23602016.122 5 125944872.04405
  24935303.378 5 131035902.93605 102105911.74502  24935303.980 2
  21271105.119 8 111780416.04808  87101607.31105  21271103.784 5
  22054743.448 6 117771112.19406
  22570244.540 6 120566200.14306
  20376227.579 7
  20282426.907 7 108611484.06707
 18 10 16 19  8 17.0000000  0 13G30G15G20G21R07R24R06G27G13R09R16R23
                                R08
  24967734.102 5 131206350.56305
  20153321.796 9 105906418.56509  82524480.56407  20153320.350 7
  22599814.118 7 118762820.88507  92542462.48403  22599812.006 3
  21815040.567 6 114638812.51406  89328945.78103  21815039.054 3
  20198747.724 8 108125473.45708
  22872085.790 6 122307320.47606
  23602566.679 5 125947811.73405
  24934975.185 5 131034176.86705 102104566.74102  24934975.557 2
  21271445.894 8 111782206.52308  87103002.48905  21271444.504 5
  22054190.920 7 117768160.85507
  22570444.109 6 120567268.01506
  20376145.599 7
  20282090.985 7 108609685.20807
 18 10 16 19  8 18.0000000  0 13G30G15G20G21R07R24R06G27G13R09R16R23
                                R08
  24968175.888 5 131208674.48305
  20153218.566 9 105905876.26909  82524057.99507  20153217.159 7
  22599202.376 7 118759605.78307  92539957.20803  22599200.203 3
  21814754.950 6 114637311.67206  89327776.29603  21814753.483 3
  20198981.189 8 108126723.25808
  22871394.654 6 122303626.49006
  23603118.532 5 125950751.49605
  24934646.824 5 131032451.34005 102103222.17002  24934647.233 2
  21271786.702 8 111783997.40808  87104397.98405  21271785.317 5
  22053638.543 7 117765210.13907
  22570643.953 6 120568336.70506
  20376063.817 7
  20281755.174 7 108607886.70407
 18 10 16 19  8 19.0000000  0 12G15G20G21R07R24R06G27G13R09R16R23R08
  20153115.364 9 105905333.99109  82523635.44207  20153113.949 7
  22598590.511 7 118756390.29407  92537451.63103  22598588.320 3
  21814469.254 6 114635810.76806  89326606.76503  21814467.795 3
  20199214.640 8 108127972.82008
  22870703.736 6 122299932.52606
  23603669.269 5 125953690.68105
  24934317.789 5 131030725.84205 102101877.61602  24934318.908 2
  21272127.496 8 111785788.16608  87105793.38105  21272126.127 5
  22053086.226 7 117762259.48207
  22570844.255 6 120569405.68006
  20375982.024 6 108997757.59906
  20281419.374 7 108606088.03907
 18 10 16 19  8 20.0000000  0 13G30G15G20G21R07R24R06G27G13R09R16R23
                                R08
  24969058.830 4 131213322.44004
  20153012.294 9 105904792.34709  82523213.38107  20153010.869 7
  22597978.628 7 118753175.03807  92534946.23203  22597976.512 3
  21814183.714 6 114634310.43106  89325437.67103  21814182.211 3
  20199448.150 8 108129222.78808
  22870012.985 6 122296239.20706
  23604220.253 5 125956629.99605
  24933989.584 5 131029001.00705 102100533.59202  24933990.682 2
  21272468.391 8 111787579.41708  87107189.16405  21272467.012 5
  22052533.664 6 117759309.52406
  22571044.774 6 120570475.58906
  20375900.286 6 108997320.33206
  20281083.576 7 108604289.83607
 18 10 16 19  8 21.0000000  0 13G30G15G20G21R07R24R06G27G13R09R16R23
                                R08
  24969501.244 4 131215647.27704
  20152909.421 9 105904251.48209  82522791.92807  20152907.937 7
  22597366.987 7 118749960.14707  92532441.12203  22597364.750 3
  21813898.387 6 114632810.79506  89324269.11603  21813896.872 3
  20199681.786 8 108130473.29708
  22869321.949 6 122292546.70106
  23604771.474 5 125959569.55005
  24933661.387 5 131027277.00705 102099190.21902  24933662.617 2
  21272809.429 8 111789371.30208  87108585.43505  21272807.986 5
  22051981.233 6 117756360.40906
  22571245.206 6 120571546.52906
  20375818.659 7 108996884.21807
  20280747.956 7 108602492.21607
 18 10 16 19  8 22.0000000  0 13G30G15G20G21R07R24R06G27G13R09R16R23
                                R08
  24969945.714 4 131217972.85604
  20152806.703 9 105903711.53809  82522371.19107  20152805.183 7
  22596755.421 7 118746745.76307  92529936.41403  22596753.036 3
  21813613.195 7 114631311.98007  89323101.20703  21813611.649 3
  20199915.382 8 108131724.49808
  22868631.008 6 122288855.13506
  23605322.288 5 125962509.41705
  24933333.168 5 131025553.92505 102097847.58302  24933334.780 2
  21273150.630 8 111791163.96608  87109982.31905  21273149.122 5
  22051429.055 7 117753412.30307
  22571446.162 6 120572618.69406
  20375737.357 7 108996449.42407
  20280412.293 7 108600695.30507
 18 10 16 19  8 23.0000000  0 13G30G15G20G21R07R24R06G27G13R09R16R23
                                R08
  24970390.207 4 131220298.64304
  20152704.060 9 105903172.01509  82521950.78407  20152702.506 7
  22596143.683 7 118743531.41407  92527431.73003  22596141.300 3
  21813328.185 7 114629813.51907  89321933.57103  21813326.440 3
  20200148.984 8 108132975.85808
  22867940.571 6 122285163.98006
  23605873.714 5 125965449.24705
  24933005.227 5 131023831.27505 102096505.25802  24933007.010 2
  21273491.819 8 111792956.91908  87111379.42505  21273490.298 5
  22050876.974 6 117750464.67206
  22571647.345 6 120573691.56406
  20375656.224 7 108996015.45107
  20280076.663 7 108598898.60307
 18 10 16 19  8 24.0000000  0 13G30G15G20G21R07R24R06G27G13R09R16R23
                                R08
  24970833.939 4 131222624.52904
  20152601.411 9 105902632.69309  82521530.53107  20152599.873 7
  22595531.999 7 118740316.86007  92524926.88403  22595529.591 3
  21813043.313 7 114628315.18707  89320766.03703  21813041.258 3
  20200382.612 8 108134227.14608
  22867250.396 6 122281473.07506
  23606424.806 5 125968388.67505
  24932677.654 5 131022108.89805 102095163.13602  24932679.236 2
  21273833.048 8 111794749.93908  87112776.58205  21273831.541 5
  22050324.879 6 117747517.31506
  22571848.477 6 120574764.89206
  20375575.465 7 108995582.07207
  20279741.105 7 108597101.89807
 18 10 16 19  8 25.0000000  0 13G30G15G20G21R07R24R06G27G13R09R16R23
                                R08
  24971274.072 4 131224950.32904
  20152498.778 9 105902093.45609  82521110.34707  20152497.263 7
  22594920.289 7 118737102.01007  92522421.80103  22594917.824 3
  21812758.327 7 114626816.87007  89319598.52103  21812756.179 3
  20200616.432 8 108135478.28608
  22866559.730 6 122277782.24106
  23606975.715 5 125971327.64805
  24932350.630 5 131020386.60205 102093821.08202  24932351.515 2
  21274174.174 8 111796542.90508  87114173.69905  21274172.784 5
  22049773.151 6 117744570.13306
  22572049.551 6 120575838.59706
  20375494.717 7 108995149.18107
  20279405.554 7 108595305.07307
 18 10 16 19  8 26.0000000  0 12G15G20G21R07R24R06G27G13R09R16R23R08
  20152396.388 9 105901554.96109  82520690.74207  20152394.796 7
  22594308.561 7 118733887.49307  92519916.97703  22594306.062 3
  21812473.294 7 114625319.20607  89318431.51603  21812471.234 3
  20200850.351 8 108136729.95508
  22865869.465 6 122274092.15906
  23607527.219 5 125974266.83505
  24932022.876 5 131018665.13205 102092479.66802  24932023.960 2
  21274515.418 8 111798336.48508  87115571.29405  21274514.125 5
  22049221.362 6 117741623.77906
  22572250.767 6 120576913.31306
  20375414.223 7 108994717.41307
  20279070.030 7 108593508.81007
 18 10 16 19  8 27.0000000  0 12G15G20G21R07R24R06G27G13R09R16R23R08
  20152294.053 9 105901017.04309  82520271.58507  20152292.431 7
  22593696.744 7 118730673.14707  92517412.29403  22593694.326 3
  21812188.599 7 114623822.06307  89317264.92003  21812186.382 3
  20201084.300 8 108137982.00308
  22865179.697 6 122270402.67306
  23608077.182 5 125977206.02605
  24931694.960 5 131016944.23905 102091138.70002  24931696.494 2
  21274856.806 8 111800130.50208  87116969.22905  21274855.542 5
  22048669.272 6 117738678.07306
  22572452.227 6 120577988.89606
  20375333.749 7 108994286.62407
  20278734.584 7 108591712.93907
 18 10 16 19  8 28.0000000  0 13G30G15G20G21R07R24R06G27G13R09R16R23
                                R08
  24972600.834 3
  20152191.856 9 105900479.83509  82519852.98207  20152190.210 7
  22593084.933 7 118727459.12107  92514907.86303  22593082.715 3
  21811903.892 7 114622325.52707  89316098.78003  21811901.621 3
  20201318.282 8 108139234.51508
  22864489.616 6 122266713.91106
  23608627.034 5 125980145.46405
  24931367.631 5 131015224.10705 102089798.34002  24931369.140 2
  21275198.309 8 111801925.09608  87118367.61405  21275197.063 5
  22048117.385 6 117735733.13506
  22572653.895 6 120579065.48506
  20375253.337 7 108993856.98307
  20278399.305 7 108589917.56307
 18 10 16 19  8 28.0000000  4  1
ANTENNA;APSAPS-3L       NONE;0.094;0.082                    COMMENT             
 18 10 16 19  8 29.0000000  0 13G30G15G20G21R07R24R06G27G13R09R16R23
                                R08
  24973043.363 4
  20152089.666 9 105899942.88109  82519434.57507  20152088.034 7
  22592473.114 7 118724244.94407  92512403.31203  22592471.122 3
  21811619.098 7 114620829.19107  89314932.80103  21811616.814 3
  20201552.342 8 108140487.01308
  22863799.280 6 122263025.44406
  23609177.403 5 125983084.60905
  24931040.539 5 131013504.28605 102088458.21802  24931041.862 2
  21275539.784 8 111803719.81008  87119766.09205  21275538.596 5
  22047565.781 6 117732788.52606
  22572855.832 6 120580142.61606
  20375173.214 7 108993427.97507
  20278063.964 7 108588122.21707
 18 10 16 19  8 30.0000000  0 13G30G15G20G21R07R24R06G27G13R09R16R23
                                R08
  24973487.789 4
  20151987.648 9 105899406.81709  82519016.86607  20151986.027 7
  22591861.605 7 118721031.26107  92509899.14203  22591859.552 3
  21811334.356 7 114619333.67507  89313767.46303  21811332.195 3
  20201786.517 8 108141740.14108
  22863109.441 5 122259337.89205
  23609728.246 5 125986024.11605
  24930713.715 5 131011785.34805 102087118.78702  24930714.763 2
  21275881.373 8 111805515.28508  87121165.16405  21275880.259 5
  22047013.948 6 117729844.90306
  22573057.626 6 120581220.96806
  20375093.158 7
  20277728.733 7 108586327.60007
 18 10 16 19  8 31.0000000  0 13G30G15G20G21R07R24R06G27G13R09R16R23
                                R08
  24973932.045 4
  20151885.695 9 105898871.24709  82518599.53707  20151884.110 7
  22591250.153 7 118717817.65707  92507395.04103  22591247.999 3
  21811049.894 7 114617838.55707  89312602.44303  21811047.666 3
  20202020.643 8 108142993.50408
  22862419.211 5 122255650.87405
  23610278.737 5 125988963.53705
  24930386.723 5 131010066.96105 102085779.76402  24930387.753 2
  21276223.089 8 111807311.10008  87122564.50105  21276222.008 5
  22046462.556 6 117726901.82006
  22573259.610 6 120582300.09206
  20375013.143 7
  20277393.651 7 108584533.30107
 18 10 16 19  8 32.0000000  0 13G30G15G20G21R07R24R06G27G13R09R16R23
                                R08
  24974377.615 4
  20151783.880 9 105898336.26209  82518182.66707  20151782.300 7
  22590638.560 7 118714604.26607  92504891.10303  22590636.474 3
  21810765.328 7 114616343.96307  89311437.83103  21810763.226 3
  20202254.841 8 108144247.26608
  22861729.292 5 122251964.47505
  23610829.030 5 125991903.09205
  24930059.770 5 131008349.20805 102084441.25302  24930060.931 2
  21276565.059 8 111809107.38808  87123964.20705  21276563.841 5
  22045911.462 6 117723959.44706
  22573461.674 6 120583380.06206
  20374933.474 7
  20277058.747 7 108582739.42607
 18 10 16 19  8 33.0000000  0 13G30G15G20G21R07R24R06G27G13R09R16R23
                                R08
  24974821.701 4
  20151682.194 9 105897801.81109  82517766.21107  20151680.575 7
  22590027.179 7 118711390.99307  92502387.25003  22590024.988 3
  21810480.913 7 114614849.81907  89310273.56303  21810478.947 3
  20202488.994 8 108145501.34108
  22861039.853 5 122248278.57205
  23611379.892 5 125994842.53805
  24929732.892 5 131006631.99005 102083103.16202  24929734.198 2
  21276907.018 8 111810904.06408  87125364.21405  21276905.737 5
  22045360.321 6 117721017.66106
  22573664.358 6 120584460.83806
  20374854.243 7 108991722.74207
  20276723.993 7 108580945.88107
 18 10 16 19  8 34.0000000  0 13G30G15G20G21R07R24R06G27G13R09R16R23
                                R08
  24975263.958 4
  20151580.583 9 105897267.88709  82517350.16607  20151578.962 7
  22589415.950 7 118708177.85307  92499883.50103  22589413.548 3
  21810196.649 7 114613356.13407  89309109.65403  21810194.766 3
  20202723.284 8 108146755.70508
  22860350.706 5 122244593.25005
  23611930.600 5 125997782.02505
  24929406.558 5 131004915.32405 102081765.49502  24929407.555 2
  21277249.002 8 111812701.13408  87126764.52905  21277247.722 5
  22044809.453 6 117718076.50206
  22573866.977 6 120585542.42606
  20374774.766 6 108991298.76806
  20276389.189 7 108579152.65207
 18 10 16 19  8 35.0000000  0 13G30G15G20G21R07R24R06G27G13R09R16R23
                                R08
  24975705.338 4
  20151479.128 9 105896734.57709  82516934.59907  20151477.465 7
  22588804.670 7 118704964.93107  92497379.92503  22588802.169 3
  21809912.434 7 114611863.00207  89307946.17103  21809910.671 3
  20202957.691 8
  22859662.234 5 122240908.52905
  23612482.568 5 126000721.57405
  24929080.163 5 131003199.30005 102080428.33902  24929081.051 2
  21277591.035 8 111814498.66808  87128165.20105  21277589.792 5
  22044258.699 6 117715135.98006
  22574069.971 6 120586624.92506
  20374695.297 6
  20276054.590 7 108577359.82807
 18 10 16 19  8 36.0000000  0 13G30G15G20G21R07R24R06G27G13R09R16R23
                                R08
  24976148.418 4
  20151377.656 9 105896201.45509  82516519.18107  20151376.008 7
  22588193.236 7 118701751.78607  92494876.17703  22588190.778 3
  21809628.188 7 114610369.96607  89306782.76603  21809626.544 3
  20203192.028 8
  22858973.545 5 122237224.02605
  23613033.352 5 126003660.76005
  24928753.605 6 131001483.56106 102079091.41702  24928754.582 2
  21277933.203 8 111816296.25508  87129565.91705  21277931.858 5
  22043707.974 6 117712195.73606
  22574272.862 6 120587707.90506
  20374616.481 6
  20275719.859 7 108575566.98307
 18 10 16 19  8 37.0000000  0 13G30G15G20G21R07R24R06G27G13R09R16R23
                                R08
  24976594.681 4
  20151276.179 9 105895668.68809  82516104.03907  20151274.628 7
  22587581.709 7 118698538.61207  92492372.40703  22587579.436 3
  21809343.958 7 114608877.22907  89305619.59203  21809342.475 3
  20203426.428 8
  22858285.381 5 122233539.91605
  23613583.369 5 126006599.81105
  24928427.120 6 130999768.16106 102077754.73402  24928428.194 2
  21278275.448 8 111818094.06708  87130966.81305  21278273.995 5
  22043157.384 6 117709255.94506
  22574475.643 6 120588791.53506
  20374537.903 6
  20275385.268 7 108573774.31407
 18 10 16 19  8 38.0000000  0 13G30G15G20G21R07R24R06G27G13R09R16R23
                                R08
  24977038.467 4
  20151174.890 9 105895136.67409  82515689.48307  20151173.390 7
  22586970.319 7 118695325.77107  92489868.89003  22586968.107 3
  21809060.175 7 114607385.15007  89304456.93503  21809058.518 3
  20203660.926 8
  22857596.986 5 122229856.56405
  23614134.316 5 126009539.04305
  24928100.724 6 130998053.57106 102076418.69702  24928101.971 2
  21278617.719 8 111819892.48708  87132368.17905  21278616.249 5
  22042606.977 6 117706316.97606
  22574678.759 6 120589876.17606
  20374458.849 6
  20275050.505 7
 18 10 16 19  8 39.0000000  0 13G30G15G20G21R07R24R06G27G13R09R16R23
                                R08
  24977483.322 4
  20151073.713 9 105894605.00209  82515275.19107  20151072.220 7
  22586359.030 7 118692112.87907  92487365.34003  22586356.724 3
  21808776.307 7 114605893.34407  89303294.49603  21808774.619 3
  20203895.447 8 108153030.46408
  22856908.119 5 122226173.61205
  23614685.263 5 126012478.05705
  24927774.869 6 130996339.34506 102075082.94103  24927775.771 3
  21278959.937 8 111821691.10408  87133769.69805  21278958.551 5
  22042056.521 6 117703378.38306
  22574881.908 6 120590961.41506
  20374380.155 6 108989191.57006
  20274715.690 7
 18 10 16 19  8 40.0000000  0 13G30G15G20G21R07R24R06G27G13R09R16R23
                                R08
  24977926.254 4
  20150972.607 9 105894073.74709  82514861.22607  20150971.116 7
  22585747.572 7 118688900.00607  92484861.80703  22585745.377 3
  21808492.575 7 114604401.88707  89302132.32403  21808490.823 3
  20204129.923 8 108154286.03808
  22856219.096 5 122222491.08605
  23615236.237 5 126015417.00705
  24927448.667 6 130994625.54406 102073747.51703  24927449.602 3
  21279302.237 8 111823490.01508  87135171.44505  21279300.903 5
  22041506.365 6 117700440.29906
  22575085.274 6 120592047.35406
  20374301.572 6 108988772.66006
  20274380.994 7
 18 10 16 19  8 41.0000000  0 13G30G15G20G21R07R24R06G27G13R09R16R23
                                R08
  24978370.331 4
  20150871.507 9 105893542.68109  82514447.41007  20150870.053 7
  22585136.284 7 118685686.91607  92482358.10003  22585133.923 3
  21808208.837 7 114602910.53307  89300970.22803  21808207.054 3
  20204364.416 8 108155541.55408
  22855530.704 5 122218808.74905
  23615787.080 5 126018355.58205
  24927122.284 6 130992911.99206 102072412.27603  24927123.482 3
  21279644.536 8 111825288.97608  87136573.23505  21279643.273 5
  22040956.433 6 117697502.52406
  22575288.187 6 120593133.77006
  20374223.175 6 108988354.35906
  20274046.253 7 108566606.55207
 18 10 16 19  8 42.0000000  0 13G30G15G20G21R07R24R06G27G13R09R16R23
                                R08
  24978809.860 4
  20150770.593 9 105893012.22909  82514034.07107  20150769.115 7
  22584524.777 7 118682474.04007  92479854.55903  22584522.536 3
  21807925.287 6 114601419.71806  89299808.54103  21807923.392 3
  20204599.047 8 108156797.42408
  22854841.665 5 122215127.01105
  23616338.015 5 126021294.27105
  24926796.397 5 130991199.05205 102071077.50803  24926797.532 3
  21279986.923 8 111827088.40108  87137975.38505  21279985.719 5
  22040406.528 6 117694565.37906
  22575491.609 6 120594221.05706
  20374145.189 6 108987937.05806
  20273711.572 7 108564815.17607
 18 10 16 19  8 43.0000000  0 12G15G20G21R07R24R06G27G13R09R16R23R08
  20150669.718 9 105892482.26909  82513621.11407  20150668.262 7
  22583913.507 7 118679261.26607  92477351.10703  22583911.207 3
  21807641.692 6 114599929.33006  89298647.19503  21807639.717 3
  20204833.617 8 108158053.54708
  22854153.561 5 122211445.83205
  23616888.974 5 126024232.87405
  24926470.534 6 130989486.65906 102069743.17803  24926471.774 3
  21280329.466 8 111828888.18908  87139377.81605  21280328.218 5
  22039856.860 6 117691628.83106
  22575694.894 6 120595309.15906
  20374067.657 6 108987520.63906
  20273377.009 7
 18 10 16 19  8 44.0000000  0 12G15G20G21R07R24R06G27G13R09R16R23R08
  20150569.140 9 105891953.24409  82513208.88707  20150567.588 7
  22583302.238 7 118676049.01907  92474848.06003  22583299.994 3
  21807358.181 6 114598439.80906  89297486.53103  21807356.247 3
  20205068.498 8 108159310.37908
  22853465.623 5 122207765.58005
  23617440.207 5 126027171.88205
  24926144.728 5 130987775.26505 102068409.63303  24926146.200 3
  21280671.980 8 111830688.77208  87140780.86705  21280670.874 5
  22039306.943 6 117688693.31506
  22575898.695 6 120596398.48306
  20373990.024 6 108987105.53906
  20273042.879 7
 18 10 16 19  8 45.0000000  0 12G15G20G21R07R24R06G27G13R09R16R23R08
  20150468.644 9 105891424.81309  82512797.12307  20150467.030 7
  22582690.907 7 118672836.98807  92472345.17603  22582688.804 3
  21807074.808 6 114596950.78706  89296326.24803  21807073.024 3
  20205303.490 8 108160567.55008
  22852777.689 5 122204085.92805
  23617991.106 5 126030110.93805
  24925819.532 5 130986064.46905 102067076.55603  24925820.692 3
  21281014.796 8 111832489.81008  87142184.27105  21281013.629 5
  22038757.176 6 117685758.44306
  22576102.597 6 120597488.68506
  20373912.771 6 108986691.45806
  20272708.742 7
 18 10 16 19  8 45.0000000  4  1
ANTENNA;APSAPS-3L       NONE;0.094;0.082                    COMMENT             
 18 10 16 19  8 46.0000000  0 13G30G15G20G21R07R24R06G27G13R09R16R23
                                R08
  24980593.336 3
  20150368.181 9 105890896.71109  82512385.61607  20150366.526 7
  22582079.588 7 118669624.88307  92469842.24403  22582077.556 3
  21806791.456 6 114595462.05606  89295166.18703  21806789.787 3
  20205538.350 8 108161824.81808
  22852089.387 5 122200406.63305
  23618542.117 5 126033049.80405
  24925494.393 5 130984354.06505 102065743.78603  24925495.239 3
  21281357.618 8 111834291.05208  87143587.83605  21281356.423 5
  22038207.538 6 117682823.98606
  22576306.494 6 120598579.47606
  20373835.612 6 108986278.08406
  20272374.451 7
 18 10 16 19  8 47.0000000  0 13G30G15G20G21R07R24R06G27G13R09R16R23
                                R08
  24981036.246 3
  20150267.950 9 105890369.69809  82511974.95907  20150266.219 7
  22581468.437 7 118666413.45807  92467339.83803  22581466.428 3
  21806508.326 6 114593974.32006  89294006.92103  21806506.711 3
  20205773.489 8 108163082.97608
  22851401.402 5 122196728.47805
  23619093.027 5 126035989.22205
  24925168.828 5 130982644.74905 102064411.83303  24925169.960 3
  21281700.660 8 111836093.24208  87144992.14105  21281699.392 5
  22037658.164 6 117679890.69506
  22576511.144 6 120599671.65406
  20373758.672 6 108985866.23006
  20272040.454 7 108555865.14907
 18 10 16 19  8 48.0000000  0 12G15G20G21R07R24R06G27G13R09R16R23R08
  20150167.870 9 105889843.67809  82511565.07107  20150166.108 7
  22580857.220 7 118663202.63507  92464837.89903  22580855.426 3
  21806225.482 6 114592487.52206  89292848.38003  21806223.827 3
  20206008.637 8 108164341.90308
  22850713.970 5 122193051.38605
  23619644.014 5 126038929.17405
  24924843.165 5 130980936.53905 102063080.75103  24924844.882 3
  21282043.848 8 111837896.29008  87146397.11405  21282042.513 5
  22037108.847 6 117676958.50406
  22576715.620 6 120600765.12406
  20373682.015 6 108985455.77406
  20271706.491 7 108554077.05407
 18 10 16 19  8 49.0000000  0 12G15G20G21R07R24R06G27G13R09R16R23R08
  20150067.788 9 105889317.75109  82511155.26007  20150066.020 7
  22580246.095 7 118659991.49807  92462335.71403  22580244.392 3
  21805942.497 6 114591000.70406  89291689.81703  21805940.868 3
  20206243.852 8 108165600.65208
  22850026.857 5 122189374.35905
  23620195.059 5 126041868.59605
  24924518.146 5 130979228.39205 102061749.69703  24924519.799 3
  21282387.012 8 111839699.28108  87147802.04105  21282385.621 5
  22036559.604 6 117674026.46306
  22576920.102 6 120601858.97306
  20373605.252 6 108985045.77806
  20271372.528 7 108552288.84107
 18 10 16 19  8 50.0000000  0 13G30G15G20G21R07R24R06G27G13R09R16R23
                                R08
  24982378.099 3
  20149967.791 9 105888792.38309  82510745.88207  20149966.035 7
  22579634.896 7 118656780.53907  92459833.67503  22579633.376 3
  21805659.825 6 114589514.39406  89290531.67003  21805658.006 3
  20206479.067 8 108166859.70608
  22849339.882 5 122185697.96605
  23620745.593 5 126044808.06305
  24924193.158 5 130977520.84505 102060419.14102  24924194.860 2
  21282730.200 8 111841502.71108  87149207.31305  21282728.822 5
  22036010.446 6 117671095.05406
  22577124.991 6 120602953.68506
  20373528.689 6 108984636.74606
  20271038.713 7 108550501.00607
 18 10 16 19  8 51.0000000  0 13G30G15G20G21R07R24R06G27G13R09R16R23
                                R08
  24982820.669 3
  20149867.957 9 105888267.91909  82510337.20907  20149866.219 7
  22579023.978 7 118653570.06707  92457332.00903  22579022.400 3
  21805377.137 6 114588028.90806  89289374.14103  21805375.324 3
  20206714.373 8 108168119.42508
  22848652.695 5 122182022.47205
  23621295.974 5 126047747.79205
  24923868.411 5 130975814.24705 102059089.33402  24923870.130 2
  21283073.524 8 111843306.89108  87150613.16705  21283072.135 5
  22035462.090 6 117668164.63406
  22577330.626 6 120604049.52506
  20373452.077 6 108984229.01506
  20270704.932 7 108548713.87007
 18 10 16 19  8 52.0000000  0 12G15G20G21R07R24R06G27G13R09R16R23R08
  20149768.186 9 105887743.84709  82509928.83807  20149766.479 7
  22578413.055 7 118650359.59707  92454830.34403  22578411.465 3
  21805094.572 6 114586543.73006  89288216.86103  21805092.672 3
  20206949.658 8 108169379.29208
  22847965.432 5 122178347.37305
  23621846.115 5 126050687.47205
  24923544.208 5 130974108.07805 102057759.85102  24923545.464 2
  21283416.860 8 111845111.34208  87152019.23105  21283415.511 5
  22034913.474 6 117665234.72006
  22577536.224 6 120605146.03706
  20373375.900 6 108983822.09406
  20270371.217 7 108546926.93907
 18 10 16 19  8 53.0000000  0 13G30G15G20G21R07R24R06G27G13R09R16R23
                                R08
  24983702.249 3
  20149668.554 9 105887220.27409  82509520.86107  20149666.843 7
  22577802.116 7 118647149.23207  92452328.75603  22577800.552 3
  21804812.091 6 114585058.98306  89287059.92203  21804810.084 3
  20207184.940 8 108170639.43108
  22847278.830 5 122174672.78205
  23622396.866 5 126053627.06805
  24923219.989 5 130972402.38305 102056430.74602  24923220.922 2
  21283760.321 8 111846916.14608  87153425.57105  21283758.945 5
  22034365.581 6 117662305.35506
  22577742.064 6 120606243.35106
  20373300.084 6
  20270037.575 7 108545140.30307
 18 10 16 19  8 54.0000000  0 13G30G15G20G21R07R24R06G27G13R09R16R23
                                R08
  24984151.884 4
  20149568.992 9 105886697.33509  82509113.37607  20149567.322 7
  22577191.424 7 118643939.10207  92449827.35403  22577189.693 3
  21804529.597 6 114583574.80106  89285903.42103  21804527.678 3
  20207420.344 8 108171899.98908
  22846591.668 5 122170998.82205
  23622947.820 5 126056566.80705
  24922895.870 5 130970697.41705 102055102.19602  24922896.506 2
  21284103.822 8 111848721.45708  87154832.30705  21284102.469 5
  22033817.332 6 117659376.68206
  22577947.919 6 120607341.63506
  20373224.447 6
  20269703.994 7 108543354.10507
 18 10 16 19  8 55.0000000  0 13G30G15G20G21R07R24R06G27G13R09R16R23
                                R08
  24984594.861 4
  20149469.593 9 105886175.16809  82508706.49207  20149467.949 7
  22576580.647 7 118640729.35307  92447326.25003  22576578.932 3
  21804247.262 6 114582091.29406  89284747.44203  21804245.385 3
  20207655.827 8
  22845905.349 5 122167325.71805
  23623498.580 5 126059506.74905
  24922571.260 5 130968993.25605 102053774.27102  24922572.246 2
  21284447.544 8 111850527.37508  87156239.51405  21284446.109 5
  22033269.560 6 117656448.90006
  22578153.914 6 120608440.97506
  20373149.023 6
  20269370.525 7 108541568.45907
 18 10 16 19  8 56.0000000  0 13G30G15G20G21R07R24R06G27G13R09R16R23
                                R08
  24985035.200 3
  20149370.376 9 105885653.59609  82508300.07307  20149368.693 7
  22575970.053 7 118637519.78007  92444825.28603  22575968.144 3
  21803965.122 6 114580608.34206  89283591.89503  21803963.190 3
  20207891.551 8
  22845218.457 5 122163653.24105
  23624050.291 5 126062446.76705
  24922247.360 5 130967289.71605 102052446.84102  24922248.161 2
  21284791.300 8 111852333.77308  87157647.09905  21284789.842 5
  22032721.741 6 117653521.78706
  22578359.636 6 120609541.19906
  20373073.939 6
  20269037.245 7 108539783.23807
 18 10 16 19  8 57.0000000  0 13G30G15G20G21R07R24R06G27G13R09R16R23
                                R08
  24985486.865 4
  20149271.287 9 105885132.46109  82507893.99307  20149269.526 7
  22575359.319 7 118634310.26207  92442324.36303  22575357.396 3
  21803683.008 6 114579125.74206  89282436.62303  21803681.088 3
  20208127.258 8 108175684.14208
  22844532.351 5 122159981.22705
  23624601.907 5 126065386.69205
  24921923.359 5 130965586.62405 102051119.75202  24921924.147 2
  21285135.091 8 111854140.45608  87159054.90505  21285133.625 5
  22032173.928 6 117650595.20306
  22578565.561 6 120610642.11506
  20372999.105 7 108981802.52707
  20268703.633 7 108537998.27807
 18 10 16 19  8 58.0000000  0 13G30G15G20G21R07R24R06G27G13R09R16R23
                                R08
  24985933.866 3
  20149172.159 9 105884611.45609  82507488.01607  20149170.372 7
  22574748.362 7 118631100.46307  92439823.22403  22574746.599 3
  21803400.911 6 114577643.19006  89281281.37803  21803398.960 3
  20208362.833 8 108176945.64808
  22843846.152 5 122156309.36005
  23625153.228 5 126068326.20705
  24921599.252 5 130963883.74405 102049792.83902  24921600.098 2
  21285478.943 8 111855947.13608  87160462.70505  21285477.412 5
  22031626.109 6 117647668.79706
  22578771.700 6 120611743.44606
  20372924.092 6 108981401.07806
  20268370.200 7 108536213.24907
 18 10 16 19  8 59.0000000  0 12G15G20G21R07R24R06G27G13R09R16R23R08
  20149073.073 9 105884090.67409  82507082.21207  20149071.258 7
  22574137.588 7 118627890.49807  92437321.95503  22574135.726 3
  21803118.811 6 114576160.79306  89280126.25903  21803116.877 3
  20208598.553 8 108178207.15008
  22843158.878 5 122152637.76305
  23625704.665 5 126071265.39105
  24921275.351 5 130962181.11205 102048466.10402  24921276.089 2
  21285822.858 8 111857753.90708  87161870.57705  21285821.253 5
  22031078.480 6 117644742.67906
  22578978.203 6 120612845.26206
  20372849.191 7 108981000.22207
  20268036.884 7 108534428.26307
 18 10 16 19  9  0.0000000  0 12G15G20G21R07R24R06G27G13R09R16R23R08
  20148974.031 9 105883570.38609  82506676.79307  20148972.234 7
  22573526.655 7 118624680.63207  92434820.75403  22573524.916 3
  21802836.758 6 114574678.79106  89278971.45503  21802834.847 3
  20208834.239 8 108179468.89908
  22842472.105 5 122148966.59605
  23626256.029 5 126074204.57905
  24920951.542 5 130960478.97705 102047139.76802  24920952.160 2
  21286166.719 8 111859561.02708  87163278.72505  21286165.130 5
  22030530.887 7 117641817.15107
  22579184.483 6 120613947.82606
  20372774.562 6 108980600.26906
  20267703.585 7 108532643.55707
 18 10 16 19  9  1.0000000  0 13G30G15G20G21R07R24R06G27G13R09R16R23
                                R08
  24987281.108 3
  20148875.195 9 105883050.76209  82506271.89207  20148873.335 7
  22572915.888 7 118621471.03407  92432319.77603  22572914.146 3
  21802554.705 6 114573197.41006  89277817.14803  21802552.858 3
  20209069.822 8 108180731.06508
  22841784.065 5 122145296.14605
  23626806.665 5 126077143.86305
  24920628.466 5 130958777.56605 102045813.99102  24920628.356 2
  21286510.696 8 111861368.66808  87164687.27605  21286509.110 5
  22029983.458 6 117638892.35306
  22579391.400 6 120615051.35406
  20372699.833 6 108980201.37406
  20267370.380 7 108530859.32707
 18 10 16 19  9  2.0000000  0 13G30G15G20G21R07R24R06G27G13R09R16R23
                                R08
  24987725.136 3
  20148776.332 9 105882531.16709  82505867.01307  20148774.445 7
  22572305.189 7 118618261.08107  92429818.50903  22572303.318 3
  21802272.841 6 114571715.99406  89276662.79603  21802270.944 3
  20209305.636 8 108181993.04108
  22841097.694 5 122141625.72705
  23627357.107 5 126080082.63405
  24920304.125 5 130957076.23505 102044488.28402  24920304.584 2
  21286854.660 8 111863176.22508  87166095.76205  21286853.071 5
  22029435.809 7 117635967.66707
  22579598.319 6 120616155.22906
  20372625.328 7 108979802.91807
  20267037.152 7 108529074.91407
 18 10 16 19  9  3.0000000  0 13G30G15G20G21R07R24R06G27G13R09R16R23
                                R08
  24988168.814 3
  20148677.559 9 105882012.27609  82505462.68407  20148675.690 7
  22571694.357 7 118615051.42007  92427317.47203  22571692.553 3
  21801990.949 6 114570235.20906  89275508.93103  21801989.165 3
  20209541.397 8 108183255.45408
  22840411.818 5 122137956.00105
  23627907.877 5 126083021.59205
  24919980.435 5 130955375.62605 102043163.14302  24919980.968 2
  21287198.747 8 111864984.33508  87167504.67905  21287197.149 5
  22028888.123 7 117633043.77107
  22579805.368 6 120617260.08806
  20372551.027 6 108979405.52706
  20266704.198 7 108527291.01707
 18 10 16 19  9  4.0000000  0 13G30G15G20G21R07R24R06G27G13R09R16R23
                                R08
  24988612.636 4
  20148578.995 9 105881494.18309  82505058.97507  20148577.086 7
  22571083.468 7 118611842.15407  92424816.74203  22571081.805 3
  21801709.356 6 114568755.14206  89274355.62303  21801707.453 3
  20209777.283 8 108184518.42808
  22839726.057 5 122134287.17505
  23628457.922 5 126085960.83905
  24919657.067 5 130953675.87305 102041838.65102  24919657.540 2
  21287542.960 8 111866793.10708  87168914.10906  21287541.339 6
  22028340.425 7 117630120.76307
  22580012.156 6 120618366.04006
  20372476.962 6 108979009.36606
  20266371.297 7 108525507.72807
 18 10 16 19  9  5.0000000  0 13G30G15G20G21R07R24R06G27G13R09R16R23
                                R08
  24989055.975 4
  20148480.475 9 105880976.36609  82504655.47907  20148478.536 7
  22570472.725 7 118608632.79007  92422315.94403  22570471.102 3
  21801427.753 6 114567275.25606  89273202.47003  21801425.803 3
  20210013.102 8
  22839041.384 5 122130618.63705
  23629008.110 5 126088899.81405
  24919333.540 5 130951976.42405 102040514.39302  24919334.152 2
  21287887.203 8 111868602.01708  87170323.64705  21287885.564 5
  22027792.822 7 117627198.10007
  22580219.090 6 120619472.55706
  20372402.821 6 108978613.88606
  20266038.231 7 108523724.51107
 18 10 16 19  9  6.0000000  0 13G30G15G20G21R07R24R06G27G13R09R16R23
                                R08
  24989500.151 3
  20148382.092 9 105880459.22209  82504252.51007  20148380.111 7
  22569862.043 7 118605423.72707  92419815.37803  22569860.453 3
  21801146.413 6 114565795.99606  89272049.80203  21801144.279 3
  20210248.995 8
  22838355.426 5 122126950.84705
  23629558.864 5 126091838.86805
  24919010.482 5 130950277.66905 102039190.68802  24919010.903 2
  21288231.518 8 111870411.46708  87171733.60805  21288229.911 5
  22027245.329 7 117624276.22207
  22580426.551 6 120620580.00706
  20372328.821 7 108978219.48007
  20265705.202 7 108521941.76507
 18 10 16 19  9  7.0000000  0 13G30G15G20G21R07R24R06G27G13R09R16R23
                                R08
  24989945.108 3
  20148283.745 9 105879942.76309  82503850.07607  20148281.816 7
  22569251.626 7 118602214.93107  92417315.01703  22569249.768 3
  21800865.048 6 114564317.34606  89270897.60203  21800862.844 3
  20210485.148 8
  22837670.398 5 122123283.75705
  23630109.631 5 126094778.15405
  24918687.177 5 130948579.63105 102037867.55002  24918687.806 2
  21288575.973 8 111872221.46108  87173143.99305  21288574.342 5
  22026698.452 7 117621355.07507
  22580633.922 6 120621688.43506
  20372255.692 6 108977826.16106
  20265372.432 7 108520159.53107
 18 10 16 19  9  8.0000000  0 13G30G15G20G21R07R24R06G27G13R09R16R23
                                R08
  24990390.715 3
  20148185.473 9 105879426.67509  82503447.92907  20148183.592 7
  22568641.148 7 118599006.09907  92414814.63203  22568639.078 3
  21800583.613 6 114562838.97806  89269745.62903  21800581.458 3
  20210721.099 8
  22836985.347 6 122119617.02406
  23630660.960 5 126097717.21205
  24918364.420 5 130946882.03805 102036544.76402  24918364.745 2
  21288920.528 8 111874031.68408  87174554.55605  21288918.800 5
  22026151.517 7 117618434.41007
  22580841.825 6 120622797.49406
  20372182.409 7 108977433.64907
  20265039.554 7 108518377.42407
 18 10 16 19  9  9.0000000  0 13G30G15G20G21R07R24R06G27G13R09R16R23
                                R08
  24990840.470 3
  20148087.325 9 105878911.09009  82503046.17507  20148085.480 7
  22568030.650 7 118595797.39807  92412314.34803  22568028.407 3
  21800302.314 6 114561361.05506  89268594.00103  21800300.166 3
  20210957.286 8 108190837.12108
  22836300.226 5 122115950.82105
  23631211.505 5 126100656.25705
  24918041.729 5 130945184.93705 102035222.34002  24918041.786 2
  21289265.052 8 111875842.26508  87175965.39705  21289263.338 5
  22025604.868 7 117615514.33707
  22581049.273 6 120623907.32106
  20372109.334 7 108977042.01507
  20264706.908 7 108516595.65107
 18 10 16 19  9 10.0000000  0 12G15G20G21R07R24R06G27G13R09R16R23R08
  20147989.341 9 105878396.40709  82502645.12407  20147987.534 7
  22567420.189 7 118592589.18707  92409814.44203  22567417.820 3
  21800021.438 6 114559883.95606  89267443.01503  21800019.098 3
  20211193.412 8 108192102.07208
  22835614.050 6 122112285.57106
  23631762.108 5 126103595.68605
  24917718.928 5 130943488.79705 102033900.66702  24917719.047 2
  21289609.661 8 111877653.61908  87177376.84205  21289608.029 5
  22025058.411 7 117612595.24507
  22581257.131 6 120625018.37906
  20372036.578 7 108976651.68907
  20264374.392 7 108514814.57907
 18 10 16 19  9 11.0000000  0 12G15G20G21R07R24R06G27G13R09R16R23R08
  20147891.451 9 105877881.98809  82502244.27807  20147889.637 7
  22566809.777 7 118589380.82907  92407314.42003  22566807.256 3
  21799740.435 6 114558407.03206  89266292.16403  21799738.092 3
  20211429.760 8 108193367.03508
  22834928.325 5 122108620.61905
  23632312.545 5 126106534.78905
  24917396.266 5 130941792.93705 102032579.20702  24917396.348 2
  21289954.312 8 111879465.08808  87178788.37605  21289952.733 5
  22024511.896 7 117609676.44507
  22581465.036 6 120626129.96606
  20371963.817 7 108976262.03407
  20264042.032 7 108513033.56207
 18 10 16 19  9 12.0000000  0 12G15G20G21R07R24R06G27G13R09R16R23R08
  20147793.629 8 105877367.81208  82501843.62307  20147791.797 7
  22566199.203 7 118586172.32507  92404814.28203  22566196.674 3
  21799459.406 6 114556930.29906  89265141.45303  21799457.131 3
  20211666.003 8 108194632.01608
  22834242.601 5 122104955.93405
  23632862.895 5 126109473.59305
  24917073.325 5 130940097.37905 102031258.00202  24917073.684 2
  21290298.909 8 111881276.66808  87180199.99705  21290297.450 5
  22023965.582 7 117606757.97707
  22581672.913 6 120627242.08506
  20371891.233 6 108975872.99906
  20263709.255 7 108511252.57307
 18 10 16 19  9 13.0000000  0 12G15G20G21R07R24R06G27G13R09R16R23R08
  20147695.855 8 105876853.87608  82501443.15107  20147693.994 7
  22565588.513 7 118582963.67907  92402314.03403  22565586.078 3
  21799178.271 6 114555453.74506  89263990.89903  21799176.125 3
  20211902.323 8 108195897.02308
  22833557.027 5 122101291.49005
  23633413.155 5 126112412.11405
  24916750.118 5 130938402.08105 102029936.98802  24916751.057 2
  21290643.616 8 111883088.35608  87181611.70106  21290642.186 6
  22023419.150 7 117603839.86207
  22581881.425 6 120628354.74206
  20371818.600 6 108975484.60306
  20263376.734 7 108509471.63507
 18 10 16 19  9 14.0000000  0 12G15G20G21R07R24R06G27G13R09R16R23R08
  20147598.219 8 105876340.43108  82501043.06407  20147596.276 7
  22564977.892 7 118579755.10607  92399813.84303  22564975.456 3
  21798897.368 6 114553977.58506  89262840.65003  21798895.129 3
  20212138.640 8 108197162.27408
  22832871.293 5 122097627.60605
  23633964.393 5 126115350.58105
  24916427.520 5 130936707.34705 102028616.41802  24916428.510 2
  21290988.494 8 111884900.39908  87183023.68006  21290986.992 6
  22022872.753 7 117600922.31107
  22582089.806 6 120629468.12606
  20371746.190 7 108975097.10207
  20263044.146 7 108507691.03007
 18 10 16 19  9 15.0000000  0 12G15G20G21R07R24R06G27G13R09R16R23R08
  20147500.582 8 105875827.56108  82500643.42507  20147498.683 7
  22564367.283 7 118576546.73007  92397313.81603  22564364.918 3
  21798616.573 6 114552501.95006  89261690.80403  21798614.320 3
  20212375.250 8 108198427.83708
  22832186.081 5 122093964.30305
  23634515.182 5 126118289.10505
  24916105.082 5 130935013.22805 102027296.32902  24916106.119 2
  21291333.530 8 111886712.86108  87184435.98706  21291331.893 6
  22022326.866 7 117598005.39407
  22582298.331 6 120630582.37906
  20371674.289 7 108974710.55707
  20262711.544 7 108505910.80007
 18 10 16 19  9 16.0000000  0 12G15G20G21R07R24R06G27G13R09R16R23R08
  20147403.060 8 105875315.07408  82500244.08407  20147401.170 7
  22563756.735 7 118573338.32007  92394813.76203  22563754.425 3
  21798335.738 6 114551026.61806  89260541.18203  21798333.609 3
  20212611.720 8 108199693.53808
  22831501.377 6 122090301.40006
  23635066.524 5 126121227.46305
  24915782.909 5 130933319.46205 102025976.50502  24915783.827 2
  21291678.528 8 111888525.58208  87185848.49806  21291676.847 6
  22021780.667 7 117595088.96007
  22582506.923 6 120631697.31306
  20371602.402 7 108974324.82107
  20262379.188 7 108504130.78107
 18 10 16 19  9 17.0000000  0 13G30G15G20G21R07R24R06G27G13R09R16R23
                                R08
  24994383.136 3
  20147305.666 8 105874803.28408  82499845.28607  20147303.791 7
  22563146.257 7 118570130.21607  92392313.94303  22563143.946 3
  21798055.059 6 114549551.91506  89259392.06803  21798052.952 3
  20212848.374 8 108200959.69508
  22830816.927 6 122086639.20506
  23635618.225 5 126124166.01105
  24915460.700 5 130931626.52305 102024657.34102  24915461.669 2
  21292023.678 8 111890338.86308  87187261.44406  21292021.891 6
  22021234.905 7 117592173.31807
  22582715.526 6 120632813.20106
  20371530.511 6 108973940.16806
  20262046.787 7 108502351.23807
 18 10 16 19  9 18.0000000  0 13G30G15G20G21R07R24R06G27G13R09R16R23
                                R08
  24994830.548 4
  20147208.372 9 105874292.16409  82499447.01007  20147206.543 7
  22562535.868 7 118566922.39407  92389814.34203  22562533.498 3
  21797774.568 6 114548077.81206  89258243.41403  21797772.371 3
  20213085.130 8 108202226.30808
  22830132.127 6 122082977.72406
  23636169.281 5 126127104.65505
  24915138.334 5 130929934.21305 102023338.65302  24915139.632 2
  21292368.905 8 111892152.67108  87188674.80106  21292367.051 6
  22020689.126 7 117589258.41907
  22582924.838 6 120633930.08406
  20371459.001 6 108973556.62606
  20261714.353 7 108500572.14207
 18 10 16 19  9 19.0000000  0 12G15G20G21R07R24R06G27G13R09R16R23R08
  20147111.280 8 105873781.72308  82499049.26107  20147109.423 7
  22561925.501 7 118563714.83107  92387314.93903  22561923.122 3
  21797494.432 6 114546604.29206  89257095.21703  21797491.960 3
  20213321.796 8 108203493.36708
  22829447.060 6 122079316.93506
  23636719.448 5 126130043.48305
  24914816.363 5 130928242.66405 102022020.58002  24914817.796 2
  21292714.130 8 111893967.00408  87190088.56706  21292712.292 6
  22020143.412 7 117586344.27407
  22583134.003 6 120635047.91206
  20371387.564 6 108973174.13806
  20261382.070 7 108498793.53107
 18 10 16 19  9 20.0000000  0 12G15G20G21R07R24R06G27G13R09R16R23R08
  20147014.198 8 105873271.67508  82498651.82207  20147012.371 7
  22561315.235 7 118560507.28807  92384815.55403  22561312.741 3
  21797214.219 6 114545131.10906  89255947.28803  21797211.612 3
  20213558.468 8 108204760.60208
  22828762.531 5 122075656.56505
  23637270.264 5 126132982.21605
  24914494.323 5 130926551.51405 102020702.80102  24914496.004 2
  21293059.441 8 111895781.60708  87191502.54206  21293057.608 6
  22019597.676 7 117583430.60907
  22583343.641 6 120636166.40406
  20371316.235 6 108972792.44306
  20261050.128 7 108497015.10107
 18 10 16 19  9 21.0000000  0 12G15G20G21R07R24R06G27G13R09R16R23R08
  20146917.116 8 105872761.72308  82498254.45607  20146915.333 7
  22560704.730 7 118557299.43407  92382315.92403  22560702.306 3
  21796934.286 6 114543657.96006  89254799.37903  21796931.268 3
  20213795.096 8 108206027.67008
  22828077.467 5 122071996.34605
  23637820.735 5 126135920.44405
  24914172.590 5 130924860.48105 102019385.10402  24914174.177 2
  21293404.779 8 111897596.15908  87192916.47906  21293402.912 6
  22019052.086 7 117580517.14207
  22583553.065 6 120637285.27506
  20371244.937 6 108972411.24906
  20260717.974 7 108495236.60007
 18 10 16 19  9 22.0000000  0 12G15G20G21R07R24R06G27G13R09R16R23R08
  20146820.314 8 105872252.58408  82497857.72607  20146818.446 7
  22560094.424 7 118554091.98907  92379816.61003  22560091.952 3
  21796654.039 6 114542185.55106  89253652.03403  21796651.081 3
  20214031.788 8 108207295.27808
  22827393.686 5 122068336.93505
  23638371.674 5 126138858.95705
  24913850.886 5 130923170.33705 102018068.11802  24913852.587 2
  21293750.184 8 111899411.40008  87194330.95006  21293748.322 6
  22018506.765 7 117577604.54307
  22583762.670 6 120638405.23306
  20371173.793 6 108972031.26606
  20260386.190 7 108493458.72807
 18 10 16 19  9 23.0000000  0 12G15G20G21R07R24R06G27G13R09R16R23R08
  20146723.431 8 105871743.48808  82497461.02707  20146721.559 7
  22559484.018 7 118550884.20007  92377317.03503  22559481.535 3
  21796373.725 6 114540713.07906  89252504.65103  21796370.884 3
  20214268.385 8 108208562.66508
  22826709.365 5 122064677.61105
  23638922.255 5 126141797.01005
  24913529.311 5 130921480.24405 102016751.16202  24913530.983 2
  21294095.541 8 111901226.53708  87195745.34306  21294093.724 6
  22017961.310 7 117574692.05107
  22583972.535 6 120639525.53906
  20371102.422 6 108971651.73106
  20260054.503 7 108491680.73507
 18 10 16 19  9 24.0000000  0 12G15G20G21R07R24R06G27G13R09R16R23R08
  20146626.707 8 105871235.42808  82497065.13807  20146624.883 7
  22558873.805 7 118547677.05107  92374817.96203  22558871.217 3
  21796093.747 6 114539241.60506  89251358.06003  21796090.862 3
  20214505.181 8 108209830.86908
  22826025.646 5 122061019.34705
  23639473.742 5 126144735.47105
  24913207.956 5 130919791.27005 102015435.07402  24913209.603 2
  21294441.056 8 111903042.57108  87197160.43505  21294439.291 5
  22017416.017 7 117571780.70607
  22584182.940 6 120640647.15006
  20371031.679 6 108971273.62806
  20259722.871 7 108489903.56307
 18 10 16 19  9 25.0000000  0 12G15G20G21R07R24R06G27G13R09R16R23R08
  20146530.212 8 105870728.09808  82496669.81607  20146528.345 7
  22558263.528 7 118544470.22907  92372319.13903  22558260.983 3
  21795813.533 6 114537770.77306  89250211.95102  21795810.966 2
  20214742.246 8 108211099.59008
  22825341.783 5 122057361.83405
  23640024.217 5 126147674.21905
  24912886.418 5 130918103.03505 102014119.58502  24912888.362 2
  21294786.829 8 111904859.19008  87198575.98105  21294784.965 5
  22016870.824 7 117568870.18307
  22584392.765 6 120641769.79206
  20370961.182 6 108970896.65006
  20259391.336 7 108488126.91607
 18 10 16 19  9 26.0000000  0  6G30G15G20G21G27G13
  24998430.017 4
  20146433.671 8 105870220.98608  82496274.66607  20146431.843 7
  22557653.185 7 118541263.23807  92369820.18403  22557650.746 3
  21795533.523 6 114536300.08806  89249065.95402  21795531.078 2
  24912564.779 5 130916415.05405 102012804.27502  24912567.103 2
  21295132.519 8 111906675.88808  87199991.59105  21295130.666 5
 18 10 16 19  9 27.0000000  0  9G30G15G20G21R07G27G13R09R08
  24998877.452 4
  20146337.269 8 105869714.31508  82495879.85807  20146335.435 7
  22557042.885 7 118538056.30607  92367321.27503  22557040.503 3
  21795253.741 6 114534829.78106  89247920.26102  21795251.262 2
  20215215.378 8
  24912243.674 6 130914727.56506 102011489.33902  24912245.951 2
  21295478.203 8 111908492.89008  87201407.43505  21295476.425 5
  22015778.274 7
  20258729.484 7
 18 10 16 19  9 28.0000000  0 10G30G15G20G21R07G27G13R16R09R08
  24999325.473 4
  20146240.947 8 105869208.07708  82495485.38507  20146239.107 7
  22556432.585 7 118534849.36707  92364822.36403  22556430.234 3
  21794973.997 6 114533359.82606  89246774.84002  21794971.548 2
  20215452.472 8
  24911922.750 5 130913040.52605 102010174.75402  24911924.879 2
  21295823.981 8 111910310.18408  87202823.50905  21295822.229 5
  22585023.055 6
  22015234.288 7
  20258396.907 7
 18 10 16 19  9 29.0000000  0 12G30G15G20G21R07R24G27G13R06R16R09R08
  24999773.158 5
  20146144.704 8 105868702.64208  82495091.54107  20146142.922 7
  22555822.274 7 118531642.86607  92362323.79203  22555820.036 3
  21794694.412 6 114531890.61306  89245630.01302  21794692.018 2
  20215689.683 8 108216169.99618
  22822605.792 6 122042726.02816
  24911602.281 5 130911354.31305 102008860.83302  24911603.951 2
  21296169.835 8 111912128.13908  87204240.09705  21296168.154 5
  23642221.518 5 126159427.53215
  22585234.366 6 120646261.98416
  22014689.904 7 117557204.79017
  20258065.010 7 108481026.13517
 18 10 16 19  9 30.0000000  0 13G30G15G20G21R07R24G27G13R06R16R09R08
                                R23
  25000221.416 4
  20146048.642 8 105868197.79208  82494698.15107  20146046.850 7
  22555212.029 7 118528436.53907  92359825.35503  22555209.924 3
  21794414.589 6 114530421.88306  89244485.53602  21794412.510 2
  20215927.086 8 108217439.97708
  22821922.452 5 122039071.12805
  24911282.005 5 130909668.76805 102007547.41402  24911283.206 2
  21296515.796 8 111913946.53608  87205657.02905  21296514.168 5
  23642772.163 5 126162366.01005
  22585445.623 6 120647388.46406
  22014145.564 7 117554297.17207
  20257733.104 7 108479251.02007
  20370610.669 6 108969020.15016
 18 10 16 19  9 31.0000000  0 13G30G15G20G21R07R24G27G13R06R16R09R08
                                R23
  25000668.824 4
  20145952.679 8 105867693.27608  82494305.02206  20145950.848 6
  22554601.884 7 118525230.15307  92357326.87703  22554599.816 3
  21794135.098 6 114528953.44406  89243341.30302  21794133.021 2
  20216165.465 8 108218710.03408
  22821238.701 5 122035416.56205
  24910961.407 5 130907983.55805 102006234.28102  24910962.568 2
  21296861.829 8 111915765.11808  87207074.10605  21296860.232 5
  23643323.702 5 126165304.29205
  22585656.965 6 120648515.57606
  22013601.327 7 117551389.94207
  20257401.484 7 108477476.05007
  20370541.515 6 108968648.40706
 18 10 16 19  9 32.0000000  0 13G30G15G20G21R07R24G27G13R06R16R09R08
                                R23
  25001115.987 4
  20145856.749 8 105867189.21908  82493912.25006  20145854.937 6
  22553991.736 7 118522023.83507  92354828.44303  22553989.748 3
  21793855.912 6 114527485.37306  89242197.33702  21793853.616 2
  20216402.842 8 108219980.35008
  22820555.495 5 122031762.52205
  24910640.544 6 130906298.85006 102004921.53202  24910642.033 2
  21297208.058 8 111917584.03108  87208491.44205  21297206.353 5
  23643875.057 5 126168242.54405
  22585867.460 6 120649643.45306
  22013057.134 7 117548483.27607
  20257069.739 7 108475701.31907
  20370472.205 6 108968277.53706
 18 10 16 19  9 33.0000000  0 13G30G15G20G21R07R24G27G13R06R16R09R08
                                R23
  25001562.648 4
  20145760.944 8 105866685.71908  82493519.91206  20145759.132 6
  22553381.753 7 118518817.67507  92352330.13803  22553379.644 3
  21793576.781 6 114526017.81206  89241053.78602  21793574.363 2
  20216640.224 8 108221250.96608
  22819872.083 5 122028108.98305
  24910319.796 6 130904614.75506 102003609.24502  24910321.534 2
  21297554.269 8 111919403.35608  87209909.09905  21297552.537 5
  23644425.985 5 126171180.76905
  22586078.742 6 120650772.16406
  22012513.030 7 117545577.25707
  20256738.405 7 108473926.93007
  20370402.971 6 108967907.60206
 18 10 16 19  9 34.0000000  0 13G30G15G20G21R07R24G27G13R06R16R09R08
                                R23
  25002007.588 4
  20145665.176 8 105866182.54308  82493127.82807  20145663.381 7
  22552771.884 7 118515611.44707  92349831.78403  22552769.522 3
  21793297.819 6 114524550.49306  89239910.42903  21793295.159 3
  20216877.614 8 108222521.66008
  22819188.974 5 122024455.85605
  24909999.503 6 130902931.01706 102002297.25202  24910001.102 2
  21297900.572 8 111921222.86908  87211326.90105  21297898.753 5
  23644977.626 5 126174118.84005
  22586290.407 6 120651901.49406
  22011969.160 7 117542671.65107
  20256407.119 7 108472152.68007
  20370334.273 6 108967538.40906
 18 10 16 19  9 35.0000000  0 13G30G15G20G21R07R24G27G13R06R16R09R08
                                R23
  25002454.866 4
  20145569.526 8 105865679.98008  82492736.22107  20145567.742 7
  22552161.780 7 118512405.43207  92347333.59903  22552159.432 3
  21793018.682 6 114523083.71106  89238767.48003  21793015.991 3
  20217115.120 8 108223792.72808
  22818506.579 5 122020803.38205
  24909679.367 6 130901247.94106 102000985.76302  24909680.827 2
  21298246.972 8 111923042.85708  87212745.07405  21298245.035 5
  23645527.670 5 126177056.94805
  22586501.586 6 120653031.70506
  22011425.451 7 117539766.67207
  20256076.005 7 108470378.83307
  20370265.332 6 108967170.19406
 18 10 16 19  9 36.0000000  0 13G30G15G20G21R07R24G27G13R06R16R09R08
                                R23
  25002900.298 4
  20145473.993 8 105865177.73308  82492344.86007  20145472.157 7
  22551551.614 7 118509199.34607  92344835.34903  22551549.351 3
  21792739.695 6 114521617.18906  89237624.73603  21792736.873 3
  20217352.632 8 108225063.86408
  22817823.901 5 122017151.29205
  24909359.180 6 130899565.18906 101999674.51502  24909360.632 2
  21298593.382 8 111924863.02808  87214163.38805  21298591.358 5
  23646077.985 5 126179994.83905
  22586713.192 6 120654162.52406
  22010881.793 7 117536862.17207
  20255744.754 7 108468605.12207
  20370196.773 6 108966802.72706
 18 10 16 19  9 37.0000000  0 12G15G20G21R07R24G27G13R06R16R09R08R23
  20145378.578 8 105864676.42208  82491954.23207  20145376.755 7
  22550941.589 7 118505993.77407  92342337.49703  22550939.372 3
  21792460.771 6 114520151.50906  89236482.66203  21792457.924 3
  20217590.225 8 108226335.71908
  22817141.150 5 122013500.14605
  24909039.341 6 130897883.43606 101998364.05702  24909040.638 2
  21298939.879 8 111926683.97208  87215582.30605  21298937.832 5
  23646629.374 5 126182933.07205
  22586925.032 6 120655294.52306
  22010338.284 7 117533958.66007
  20255413.466 7 108466832.13307
  20370128.490 6 108966436.56006
 18 10 16 19  9 38.0000000  0 12G15G20G21R07R24G27G13R06R16R09R08R23
  20145283.273 8 105864175.42908  82491563.84607  20145281.411 7
  22550331.512 7 118502788.16407  92339839.62004  22550329.362 4
  21792181.748 6 114518686.09606  89235340.78203  21792179.033 3
  20217827.739 8 108227607.65208
  22816458.253 5 122009849.38605
  24908719.903 6 130896202.01406 101997053.86202  24908720.698 2
  21299286.378 8 111928505.12408  87217001.38806  21299284.365 6
  23647180.430 5 126185871.13405
  22587137.087 6 120656427.11506
  22009794.856 7 117531055.59707
  20255082.365 7 108465059.28707
  20370060.303 6 108966071.13806
 18 10 16 19  9 39.0000000  0 13G30G15G20G21R07R24G27G13R06R16R09R08
                                R23
  25004234.554 5
  20145188.081 8 105863675.21008  82491174.06507  20145186.223 7
  22549721.719 7 118499582.92207  92337342.03404  22549719.402 4
  21791902.964 6 114517221.39706  89234199.46803  21791900.263 3
  20218065.393 8 108228880.11308
  22815776.037 5 122006199.39805
  24908399.983 6 130894521.42206 101995744.31502  24908400.910 2
  21299633.036 8 111930326.90208  87218420.95206  21299631.010 6
  23647731.655 5 126188809.45705
  22587349.228 6 120657560.80706
  22009251.473 7 117528153.37607
  20254751.340 7 108463287.04607
  20369992.489 6 108965706.88706
 18 10 16 19  9 40.0000000  0 13G30G15G20G21R07R24G27G13R06R16R09R08
                                R23
  25004680.626 5
  20145092.983 9 105863175.80609  82490784.91907  20145091.188 7
  22549112.040 7 118496378.07807  92334844.75804  22549109.557 4
  21791624.330 6 114515757.41606  89233058.69303  21791621.637 3
  20218303.373 8 108230153.14908
  22815093.203 5 122002550.26605
  24908080.523 6 130892841.69106 101994435.43402  24908081.278 2
  21299979.827 8 111932149.35608  87219841.04806  21299977.775 6
  23648282.573 5 126191748.06805
  22587561.810 6 120658695.59906
  22008708.313 7 117525252.04407
  20254420.354 7 108461515.42407
  20369924.920 6 108965343.83306
 18 10 16 19  9 41.0000000  0 13G30G15G20G21R07R24G27G13R06R16R09R08
                                R23
  25005128.705 5
  20144998.077 8 105862677.24808  82490396.43207  20144996.313 7
  22548502.137 7 118493173.70907  92332347.84504  22548499.811 4
  21791345.839 6 114514294.23106  89231918.54603  21791343.175 3
  20218541.323 8 108231426.80408
  22814410.486 5 121998902.02305
  24907761.291 6 130891162.81606 101993127.21202  24907761.790 2
  21300326.718 8 111933972.49608  87221261.67605  21300324.666 5
  23648832.689 5 126194686.93605
  22587774.332 6 120659831.51906
  22008165.013 7 117522351.63007
  20254089.639 7 108459744.46707
  20369857.280 6 108964982.06006
 18 10 16 19  9 42.0000000  0 13G30G15G20G21R07R24G27G13R06R16R09R08
                                R23
  25005576.622 5
  20144903.299 8 105862179.19308  82490008.33907  20144901.542 7
  22547892.419 7 118489969.44707  92329851.01304  22547890.097 4
  21791067.913 6 114512831.47306  89230778.74103  21791064.803 3
  20218779.393 8 108232700.72608
  22813728.703 5 121995254.36205
  24907441.921 6 130889484.50406 101991819.44002  24907442.387 2
  21300673.725 8 111935796.00908  87222682.59505  21300671.624 5
  23649382.031 5 126197625.88405
  22587987.458 6 120660968.22906
  22007621.981 7 117519451.82707
  20253759.019 7 108457973.80907
  20369789.606 6 108964621.18906
 18 10 16 19  9 43.0000000  0 13G30G15G20G21R07R24G27G13R06R16R09R08
                                R23
  25006020.915 5 131407563.87815
  20144808.657 8 105861681.52608  82489620.54607  20144806.837 7
  22547282.789 7 118486765.15607  92327354.16104  22547280.364 4
  21790789.584 6 114511369.03906  89229639.17903  21790786.543 3
  20219017.688 8 108233974.77008
  22813046.643 5 121991607.04005
  24907122.757 6 130887806.63706 101990512.01902  24907123.104 2
  21301020.699 8 111937619.76808  87224103.70505  21301018.648 5
  23649932.820 5 126200564.62105
  22588200.236 6 120662105.59706
  22007079.221 7 117516552.50207
  20253428.474 7 108456203.32207
  20369721.969 6 108964261.13006
 18 10 16 19  9 44.0000000  0 13G30G15G20G21R07R24G27G13R06R16R09R08
                                R23
  25006469.078 5 131409918.77505
  20144714.085 8 105861184.40608  82489233.18007  20144712.236 7
  22546673.033 7 118483561.03207  92324857.43704  22546670.690 4
  21790511.372 6 114509907.07506  89228499.98803  21790508.337 3
  20219255.769 8 108235249.12108
  22812364.744 5 121987960.31905
  24906803.462 6 130886129.30206 101989205.00302  24906803.924 2
  21301367.736 8 111939443.92208  87225525.12305  21301365.745 5
  23650483.646 5 126203503.32005
  22588412.800 6 120663243.75206
  22006536.415 7 117513653.80607
  20253097.846 7 108454433.20607
  20369654.678 6 108963901.99506
 18 10 16 19  9 45.0000000  0 13G30G15G20G21R07R24G27G13R06R16R09R08
                                R23
  25006918.610 5 131412273.84405
  20144619.521 8 105860687.59708  82488846.05607  20144617.688 7
  22546063.201 7 118480356.81307  92322360.64804  22546060.953 4
  21790233.272 6 114508445.36106  89227360.98103  21790230.162 3
  20219493.881 8 108236523.56908
  22811683.347 5 121984313.90205
  24906484.040 6 130884452.37806 101987898.30202  24906484.798 2
  21301714.875 8 111941268.25608  87226946.68205  21301712.868 5
  23651034.605 5 126206441.80705
  22588625.464 6 120664382.49806
  22005993.598 7 117510755.50007
  20252767.209 7 108452663.20907
  20369587.812 6 108963543.56206
 18 10 16 19  9 45.0000000  4  1
ANTENNA;APSAPS-3L       NONE;0.094;0.082                    COMMENT             
 18 10 16 19  9 46.0000000  0 13G30G15G20G21R07R24G27G13R06R16R09R08
                                R23
  25007367.337 5 131414629.46705
  20144525.116 8 105860191.50208  82488459.49007  20144523.283 7
  22545453.541 7 118477152.93207  92319864.12004  22545451.260 4
  21789955.337 6 114506984.25906  89226222.45803  21789952.116 3
  20219732.117 8
  22811001.229 5 121980668.23405
  24906165.010 6 130882776.16906 101986592.17202  24906165.788 2
  21302062.067 8 111943093.16408  87228368.68205  21302060.116 5
  23651584.666 5 126209380.53305
  22588839.044 6 120665522.25406
  22005451.180 7 117507858.00407
  20252436.757 7 108450893.73007
  20369520.889 6 108963186.27306
 18 10 16 19  9 47.0000000  0 13G30G15G20G21R07R24G27G13R06R16R09R08
                                R23
  25007815.144 5 131416985.86205
  20144430.796 8 105859696.37608  82488073.67807  20144429.075 7
  22544843.875 7 118473949.60807  92317368.02704  22544841.720 4
  21789677.393 6 114505524.10306  89225084.67303  21789674.241 3
  20219970.337 8
  22810319.969 5 121977023.57405
  24905846.018 6 130881100.97106 101985286.82302  24905846.966 2
  21302409.560 8 111944918.89408  87229791.32805  21302407.525 5
  23652134.707 5 126212319.61305
  22589052.802 6 120666663.28306
  22004908.663 7 117504961.59207
  20252106.496 7 108449125.01307
  20369453.931 6 108962830.37406
 18 10 16 19  9 48.0000000  0  6G30G15G20G21G27G13
  25008263.160 5 131419342.07805
  20144336.460 8 105859201.22508  82487687.84707  20144334.862 7
  22544234.288 7 118470745.85707  92314871.60104  22544232.081 4
  21789399.424 6 114504063.82306  89223946.80003  21789396.383 3
  24905527.137 6 130879425.83306 101983981.53702  24905528.188 2
  21302757.024 8 111946744.46208  87231213.84905  21302754.917 5
 18 10 16 19  9 49.0000000  0  9G30G15G20G21R07G27G13R09R08
  25008711.154 5 131421699.06305
  20144242.352 8 105858707.00408  82487302.73907  20144240.824 7
  22543624.654 7 118467542.66407  92312375.60804  22543622.555 4
  21789121.820 6 114502604.41506  89222809.59203  21789118.668 3
  20220447.749 8
  24905208.558 6 130877751.62206 101982676.95202  24905209.576 2
  21303104.602 8 111948570.82008  87232636.98505  21303102.456 5
  22003822.251 7
  20251449.124 7
 18 10 16 19  9 50.0000000  0 10G30G15G20G21R07G27G13R09R08R23
  25009158.607 5 131424056.02005
  20144148.352 8 105858212.90108  82486917.72307  20144146.799 7
  22543015.127 7 118464339.18707  92309879.39804  22543012.996 4
  21788843.984 6 114501145.06806  89221672.44103  21788840.940 3
  20220685.456 8
  24904889.554 6 130876077.54906 101981372.47202  24904890.928 2
  21303452.220 8 111950397.15308  87234060.10005  21303449.986 5
  22003280.711 7
  20251117.490 7
  20369254.354 6
 18 10 16 19  9 51.0000000  0 11G30G15G20G21R07G27G13R16R09R08R23
  25009606.024 5 131426412.84105
  20144054.393 8 105857718.76708  82486532.68407  20144052.770 7
  22542405.289 7 118461135.30207  92307382.86404  22542403.349 4
  21788566.315 6 114499685.60006  89220535.20703  21788563.212 3
  20220923.306 8 108244191.19518
  24904570.980 6 130874403.51706 101980068.03102  24904572.356 2
  21303799.708 8 111952223.32408  87235483.08905  21303797.484 5
  22589907.752 6 120671230.08616
  22002739.068 7 117493392.67917
  20250786.559 7 108442055.08117
  20369188.134 6 108961420.65016
 18 10 16 19  9 52.0000000  0 12G30G15G20G21R07R24G27G13R16R09R08R23
  25010054.264 5 131428769.99805
  20143960.538 8 105857225.21908  82486148.10207  20143958.857 7
  22541795.485 7 118457931.58607  92304886.46404  22541793.719 4
  21788288.654 6 114498226.65106  89219398.36003  21788285.605 3
  20221161.375 8 108245467.20208
  22806910.562 5 121958783.42815
  24904252.563 6 130872730.09006 101978764.06902  24904253.946 2
  21304147.288 8 111954049.93208  87236906.42105  21304145.091 5
  22590122.046 6 120672374.06706
  22002197.219 7 117490498.26007
  20250455.771 7 108440286.99007
  20369122.316 6 108961068.26406
 18 10 16 19  9 53.0000000  0 12G30G15G20G21R07R24G27G13R16R09R08R23
  25010502.414 5 131431127.26605
  20143866.679 8 105856731.91608  82485763.70907  20143864.988 7
  22541185.855 7 118454727.73607  92302389.96104  22541184.098 4
  21788010.874 6 114496767.85106  89218261.63303  21788008.007 3
  20221400.269 8 108246743.20108
  22806229.082 5 121955140.83005
  24903934.343 6 130871056.96606 101977460.33902  24903935.539 2
  21304494.939 8 111955876.65208  87238329.83705  21304492.688 5
  22590336.415 6 120673518.60506
  22001655.290 7 117487604.17007
  20250125.767 7 108438518.95107
  20369056.257 6 108960716.55406
 18 10 16 19  9 54.0000000  0 12G30G15G20G21R07R24G27G13R16R09R08R23
  25010951.589 5 131433484.63805
  20143772.866 8 105856238.89408  82485379.53707  20143771.187 7
  22540576.238 7 118451523.78107  92299893.37004  22540574.406 4
  21787733.257 6 114495309.31806  89217125.10503  21787730.440 3
  20221638.607 8 108248019.25908
  22805548.139 5 121951498.57705
  24903616.063 6 130869384.17406 101976156.86502  24903617.195 2
  21304842.507 8 111957703.52708  87239753.37605  21304840.325 5
  22590551.076 6 120674663.66506
  22001113.587 7 117484710.44007
  20249795.557 7 108436750.96407
  20368991.436 6 108960365.53106
 18 10 16 19  9 55.0000000  0 12G30G15G20G21R07R24G27G13R16R09R08R23
  25011401.845 5 131435842.65305
  20143679.202 8 105855746.73808  82484996.03907  20143677.538 7
  22539966.709 7 118448320.27607  92297397.13104  22539964.776 4
  21787455.847 6 114493851.54406  89215989.17603  21787453.038 3
  20221877.055 8 108249295.95408
  22804867.576 5 121947857.18705
  24903297.772 6 130867712.24506 101974854.07202  24903299.013 2
  21305190.251 8 111959531.10408  87241177.46205  21305188.083 5
  22590765.772 6 120675809.88106
  22000572.043 7 117481817.67607
  20249465.450 7 108434983.63707
  20368926.107 6 108960015.78006
 18 10 16 19  9 56.0000000  0 12G30G15G20G21R07R24G27G13R16R09R08R23
  25011852.764 5 131438201.28005
  20143585.698 8 105855255.22108  82484613.03807  20143584.014 7
  22539357.250 7 118445117.03907  92294901.10104  22539355.272 4
  21787178.475 6 114492394.35406  89214853.70303  21787175.726 3
  20222115.612 8 108250573.06808
  22804188.649 5 121944216.40505
  24902979.822 6 130866041.05406 101973551.85802  24902980.951 2
  21305538.130 8 111961359.19608  87242601.94805  21305535.944 5
  22590980.896 6 120676957.02906
  22000030.671 7 117478925.65407
  20249135.462 7 108433216.79007
  20368861.138 6 108959667.07006
 18 10 16 19  9 56.0000000  4  1
ANTENNA;APSAPS-3L       NONE;0.094;0.082                    COMMENT             
 18 10 16 19  9 57.0000000  0 12G30G15G20G21R07R24G27G13R16R09R08R23
  25012301.849 5 131440560.59005
  20143492.402 8 105854764.68508  82484230.80407  20143490.673 7
  22538747.766 7 118441914.38207  92292405.52504  22538745.848 4
  21786901.568 6 114490938.05406  89213718.92803  21786898.503 3
  20222354.330 8 108251850.92208
  22803508.273 5 121940576.69605
  24902661.867 6 130864370.83106 101972250.37202  24902663.081 2
  21305886.122 8 111963188.12008  87244027.08505  21305883.957 5
  22591195.939 6 120678105.43906
  21999489.240 7 117476034.69507
  20248805.578 7 108431450.73307
  20368796.558 6 108959319.73006
 18 10 16 19  9 58.0000000  0 12G30G15G20G21R07R24G27G13R16R09R08R23
  25012750.147 5 131442920.16105
  20143399.181 8 105854274.55808  82483848.88607  20143397.413 7
  22538138.333 7 118438711.72007  92289909.95404  22538136.383 4
  21786624.589 6 114489482.12606  89212584.44203  21786621.397 3
  20222593.032 8 108253128.90908
  22802827.417 5 121936937.41505
  24902344.258 6 130862701.06506 101970949.24802  24902345.336 2
  21306234.200 8 111965017.30908  87245452.42705  21306232.019 5
  22591410.795 6 120679254.55906
  21998948.201 7 117473144.23407
  20248475.795 7 108429684.90007
  20368731.471 6 108958973.18006
 18 10 16 19  9 59.0000000  0 12G30G15G20G21R07R24G27G13R16R09R08R23
  25013199.107 5 131445280.79905
  20143306.132 8 105853785.66208  82483467.92907  20143304.390 7
  22537529.123 7 118435509.91407  92287415.03704  22537527.089 4
  21786347.709 6 114488027.33406  89211450.83603  21786344.563 3
  20222832.041 8 108254407.91508
  22802147.175 5 121933299.40205
  24902026.930 6 130861032.57306 101969649.13502  24902027.811 2
  21306582.553 8 111966847.59908  87246878.62805  21306580.300 5
  22591626.265 6 120680405.19406
  21998407.183 7 117470255.10907
  20248146.086 7 108427920.11307
  20368666.631 6 108958628.32006
 18 10 16 19 10  0.0000000  0 12G30G15G20G21R07R24G27G13R16R09R08R23
  25013647.870 4 131447641.27704
  20143213.048 8 105853296.71708  82483086.93207  20143211.354 7
  22536919.711 7 118432307.66807  92284919.78104  22536917.696 4
  21786070.882 6 114486572.45606  89210317.15003  21786067.720 3
  20223071.046 8 108255686.60608
  22801466.328 5 121929661.38605
  24901709.195 6 130859364.07806 101968349.01702  24901710.290 2
  21306930.884 8 111968677.68608  87248304.67005  21306928.559 5
  22591841.806 6 120681556.03306
  21997866.125 7 117467366.02207
  20247816.568 7 108426155.03907
  20368602.219 6 108958283.79006
 18 10 16 19 10  1.0000000  0 12G30G15G20G21R07R24G27G13R16R09R08R23
  25014096.763 5 131450002.45405
  20143120.210 8 105852808.67508  82482706.64307  20143118.482 7
  22536310.466 7 118429105.92407  92282424.91804  22536308.411 4
  21785794.285 6 114485118.37706  89209184.11003  21785791.066 3
  20223310.110 8 108256965.98908
  22800786.775 5 121926024.32805
  24901391.830 6 130857696.51206 101967049.61602  24901392.934 2
  21307279.269 8 111970508.52708  87249731.30105  21307276.952 5
  22592057.098 6 120682708.05206
  21997325.158 7 117464477.90507
  20247486.966 7 108424390.67007
  20368537.988 6 108957940.57506
 18 10 16 19 10  2.0000000  0 12G30G15G20G21R07R24G27G13R16R09R08R23
  25014545.175 4 131452363.72704
  20143027.434 8 105852320.93608  82482326.58607  20143025.678 7
  22535701.129 7 118425904.07707  92279929.97404  22535699.134 4
  21785517.774 6 114483664.55506  89208051.25903  21785514.411 3
  20223549.033 8 108258245.45108
  22800106.942 5 121922387.58405
  24901074.354 6 130856029.33706 101965750.52002  24901075.606 2
  21307627.641 8 111972339.54308  87251158.06705  21307625.381 5
  22592272.908 6 120683860.63206
  21996784.496 7 117461590.16207
  20247157.367 7 108422626.40807
  20368473.815 6 108957598.06906
 18 10 16 19 10  3.0000000  0 12G30G15G20G21R07R24G27G13R16R09R08R23
  25014994.345 4 131454724.99104
  20142934.628 8 105851833.29308  82481946.60607  20142932.892 7
  22535091.664 7 118422701.93807  92277434.79704  22535089.818 4
  21785241.048 6 114482210.73906  89206918.41703  21785237.720 3
  20223788.025 8 108259524.75108
  22799426.743 5 121918750.94905
  24900757.017 6 130854362.26506 101964451.50102  24900758.357 2
  21307975.989 8 111974170.51108  87252584.79305  21307973.774 5
  22592488.833 6 120685013.61106
  21996243.847 7 117458702.63407
  20246827.870 7 108420862.06607
  20368409.856 6 108957256.04706
 18 10 16 19 10  4.0000000  0 12G30G15G20G21R07R24G27G13R16R09R08R23
  25015444.282 4 131457086.44604
  20142841.944 8 105851346.00608  82481566.90107  20142840.169 7
  22534482.345 7 118419499.76107  92274939.59504  22534480.479 4
  21784964.333 6 114480757.23206  89205785.82103  21784961.119 3
  20224026.896 8 108260804.13508
  22798747.469 6 121915114.69906
  24900439.811 6 130852695.58006 101963152.78802  24900441.212 2
  21308324.370 8 111976001.70008  87254011.69505  21308322.234 5
  22592704.827 6 120686167.23106
  21995702.990 7 117455815.52707
  20246498.302 7 108419097.90807
  20368345.904 6 108956914.79306
 18 10 16 19 10  5.0000000  0 12G30G15G20G21R07R24G27G13R16R09R08R23
  25015893.796 5 131459448.21205
  20142749.322 8 105850859.25308  82481187.61407  20142747.539 7
  22533873.017 7 118416297.73007  92272444.50504  22533871.140 4
  21784687.849 6 114479304.17706  89204653.57403  21784684.616 3
  20224265.765 8 108262083.77508
  22798068.454 6 121911479.01306
  24900122.864 6 130851029.48106 101961854.52902  24900124.174 2
  21308672.876 8 111977833.27808  87255438.90005  21308670.784 5
  22592920.642 6 120687321.68406
  21995162.504 7 117452929.07507
  20246169.236 7 108417334.07407
  20368282.471 6 108956574.48206
 18 10 16 19 10  6.0000000  0 12G30G15G20G21R07R24G27G13R16R09R08R23
  25016343.968 4 131461810.19004
  20142656.770 8 105850372.87308  82480808.61607  20142654.985 7
  22533263.371 7 118413095.69307  92269949.41504  22533261.778 4
  21784411.530 6 114477851.41806  89203521.55403  21784408.194 3
  20224504.732 8 108263363.54808
  22797389.009 6 121907843.77306
  24899806.001 6 130849363.80906 101960556.61102  24899807.199 2
  21309021.346 8 111979665.08708  87256866.28405  21309019.360 5
  22593137.154 6 120688476.76306
  21994621.943 7 117450043.06507
  20245839.883 7 108415570.38707
  20368218.844 6 108956234.90506
 18 10 16 19 10  7.0000000  0 12G30G15G20G21R07R24G27G13R16R09R08R23
  25016792.135 4 131464172.04804
  20142564.225 8 105849886.57308  82480429.68207  20142562.458 7
  22532654.062 7 118409893.32007  92267454.06104  22532652.350 4
  21784135.172 6 114476398.67606  89202389.53803  21784131.763 3
  20224743.847 8 108264643.17808
  22796709.064 6 121904208.63806
  24899489.102 6 130847698.21006 101959258.75002  24899490.241 2
  21309369.988 8 111981496.81608  87258293.60305  21309367.946 5
  22593353.649 6 120689632.19706
  21994081.563 7 117447157.21107
  20245510.552 7 108413806.55407
  20368155.360 6 108955895.80906
 18 10 16 19 10  8.0000000  0 12G30G15G20G21R07R24G27G13R16R09R08R23
  25017241.263 4 131466534.25804
  20142471.792 8 105849400.82108  82480051.17407  20142470.021 7
  22532044.875 7 118406691.10007  92264958.82404  22532042.966 4
  21783858.746 6 114474946.41606  89201257.91003  21783855.399 3
  20224982.998 8 108265923.13708
  22796028.709 6 121900574.08906
  24899172.081 6 130846033.21506 101957961.34202  24899173.427 2
  21309718.674 8 111983328.95908  87259721.24505  21309716.607 5
  22593570.039 6 120690788.43906
  21993541.209 7 117444271.98507
  20245181.382 7 108412043.07407
  20368092.639 6 108955557.64706
 18 10 16 19 10  9.0000000  0 12G30G15G20G21R07R24G27G13R16R09R08R23
  25017691.773 4 131468896.89604
  20142379.462 8 105848915.50408  82479673.00607  20142377.673 7
  22531435.607 7 118403488.92707  92262463.62204  22531433.591 4
  21783582.416 6 114473494.54006  89200126.59402  21783579.093 2
  20225222.223 8 108267203.30408
  22795349.188 6 121896940.03006
  24898855.717 6 130844368.69406 101956664.30502  24898856.675 2
  21310067.352 8 111985161.40108  87261149.12105  21310065.327 5
  22593786.510 6 120691945.44006
  21993000.820 7 117441387.29107
  20244852.042 7 108410279.83707
  20368029.117 6 108955220.35106
 18 10 16 19 10 10.0000000  0 12G30G15G20G21R07R24G27G13R16R09R08R23
  25018141.514 4 131471259.84604
  20142287.226 8 105848430.88908  82479295.38507  20142285.446 7
  22530826.453 7 118400287.07407  92259968.67504  22530824.279 4
  21783306.193 6 114472043.27506  89198995.73202  21783302.921 2
  20225461.596 8 108268483.91308
  22794669.905 6 121893306.67806
  24898538.955 6 130842704.94006 101955367.88702  24898540.102 2
  21310416.202 8 111986994.39508  87262577.42905  21310414.140 5
  22594003.468 6 120693103.40206
  21992460.667 7 117438503.43907
  20244522.790 7 108408517.13407
  20367966.412 6 108954884.15206
 18 10 16 19 10 11.0000000  0 12G30G15G20G21R07R24G27G13R16R09R08R23
  25018590.370 5 131473623.36705
  20142195.139 8 105847946.94808  82478918.28706  20142193.348 6
  22530217.182 7 118397085.50507  92257473.94604  22530215.025 4
  21783030.107 6 114470592.62006  89197865.34602  21783026.870 2
  20225700.946 8 108269764.94108
  22793989.781 6 121889674.04606
  24898222.880 6 130841041.88506 101954071.99602  24898223.703 2
  21310765.008 8 111988827.93008  87264006.15605  21310763.052 5
  22594219.707 6 120694262.31906
  21991920.839 7 117435620.31607
  20244193.762 7 108406754.95107
  20367903.520 6 108954549.04506
 18 10 16 19 10 12.0000000  0 13G30G15G20G21R07R24G27G13R06R16R09R08
                                R23
  25019040.151 4 131475987.29604
  20142103.111 8 105847463.50908  82478541.58106  20142101.349 6
  22529607.960 7 118393884.03207  92254979.29104  22529605.847 4
  21782754.076 6 114469142.41506  89196735.31202  21782750.930 2
  20225940.262 8 108271046.20808
  22793310.999 6 121886041.92606
  24897906.502 6 130839379.38906 101952776.55202  24897907.381 2
  21311113.927 8 111990661.81808  87265435.16105  21311112.053 5
  23665899.346 5
  22594436.777 6 120695422.00806
  21991381.303 7 117432737.78707
  20243864.679 7 108404993.08107
  20367841.243 6 108954214.83206
 18 10 16 19 10 13.0000000  0 13G30G15G20G21R07R24G27G13R06R16R09R08
                                R23
  25019488.927 4 131478351.52204
  20142011.231 8 105846980.50008  82478165.21206  20142009.431 6
  22528998.604 7 118390682.60807  92252484.67904  22528996.637 4
  21782478.157 6 114467692.54906  89195605.53902  21782475.067 2
  20226179.628 8 108272327.69508
  22792631.781 6 121882410.28506
  24897590.427 6 130837717.34806 101951481.45202  24897591.076 2
  21311462.876 8 111992495.99508  87266864.38705  21311461.063 5
  23666449.516 5 126288704.35915
  22594653.946 6 120696582.38806
  21990841.670 7 117429855.76807
  20243535.617 7 108403231.45607
  20367778.923 6 108953881.45706
 18 10 16 19 10 14.0000000  0 13G30G15G20G21R07R24G27G13R06R16R09R08
                                R23
  25019938.915 4 131480715.89104
  20141919.425 8 105846497.83408  82477789.10806  20141917.579 6
  22528389.428 7 118387481.13607  92249990.01804  22528387.406 4
  21782202.360 6 114466242.98006  89194476.00902  21782199.221 2
  20226419.258 8 108273609.29208
  22791952.730 6 121878779.01106
  24897273.981 6 130836055.69306 101950186.64102  24897274.856 2
  21311811.940 8 111994330.38108  87268293.78105  21311810.127 5
  23667000.845 5 126291641.44705
  22594871.575 6 120697743.38506
  21990302.293 7 117426974.20507
  20243206.919 7 108401469.95507
  20367717.036 6 108953548.79406
 18 10 16 19 10 15.0000000  0 13G30G15G20G21R07R24G27G13R06R16R09R08
                                R23
  25020388.604 4 131483080.14104
  20141827.617 8 105846015.23308  82477413.05506  20141825.736 6
  22527780.061 7 118384279.33107  92247495.10104  22527778.134 4
  21781926.721 6 114464793.39106  89193346.46002  21781923.403 2
  20226658.551 8 108274890.70908
  22791273.692 6 121875147.84406
  24896957.644 6 130834394.16106 101948891.95002  24896958.686 2
  21312160.961 8 111996164.68708  87269723.11005  21312159.195 5
  23667550.595 5 126294578.02605
  22595088.426 6 120698904.73706
  21989762.997 7 117424092.75407
  20242877.708 7 108399708.28907
  20367654.577 6 108953216.61806
 18 10 16 19 10 16.0000000  0 13G30G15G20G21R07R24G27G13R06R16R09R08
                                R23
  25020838.297 4 131485444.71704
  20141735.870 8 105845533.19008  82477037.43906  20141734.010 6
  22527170.778 7 118381077.69707  92245000.32703  22527168.902 3
  21781650.660 6 114463344.30606  89192217.30702  21781647.700 2
  20226897.988 8 108276172.45108
  22790594.380 6 121871517.30306
  24896640.966 5 130832733.20805 101947597.70302  24896642.609 2
  21312510.071 8 111997999.40408  87271152.75805  21312508.317 5
  23668101.919 5 126297514.60905
  22595306.140 6 120700066.93006
  21989223.713 7 117421211.99407
  20242548.847 7 108397946.97607
  20367592.753 6 108952885.41706
 18 10 16 19 10 17.0000000  0 13G30G15G20G21R07R24G27G13R06R16R09R08
                                R23
  25021288.782 4 131487810.16104
  20141644.299 8 105845052.10908  82476662.56806  20141642.462 6
  22526561.618 7 118377876.63707  92242505.99503  22526559.809 3
  21781374.931 6 114461896.13506  89191088.85602  21781372.141 2
  20227137.471 8 108277454.91908
  22789915.694 6 121867887.75006
  24896324.977 6 130831073.26806 101946304.23302  24896326.747 2
  21312859.263 8 111999834.95908  87272583.05905  21312857.587 5
  23668652.977 5 126300451.65805
  22595524.122 6 120701230.36506
  21988684.326 7 117418332.27807
  20242220.193 7 108396186.45407
  20367531.290 6 108952555.57506
 18 10 16 19 10 18.0000000  0 13G30G15G20G21R07R24G27G13R06R16R09R08
                                R23
  25021739.249 4 131490176.23204
  20141552.873 8 105844571.80108  82476288.30306  20141551.071 6
  22525952.614 7 118374675.93907  92240011.94603  22525950.747 3
  21781099.287 6 114460448.64806  89189960.93802  21781096.680 2
  20227377.122 8 108278737.91108
  22789236.750 6 121864259.04806
  24896009.255 6 130829414.13606 101945011.40502  24896011.041 2
  21313208.711 8 112001671.13608  87274013.84805  21313206.990 5
  23669202.596 5 126303388.93405
  22595742.322 6 120702394.86906
  21988145.396 7 117415453.45707
  20241891.874 7 108394426.52507
  20367470.160 6 108952226.93906
 18 10 16 19 10 19.0000000  0 13G30G15G20G21R07R24G27G13R06R16R09R08
                                R23
  25022188.445 5 131492542.43505
  20141461.508 8 105844091.85408  82475914.32006  20141459.761 6
  22525343.526 7 118371475.22507  92237517.88103  22525341.672 3
  21780823.590 6 114459001.46206  89188833.26002  21780821.273 2
  20227616.594 8 108280021.02008
  22788557.953 6 121860630.71806
  24895693.555 5 130827755.41405 101943718.90802  24895695.381 2
  21313558.141 8 112003507.52208  87275444.79405  21313556.447 5
  23669753.206 5 126306326.08805
  22595960.266 6 120703560.04106
  21987606.034 7 117412575.09707
  20241563.366 7 108392666.77207
  20367409.102 6 108951899.05206
 18 10 16 19 10 19.0000000  4  1
ANTENNA;APSAPS-3L       NONE;0.094;0.082                    COMMENT             
 18 10 16 19 10 20.0000000  0 13G30G15G20G21R07R24G27G13R06R16R09R08
                                R23
  25022638.229 5 131494909.00705
  20141370.238 8 105843612.38508  82475540.70706  20141368.531 6
  22524734.574 7 118368274.59307  92235023.88403  22524732.601 3
  21780548.149 6 114457554.67206  89187705.88702  21780545.978 2
  20227856.162 8 108281304.35908
  22787879.680 6 121857002.92506
  24895378.041 5 130826097.23705 101942426.83502  24895379.827 2
  21313907.703 8 112005344.24408  87276876.00605  21313905.954 5
  23670302.901 5 126309263.15605
  22596178.357 6 120704725.95006
  21987067.016 7 117409697.26707
  20241234.695 7 108390907.29907
  20367347.892 6 108951572.05206
 18 10 16 19 10 21.0000000  0 13G30G15G20G21R07R24G27G13R06R16R09R08
                                R23
  25023088.561 5 131497275.89605
  20141279.090 8 105843133.44608  82475167.50606  20141277.399 6
  22524125.561 7 118365074.10207  92232529.99703  22524123.539 3
  21780273.038 6 114456108.36006  89186578.89502  21780270.781 2
  20228095.918 8 108282588.02108
  22787201.319 6 121853375.67106
  24895062.502 5 130824439.58205 101941135.13402  24895064.381 2
  21314257.258 8 112007181.35408  87278307.52005  21314255.550 5
  23670853.327 5 126312200.18005
  22596396.555 6 120705892.70306
  21986528.199 7 117406820.08607
  20240905.987 7 108389148.15407
  20367286.637 6 108951245.94606
 18 10 16 19 10 22.0000000  0 13G30G15G20G21R07R24G27G13R06R16R09R08
                                R23
  25023540.038 5 131499643.24505
  20141188.033 8 105842655.13908  82474794.80006  20141186.379 6
  22523516.476 7 118361873.84007  92230036.29103  22523514.562 3
  21779998.268 6 114454662.59106  89185452.32202  21779995.686 2
  20228335.906 8 108283872.06108
  22786522.639 6 121849749.06606
  24894747.219 5 130822782.62005 101939843.99902  24894749.042 2
  21314606.910 8 112009018.95208  87279739.41705  21314605.235 5
  23671403.724 5 126315137.32005
  22596615.100 6 120707060.31906
  21985989.348 7 117403943.62607
  20240577.430 7 108387389.45907
  20367225.961 6 108950920.89006
 18 10 16 19 10 23.0000000  0 13G30G15G20G21R07R24G27G13R06R16R09R08
                                R23
  25023990.478 4 131502010.69304
  20141097.103 8 105842177.14208  82474422.33706  20141095.431 6
  22522907.343 7 118358673.51307  92227542.52603  22522905.581 3
  21779723.316 6 114453217.09006  89184325.95202  21779720.619 2
  20228575.814 8 108285156.17208
  22785844.304 6 121846122.84706
  24894431.862 5 130821126.04705 101938553.16902  24894433.788 2
  21314956.648 8 112010856.71608  87281171.44105  21314954.970 5
  23671953.941 5 126318074.23205
  22596833.917 6 120708228.53206
  21985450.448 7 117401067.56207
  20240249.083 7 108385630.87707
  20367165.521 6 108950596.55306
 18 10 16 19 10 24.0000000  0 13G30G15G20G21R07R24G27G13R06R16R09R08
                                R23
  25024442.335 4 131504378.37404
  20141006.192 8 105841699.49408  82474050.14406  20141004.545 6
  22522298.377 7 118355473.13107  92225048.71503  22522296.550 3
  21779448.282 6 114451771.85506  89183199.79402  21779445.574 2
  20228815.760 8 108286440.37808
  22785166.722 6 121842496.98506
  24894116.901 5 130819469.78805 101937262.57502  24894118.628 2
  21315306.391 8 112012694.69008  87282603.62605  21315304.727 5
  23672505.532 5 126321010.99505
  22597052.777 6 120709397.34906
  21984911.886 7 117398191.94607
  20239920.695 7 108383872.46207
  20367105.271 6 108950272.97106
 18 10 16 19 10 25.0000000  0 13G30G15G20G21R07R24G27G13R06R16R09R08
                                R23
  25024893.732 5 131506747.09705
  20140915.455 8 105841223.02808  82473678.87106  20140913.874 6
  22521689.468 7 118352273.54407  92222555.53303  22521687.694 3
  21779173.439 6 114450327.75706  89182074.53402  21779170.797 2
  20229055.865 8 108287725.51808
  22784489.199 6 121838872.35006
  24893801.951 5 130817814.83305 101935973.01002  24893803.723 2
  21315656.376 8 112014533.70608  87284036.62605  21315654.680 5
  23673056.557 5 126323948.41705
  22597271.888 6 120710567.66906
  21984373.599 7 117395317.58307
  20239592.485 7 108382115.06007
  20367044.687 6 108949951.03606
 18 10 16 19 10 26.0000000  0 13G30G15G20G21R07R24G27G13R06R16R09R08
                                R23
  25025344.597 5 131509115.78805
  20140824.797 8 105840746.73208  82473307.73306  20140823.239 6
  22521080.563 7 118349073.73107  92220062.17303  22521078.807 3
  21778898.651 6 114448883.74806  89180949.33402  21778896.065 2
  20229295.797 8 108289010.54208
  22783811.399 6 121835247.93106
  24893486.461 5 130816160.02605 101934683.54402  24893488.814 2
  21316006.400 8 112016372.73408  87285469.63605  21316004.634 5
  23673607.624 5 126326885.37005
  22597491.255 6 120711738.42806
  21983835.238 7 117392443.50307
  20239264.361 7 108380357.59407
  20366983.978 6 108949629.61806
 18 10 16 19 10 27.0000000  0 13G30G15G20G21R07R24G27G13R06R16R09R08
                                R23
  25025795.350 5 131511484.74605
  20140734.222 8 105840270.92408  82472936.97306  20140732.688 6
  22520471.668 7 118345874.01707  92217568.88803  22520469.910 3
  21778624.011 6 114447440.15206  89179824.45702  21778621.378 2
  20229535.949 8 108290295.82208
  22783133.698 6 121831624.06906
  24893171.714 5 130814505.77105 101933394.51302  24893174.029 2
  21316356.342 8 112018212.12708  87286902.92705  21316354.673 5
  23674158.017 5 126329822.30705
  22597710.508 6 120712909.91806
  21983297.115 7 117389570.01307
  20238936.335 7 108378600.42407
  20366923.757 6 108949309.12906
 18 10 16 19 10 28.0000000  0 13G30G15G20G21R07R24G27G13R06R16R09R08
                                R23
  25026245.964 5 131513854.01105
  20140643.797 8 105839795.51008  82472566.52106  20140642.219 6
  22519862.664 7 118342674.30507  92215075.60803  22519861.063 3
  21778349.472 6 114445996.88706  89178699.82902  21778346.740 2
  20229776.082 8 108291581.27908
  22782456.327 6 121828000.64106
  24892857.320 5 130812851.94305 101932105.80802  24892859.326 2
  21316706.443 8 112020051.77308  87288336.41905  21316704.751 5
  23674708.037 5 126332759.16205
  22597929.500 6 120714082.12706
  21982758.953 7 117386697.01207
  20238608.404 7 108376843.42607
  20366863.891 6 108948989.39706
 18 10 16 19 10 29.0000000  0 13G30G15G20G21R07R24G27G13R06R16R09R08
                                R23
  25026696.749 5 131516224.00505
  20140553.563 8 105839321.10808  82472196.85706  20140551.936 6
  22519253.960 7 118339475.21107  92212582.81104  22519252.305 4
  21778075.279 6 114444554.57006  89177575.94102  21778072.316 2
  20230016.301 8 108292867.56508
  22781779.390 6 121824378.26406
  24892542.840 6 130811199.18206 101930817.94502  24892544.814 2
  21317056.669 8 112021892.28208  87289770.58105  21317054.964 5
  23675258.037 5 126335696.47805
  22598149.403 6 120715255.59006
  21982221.189 7 117383825.12307
  20238280.344 7 108375087.26907
  20366803.969 6 108948671.07006
 18 10 16 19 10 30.0000000  0 13G30G15G20G21R07R24G27G13R06R16R09R08
                                R23
  25027146.697 5 131518594.64305
  20140463.368 8 105838847.39208  82471827.72906  20140461.780 6
  22518645.315 7 118336276.42307  92210090.25204  22518643.552 4
  21777801.242 6 114443112.85606  89176452.53802  21777798.018 2
  20230256.589 8 108294154.29408
  22781102.088 6 121820756.56506
  24892228.576 5 130809547.16705 101929530.66302  24892230.428 2
  21317406.884 8 112023733.32508  87291205.16005  21317405.294 5
  23675808.323 5 126338633.95005
  22598369.483 6 120716430.05206
  21981683.572 7 117380954.02007
  20237952.406 7 108373331.58307
  20366744.763 6 108948353.84206
 18 10 16 19 10 31.0000000  0 13G30G15G20G21R07R24G27G13R06R16R09R08
                                R23
  25027596.547 5 131520965.18505
  20140373.312 8 105838373.85408  82471458.74006  20140371.667 6
  22518036.741 7 118333077.39207  92207597.50304  22518034.759 4
  21777526.928 6 114441671.26506  89175329.21102  21777523.724 2
  20230496.954 8 108295440.93308
  22780424.936 6 121817135.09606
  24891914.552 5 130807895.35205 101928243.52402  24891916.068 2
  21317757.106 8 112025574.40108  87292639.76605  21317755.636 5
  23676358.003 5 126341571.05405
  22598589.128 6 120717604.95706
  21981145.860 7 117378083.17907
  20237624.392 7 108371575.87307
  20366685.948 6 108948037.18206
 18 10 16 19 10 32.0000000  0 13G30G15G20G21R07R24G27G13R06R16R09R08
                                R23
  25028046.825 5 131523335.89905
  20140283.278 8 105837900.57908  82471089.95406  20140281.596 6
  22517427.987 7 118329878.25707  92205104.67004  22517426.005 4
  21777252.828 6 114440229.88906  89174206.07002  21777249.475 2
  20230737.167 7 108296727.58107
  22779747.943 6 121813513.93206
  24891600.512 6 130806243.83406 101926956.63602  24891601.780 2
  21318107.412 8 112027415.62708  87294074.48605  21318106.042 5
  23676908.433 5 126344507.88705
  22598809.061 6 120718780.42506
  21980608.292 7 117375212.69507
  20237296.447 7 108369820.24907
  20366626.857 6 108947721.20406
 18 10 16 19 10 33.0000000  0 13G30G15G20G21R07R24G27G13R06R16R09R08
                                R23
  25028497.547 5 131525707.53205
  20140193.478 8 105837428.40008  82470722.02306  20140191.738 6
  22516819.371 7 118326679.83307  92202612.39604  22516817.458 4
  21776978.548 6 114438789.54306  89173083.73202  21776975.423 2
  20230977.712 7 108298015.06107
  22779071.031 6 121809893.90706
  24891286.688 6 130804593.47706 101925670.63802  24891287.702 2
  21318457.897 8 112029257.77908  87295509.92805  21318456.595 5
  23677459.112 5 126347445.28805
  22599029.242 6 120719957.25906
  21980071.134 7 117372343.40307
  20236968.756 7 108368065.54207
  20366568.025 6 108947406.71406
 18 10 16 19 10 34.0000000  0 13G30G15G20G21R07R24G27G13R06R16R09R08
                                R23
  25028947.415 5 131528079.00905
  20140103.659 8 105836956.28908  82470354.14506  20140101.895 6
  22516210.686 7 118323481.07907  92200119.86304  22516208.803 4
  21776704.256 6 114437349.17706  89171961.37802  21776701.379 2
  20231218.112 7 108299302.39507
  22778393.851 6 121806273.97406
  24890972.977 6 130802943.21606 101924384.72102  24890973.647 2
  21318808.365 8 112031099.86408  87296945.31905  21318807.121 5
  23678009.891 5 126350382.18505
  22599249.137 6 120721134.42506
  21979533.762 7 117369474.25507
  20236641.247 7 108366310.73607
  20366509.206 6 108947092.66506
 18 10 16 19 10 35.0000000  0 13G30G15G20G21R07R24G27G13R06R16R09R08
                                R23
  25029398.610 5 131530450.93105
  20140013.909 8 105836484.71708  82469986.68506  20140012.154 6
  22515601.893 7 118320282.46407  92197627.43504  22515600.130 4
  21776430.159 6 114435909.29706  89170839.38002  21776427.416 2
  20231458.428 7 108300590.03807
  22777716.950 6 121802654.66106
  24890659.027 6 130801293.55506 101923099.28702  24890659.761 2
  21319158.902 8 112032942.34708  87298381.02005  21319157.749 5
  23678560.876 5 126353319.11805
  22599469.553 6 120722312.45506
  21978996.605 7 117366605.73307
  20236313.452 7 108364556.27907
  20366450.720 6 108946779.56106
 18 10 16 19 10 36.0000000  0 13G30G15G20G21R07R24G27G13R06R16R09R08
                                R23
  25029849.726 5 131532822.97305
  20139924.214 8 105836013.51608  82469619.51706  20139922.489 6
  22514993.173 7 118317083.82307  92195134.98804  22514991.439 4
  21776156.251 6 114434469.71806  89169717.63102  21776153.525 2
  20231699.003 7 108301877.77707
  22777040.042 6 121799035.69206
  24890345.272 6 130799644.26606 101921814.14802  24890345.970 2
  21319509.588 7 112034785.05507  87299816.89505  21319508.419 5
  23679111.625 5 126356255.80205
  22599689.966 6 120723491.09606
  21978459.614 7 117363737.69307
  20235985.754 7 108362801.97307
  20366392.412 6 108946467.26506
 18 10 16 19 10 37.0000000  0 13G30G15G20G21R07R24G27G13R06R16R09R08
                                R23
  25030301.266 5 131535195.92105
  20139834.744 8 105835543.37108  82469253.17106  20139833.016 6
  22514384.807 7 118313885.85507  92192643.07004  22514382.901 4
  21775882.428 6 114433031.14106  89168596.65902  21775879.795 2
  20231939.661 7 108303166.33707
  22776363.390 6 121795417.87006
  24890031.569 6 130797996.11506 101920529.87302  24890032.357 2
  21319860.400 8 112036628.67408  87301253.48105  21319859.262 5
  23679662.154 5 126359193.05505
  22599911.017 6 120724671.06006
  21977922.778 7 117360870.78907
  20235658.524 7 108361048.52907
  20366335.048 6 108946156.42306
 18 10 16 19 10 38.0000000  0 13G30G15G20G21R07R24G27G13R06R16R09R08
                                R23
  25030752.859 5 131537569.04105
  20139745.381 8 105835073.53008  82468887.06106  20139743.606 6
  22513776.168 7 118310687.81107  92190151.08604  22513774.353 4
  21775608.359 6 114431592.79106  89167475.86702  21775606.051 2
  20232180.429 7 108304454.97207
  22775686.769 6 121791800.38506
  24889717.855 6 130796348.27306 101919245.83302  24889718.784 2
  21320211.243 8 112038472.44608  87302690.18405  21320210.110 5
  23680213.384 5 126362130.11105
  22600131.977 6 120725851.64006
  21977385.899 7 117358004.34207
  20235331.037 7 108359295.20607
  20366277.001 6 108945846.28806
 18 10 16 19 10 39.0000000  0 13G30G15G20G21R07R24G27G13R06R16R09R08
                                R23
  25031204.708 5 131539942.18105
  20139656.022 8 105834603.90908  82468521.12406  20139654.236 6
  22513167.525 7 118307489.59707  92187658.97004  22513165.761 4
  21775334.608 6 114430154.59006  89166355.19502  21775332.401 2
  20232421.181 7 108305743.59607
  22775010.153 6 121788183.18906
  24889403.926 6 130794700.73506 101917962.01202  24889405.234 2
  21320562.149 8 112040316.30208  87304126.95605  21320560.998 5
  23680763.887 5 126365066.81905
  22600353.624 6 120727032.65806
  21976849.134 7 117355138.19607
  20235003.634 7 108357541.90307
  20366219.396 6 108945536.76006
 18 10 16 19 10 40.0000000  0 13G30G15G20G21R07R24G27G13R06R16R09R08
                                R23
  25031656.780 5 131542315.63605
  20139566.759 8 105834134.73908  82468155.53706  20139564.947 6
  22512558.898 7 118304291.42507  92185166.89804  22512557.173 4
  21775061.001 6 114428716.78306  89165234.82302  21775058.800 2
  20232661.823 7 108307032.44107
  22774333.949 6 121784566.46706
  24889090.048 6 130793053.68006 101916678.61202  24889091.809 2
  21320913.171 8 112042160.46608  87305563.96605  21320911.918 5
  23681314.020 5 126368003.42905
  22600574.935 6 120728214.44906
  21976312.432 7 117352272.56107
  20234676.190 7 108355788.86007
  20366161.755 6 108945228.08306
 18 10 16 19 10 41.0000000  0 13G30G15G20G21R07R24G27G13R06R16R09R08
                                R23
  25032109.201 4 131544689.75604
  20139477.626 8 105833666.37408  82467790.58306  20139475.814 6
  22511950.514 7 118301093.66507  92182675.13104  22511948.639 4
  21774787.523 6 114427279.71606  89164115.01702  21774785.311 2
  20232902.704 7 108308321.83007
  22773657.810 6 121780950.60106
  24888776.217 6 130791407.48606 101915395.84902  24888778.585 2
  21321264.205 8 112044005.29208  87307001.49505  21321262.954 5
  23681863.996 5 126370940.32005
  22600796.714 6 120729397.29706
  21975776.065 7 117349407.86507
  20234348.951 7 108354036.41607
  20366104.202 6 108944920.62906
 18 10 16 19 10 42.0000000  0 13G30G15G20G21R07R24G27G13R06R16R09R08
                                R23
  25032560.624 5 131547064.00105
  20139388.520 8 105833198.33308  82467425.87506  20139386.743 6
  22511341.943 7 118297895.84807  92180183.33004  22511340.145 4
  21774514.171 6 114425842.89406  89162995.41302  21774511.912 2
  20233143.643 7 108309611.27507
  22772981.532 6 121777335.03306
  24888463.138 6 130789761.60706 101914113.35102  24888465.420 2
  21321615.364 8 112045850.28908  87308439.15505  21321614.043 5
  23682414.119 5 126373876.98805
  22601018.395 6 120730580.78106
  21975239.640 7 117346543.54707
  20234021.850 7 108352284.09607
  20366046.563 6 108944613.91106
 18 10 16 19 10 43.0000000  0 13G30G15G20G21R07R24G27G13R06R16R09R08
                                R23
  25033013.314 5 131549438.84905
  20139299.623 8 105832731.13608  82467061.82606  20139297.839 6
  22510733.363 7 118294698.47407  92177691.87104  22510731.700 4
  21774240.694 6 114424406.86506  89161876.43602  21774238.651 2
  20233384.699 7 108310901.33907
  22772305.874 6 121773720.40106
  24888150.296 6 130788116.64606 101912831.55702  24888152.397 2
  21321966.564 8 112047695.98608  87309877.36005  21321965.271 5
  23682964.222 5 126376813.97905
  22601239.961 6 120731765.35106
  21974703.308 7 117343680.19907
  20233694.887 7 108350532.41207
  20365989.531 6 108944308.42906
 18 10 16 19 10 44.0000000  0 13G30G15G20G21R07R24G27G13R06R16R09R08
                                R23
  25033466.414 5 131551813.60705
  20139210.729 8 105832263.95408  82466697.78706  20139208.938 6
  22510124.757 7 118291500.75907  92175200.13904  22510123.197 4
  21773967.279 6 114422970.77506  89160757.41202  21773965.377 2
  20233625.364 7 108312191.18307
  22771630.235 6 121770105.87006
  24887837.640 6 130786471.76806 101911549.83702  24887839.370 2
  21322317.852 7 112049541.55507  87311315.46605  21322316.481 5
  23683513.908 5 126379750.40205
  22601461.599 6 120732950.23306
  21974166.970 7 117340816.95607
  20233367.577 7 108348780.54907
  20365932.470 6 108944003.38906
 18 10 16 19 10 45.0000000  0 13G30G15G20G21R07R24G27G13R06R16R09R08
                                R23
  25033919.506 4 131554189.05704
  20139121.974 8 105831797.73408  82466334.49706  20139120.235 6
  22509516.300 7 118288303.57907  92172708.83104  22509514.851 4
  21773694.164 6 114421535.57206  89159639.06302  21773692.290 2
  20233866.388 7 108313481.75107
  22770954.260 6 121766492.31506
  24887524.659 6 130784827.85506 101910268.86902  24887526.558 2
  21322669.240 7 112051387.95807  87312754.22205  21322667.911 5
  23684064.165 5 126382687.28405
  22601683.531 6 120734136.34806
  21973631.014 7 117337954.78407
  20233040.386 7 108347029.44407
  20365875.406 6 108943699.72006
 18 10 16 19 10 46.0000000  0 13G30G15G20G21R07R24G27G13R06R16R09R08
                                R23
  25034373.094 4 131556565.54204
  20139033.485 8 105831332.55408  82465972.01906  20139031.732 6
  22508908.042 7 118285107.05207  92170218.03204  22508906.599 4
  21773420.983 6 114420101.36406  89158521.50902  21773419.414 2
  20234107.647 7 108314773.11207
  22770278.556 6 121762879.86706
  24887212.265 6 130783185.02306 101908988.73202  24887213.947 2
  21323020.740 7 112053235.23807  87314193.65705  21323019.434 5
  23684615.297 5 126385624.68905
  22601905.652 6 120735323.80306
  21973095.250 7 117335093.78007
  20232713.552 7 108345279.20607
  20365818.560 6 108943397.48606
 18 10 16 19 10 47.0000000  0 13G30G15G20G21R07R24G27G13R06R16R09R08
                                R23
  25034825.859 4 131558942.25304
  20138945.046 8 105830867.90708  82465609.95606  20138943.328 6
  22508299.870 7 118281910.67507  92167727.35004  22508298.386 4
  21773148.385 6 114418667.62606  89157404.28902  21773146.565 2
  20234348.759 7
  22769603.082 6 121759267.99306
  24886899.701 6 130781542.78706 101907709.06302  24886901.461 2
  21323372.210 7 112055082.91407  87315633.40805  21323371.042 5
  23685165.295 5 126388562.09705
  22602128.132 6 120736512.04706
  21972559.937 7 117332233.37507
  20232386.697 7 108343529.33507
  20365762.413 6 108943096.19106
 18 10 16 19 10 48.0000000  0 13G30G15G20G21R07R24G27G13R06R16R09R08
                                R23
  25035278.718 5 131561318.94205
  20138856.661 8 105830403.38808  82465247.99206  20138854.947 6
  22507691.538 7 118278714.02507  92165236.45704  22507690.147 4
  21772875.553 6 114417233.92606  89156287.13102  21772873.724 2
  20234589.940 7
  22768927.632 6 121755656.24006
  24886587.467 6 130779900.71206 101906429.51002  24886589.015 2
  21323723.734 7 112056930.58507  87317073.15005  21323722.655 5
  23685715.941 5 126391499.06605
  22602350.627 6 120737700.70506
  21972024.390 7 117329373.17807
  20232059.618 7 108341779.40107
  20365706.191 6 108942795.39806
 18 10 16 19 10 49.0000000  0 13G30G15G20G21R07R24G27G13R06R16R09R08
                                R23
  25035730.669 5 131563695.95705
  20138768.386 8 105829939.35908  82464886.41306  20138766.659 6
  22507083.239 7 118275517.49007  92162745.64804  22507081.881 4
  21772602.865 6 114415800.66506  89155170.30602  21772600.991 2
  20234831.305 7 108318648.17107
  22768251.905 6 121752045.04806
  24886274.649 6 130778259.19206 101905150.42102  24886276.699 2
  21324075.261 7 112058778.59007  87318513.15105  21324074.303 5
  23686265.547 5 126394435.96805
  22602573.246 6 120738890.12306
  21971488.645 7 117326513.56807
  20231732.794 7 108340029.78707
  20365649.739 6 108942495.48506
 18 10 16 19 10 50.0000000  0 13G30G15G20G21R07R24G27G13R06R16R09R08
                                R23
  25036183.891 5 131566073.17405
  20138680.165 8 105829475.68608  82464525.11006  20138678.434 6
  22506474.911 7 118272320.91207  92160254.81104  22506473.624 4
  21772330.479 6 114414367.68406  89154053.69202  21772328.334 2
  20235072.676 7 108319940.12707
  22767576.427 6 121748434.24506
  24885962.105 6 130776618.08106 101903871.65102  24885964.482 2
  21324426.983 7 112060626.80507  87319953.31605  21324426.009 5
  23686816.163 5 126397372.74005
  22602795.730 6 120740080.16206
  21970953.240 7 117323654.41007
  20231406.317 7 108338280.32107
  20365594.261 6 108942196.34306
 18 10 16 19 10 51.0000000  0 13G30G15G20G21R07R24G27G13R06R16R09R08
                                R23
  25036636.271 5 131568450.58705
  20138592.060 8 105829012.38608  82464164.09706  20138590.285 6
  22505866.609 7 118269124.32207  92157763.95904  22505865.359 4
  21772057.802 6 114412935.02606  89152937.35002  21772055.739 2
  20235314.126 7 108321232.20707
  22766901.476 6 121744823.84806
  24885649.719 6 130774977.35006 101902593.15702  24885652.304 2
  21324778.722 7 112062475.25107  87321393.66305  21324777.779 5
  23687366.627 5 126400309.29405
  22603018.781 6 120741270.86706
  21970417.849 7 117320795.71907
  20231079.580 7 108336531.00307
  20365538.731 6 108941897.99006
 18 10 16 19 10 52.0000000  0 13G30G15G20G21R07R24G27G13R06R16R09R08
                                R23
  25037088.384 5 131570828.02705
  20138503.862 8 105828549.26408  82463803.22206  20138502.167 6
  22505258.104 7 118265927.51907  92155272.94404  22505257.035 4
  21771785.305 6 114411502.47106  89151821.05802  21771783.158 2
  20235555.530 7 108322524.19407
  22766226.660 6 121741213.69306
  24885337.463 6 130773336.85006 101901314.83302  24885340.145 2
  21325130.516 7 112064323.72707  87322834.03705  21325129.575 5
  23687916.134 5 126403245.49105
  22603241.303 6 120742461.99606
  21969882.386 7 117317937.29807
  20230752.881 7 108334781.63607
  20365483.595 6 108941600.20706
 18 10 16 19 10 53.0000000  0 13G30G15G20G21R07R24G27G13R06R16R09R08
                                R23
  25037540.210 5 131573205.62105
  20138415.795 8 105828086.53208  82463442.65306  20138414.134 6
  22504649.771 7 118262730.72407  92152781.93604  22504648.670 4
  21771512.941 6 114410070.26206  89150705.05302  21771510.639 2
  20235796.928 7 108323816.28507
  22765551.565 6 121737603.96206
  24885025.523 6 130771696.78206 101900036.85502  24885028.061 2
  21325482.334 7 112066172.46107  87324274.60805  21325481.411 5
  23688466.713 5 126406181.59505
  22603464.482 6 120743653.80206
  21969347.126 7 117315079.37407
  20230426.394 7 108333032.47207
  20365428.821 6 108941303.21406
 18 10 16 19 10 54.0000000  0 13G30G15G20G21R07R24G27G13R06R16R09R08
                                R23
  25037992.269 5 131575583.71005
  20138327.834 8 105827624.37208  82463082.52906  20138326.200 6
  22504041.490 7 118259534.09807  92150291.05704  22504040.382 4
  21771240.533 6 114408638.53306  89149589.42502  21771238.174 2
  20236038.264 7 108325108.70207
  22764876.824 6 121733994.86006
  24884713.779 6 130770057.31406 101898759.35002  24884716.121 2
  21325834.185 7 112068021.60607  87325715.50405  21325833.319 5
  23689015.839 5 126409117.63305
  22603687.641 6 120744846.48406
  21968811.757 7 117312222.10807
  20230099.759 7 108331283.71807
  20365373.657 6 108941007.21206
 18 10 16 19 10 55.0000000  0 13G30G15G20G21R07R24G27G13R06R16R09R08
                                R23
  25038444.403 5 131577962.07205
  20138240.012 8 105827162.68308  82462722.77106  20138238.355 6
  22503433.174 7 118256337.56707  92147800.25504  22503432.098 4
  21770968.434 6 114407207.24006  89148474.13302  21770965.808 2
  20236279.488 7 108326401.39107
  22764201.979 6 121730386.23806
  24884401.938 6 130768418.39406 101897482.27202  24884404.301 2
  21326186.268 7 112069871.08207  87327156.65305  21326185.293 5
  23689566.610 5 126412053.70305
  22603910.447 6 120746039.94506
  21968276.832 7 117309365.42307
  20229773.232 7 108329535.26107
  20365318.625 6 108940712.11106
 18 10 16 19 10 56.0000000  0 13G30G15G20G21R07R24G27G13R06R16R09R08
                                R23
  25038896.162 5 131580340.90305
  20138152.211 8 105826701.67708  82462363.54806  20138150.635 6
  22502825.049 7 118253141.34407  92145309.69004  22502823.877 4
  21770696.105 6 114405776.55706  89147359.32102  21770693.607 2
  20236521.089 7 108327694.56307
  22763527.393 6 121726778.35806
  24884090.254 6 130766780.18306 101896205.75102  24884092.616 2
  21326538.361 7 112071721.10507  87328598.22905  21326537.322 5
  23690116.932 5 126414989.91005
  22604134.459 6 120747234.35406
  21967741.800 7 117306509.52307
  20229446.735 7 108327787.31807
  20365263.233 6 108940418.08206
 18 10 16 19 10 57.0000000  0 13G30G15G20G21R07R24G27G13R06R16R09R08
                                R23
  25039347.784 5 131582720.11405
  20138064.625 8 105826241.19208  82462004.72706  20138063.009 6
  22502217.040 7 118249945.24807  92142819.22603  22502215.620 3
  21770423.896 6 114404346.31506  89146244.84702  21770421.468 2
  20236762.803 7 108328987.98207
  22762852.824 6 121723171.04206
  24883778.656 6 130765142.54306 101894929.65802  24883781.051 2
  21326890.543 7 112073571.50407  87330040.09505  21326889.431 5
  23690667.072 5 126417926.04105
  22604358.386 6 120748429.56606
  21967207.301 7 117303654.25907
  20229120.324 7 108326039.67407
  20365208.489 6 108940124.96206
 18 10 16 19 10 58.0000000  0 13G30G15G20G21R07R24G27G13R06R16R09R08
                                R23
  25039799.592 5 131585099.47405
  20137977.067 8 105825781.02408  82461646.15806  20137975.419 6
  22501608.655 7 118246749.06507  92140328.69704  22501607.368 4
  21770151.644 6 114402916.34306  89145130.58302  21770149.334 2
  20237004.330 7 108330281.45907
  22762178.124 6 121719564.07306
  24883467.400 6 130763505.29606 101893653.87802  24883469.540 2
  21327242.814 7 112075422.08307  87331482.10905  21327241.558 5
  23691217.618 5 126420862.06005
  22604582.295 6 120749625.33806
  21966672.875 7 117300799.39007
  20228793.989 7 108324292.15507
  20365154.120 6 108939832.54706
 18 10 16 19 10 59.0000000  0 13G30G15G20G21R07R24G27G13R06R16R09R08
                                R23
  25040251.164 5 131587478.93405
  20137889.563 8 105825321.14708  82461287.81306  20137887.900 6
  22501000.360 7 118243552.79307  92137838.09904  22500999.089 4
  21769879.550 6 114401486.58306  89144016.48802  21769877.259 2
  20237246.056 7 108331574.96407
  22761504.069 6 121715957.43206
  24883155.615 6 130761868.34806 101892378.34102  24883158.029 2
  21327595.096 7 112077272.80407  87332924.23005  21327593.707 5
  23691768.266 5 126423797.78905
  22604806.132 6 120750821.66906
  21966138.422 7 117297944.89707
  20228467.788 7 108322544.70907
  20365099.722 6 108939540.83606
 18 10 16 19 11  0.0000000  0 13G30G15G20G21R07R24G27G13R06R16R09R08
                                R23
  25040702.374 5 131589858.93405
  20137802.212 8 105824861.99408  82460930.03106  20137800.511 6
  22500392.033 7 118240356.85407  92135347.75804  22500390.845 4
  21769607.308 6 114400057.48506  89142902.90902  21769605.321 2
  20237487.717 7 108332868.96607
  22760829.816 6 121712351.55806
  24882844.260 6 130760232.17706 101891103.40402  24882846.656 2
  21327947.319 7 112079124.09507  87334366.79405  21327946.004 5
  23692318.458 5 126426733.69705
  22605030.115 6 120752019.03406
  21965603.939 7 117295091.24707
  20228141.671 7 108320797.77107
  20365045.040 6 108939250.24506
 18 10 16 19 11  1.0000000  0 13G30G15G20G21R07R24G27G13R06R16R09R08
                                R23
  25041154.372 5 131592239.13905
  20137714.880 8 105824403.20508  82460572.53506  20137713.198 6
  22499783.956 7 118237160.88707  92132857.39404  22499782.619 4
  21769335.270 6 114398628.69706  89141789.57702  21769333.366 2
  20237729.457 7 108334163.08807
  22760155.309 6 121708746.12506
  24882533.207 6 130758596.40806 101889828.77502  24882535.427 2
  21328299.709 7 112080975.60807  87335809.53105  21328298.318 5
  23692868.522 5 126429669.45805
  22605254.413 6 120753217.01106
  21965069.646 7 117292238.07707
  20227815.422 7 108319051.03007
  20364990.633 6 108938960.41406
 18 10 16 19 11  2.0000000  0 13G30G15G20G21R07R24G27G13R06R16R09R08
                                R23
  25041606.299 5 131594619.71705
  20137627.633 8 105823944.95008  82460215.45506  20137625.984 6
  22499175.836 7 118233965.08707  92130367.16404  22499174.456 4
  21769063.673 6 114397200.37706  89140676.59702  21769061.523 2
  20237971.397 7 108335457.51507
  22759481.420 6 121705141.26806
  24882221.969 6 130756961.21006 101888554.58702  24882224.336 2
  21328652.126 7 112082827.51607  87337252.57505  21328650.722 5
  23693419.192 5 126432605.21505
  22605478.947 6 120754415.80906
  21964535.787 7 117289385.55407
  20227489.419 7 108317304.64507
  20364936.751 6 108938671.54206
 18 10 16 19 11  3.0000000  0 13G30G15G20G21R07R24G27G13R06R16R09R08
                                R23
  25042058.571 5 131597000.51005
  20137540.425 8 105823487.08608  82459858.67906  20137538.850 6
  22498567.744 7 118230769.27407  92127876.91704  22498566.289 4
  21768792.142 6 114395772.37706  89139563.85902  21768789.805 2
  20238213.286 7 108336752.09007
  22758806.989 6 121701536.85006
  24881910.633 6 130755326.44706 101887280.73602  24881913.241 2
  21329004.520 7 112084679.65907  87338695.80405  21329003.171 5
  23693969.692 5 126435540.74505
  22605703.510 6 120755615.28506
  21964001.789 7 117286533.47207
  20227163.326 7 108315558.47907
  20364882.738 6 108938383.41006
 18 10 16 19 11  4.0000000  0 13G30G15G20G21R07R24G27G13R06R16R09R08
                                R23
  25042511.769 5 131599381.83105
  20137453.426 8 105823029.92508  82459502.44906  20137451.850 6
  22497959.520 7 118227573.78007  92125386.91904  22497958.148 4
  21768520.503 6 114394345.02606  89138451.63502  21768518.189 2
  20238455.076 7 108338047.17207
  22758133.503 6 121697933.20506
  24881599.905 6 130753692.45406 101886007.49602  24881602.302 2
  21329357.043 7 112086532.36707  87340139.47505  21329355.745 5
  23694520.174 5 126438476.51905
  22605928.073 6 120756815.72506
  21963467.669 7 117283682.19807
  20226837.238 7 108313812.81307
  20364828.831 6 108938096.42306
 18 10 16 19 11  5.0000000  0 13G30G15G20G21R07R24G27G13R06R16R09R08
                                R23
  25042965.245 5 131601763.56705
  20137366.520 8 105822573.37908  82459146.70106  20137364.953 6
  22497351.403 7 118224378.50307  92122897.09304  22497350.079 4
  21768248.930 6 114392918.20106  89137339.81202  21768246.677 2
  20238696.921 7 108339342.59707
  22757459.941 6 121694330.19506
  24881289.179 6 130752059.09906 101884734.76302  24881291.551 2
  21329709.831 7 112088385.55107  87341583.51605  21329708.386 5
  23695071.114 5 126441412.37705
  22606153.275 6 120758017.08506
  21962933.865 7 117280831.68407
  20226511.383 7 108312067.54707
  20364774.990 6 108937810.43506
 18 10 16 19 11  6.0000000  0 13G30G15G20G21R07R24G27G13R06R16R09R08
                                R23
  25043418.462 5 131604145.37505
  20137279.669 8 105822117.03508  82458791.10706  20137278.101 6
  22496743.296 7 118221183.04707  92120407.12604  22496741.983 4
  21767977.468 6 114391491.55006  89136228.14802  21767975.223 2
  20238938.811 7 108340637.98307
  22756786.625 6 121690727.44406
  24880978.671 6 130750426.00306 101883462.22402  24880980.814 2
  21330062.546 7 112090238.77907  87343027.59205  21330061.041 5
  23695620.567 5 126444347.89405
  22606378.471 6 120759218.90806
  21962400.036 7 117277981.43207
  20226185.674 7 108310322.28607
  20364721.359 6 108937525.06306
 18 10 16 19 11  7.0000000  0 13G30G15G20G21R07R24G27G13R06R16R09R08
                                R23
  25043872.040 5 131606527.70905
  20137193.041 8 105821661.40008  82458436.06806  20137191.387 6
  22496135.338 7 118217987.89807  92117917.39804  22496133.941 4
  21767706.117 6 114390065.51306  89135116.95202  21767703.867 2
  20239180.817 7 108341933.83207
  22756113.036 6 121687125.41206
  24880668.243 6 130748793.64106 101882190.25302  24880670.201 2
  21330415.296 7 112092092.56107  87344472.09405  21330413.785 5
  23696170.750 5 126447283.60405
  22606603.981 6 120760421.67606
  21961866.251 7 117275131.98507
  20225859.730 7 108308577.56307
  20364668.111 6 108937240.81506
 18 10 16 19 11  8.0000000  0 13G30G15G20G21R07R24G27G13R06R16R09R08
                                R23
  25044325.928 5 131608910.16705
  20137106.434 8 105821206.07108  82458081.26506  20137104.731 6
  22495527.193 7 118214792.68307  92115427.61904  22495525.890 4
  21767434.680 6 114388639.73006  89134005.95902  21767432.546 2
  20239422.851 7 108343229.75507
  22755439.337 6 121683523.73106
  24880357.528 6 130747161.64706 101880918.56502  24880359.678 2
  21330768.011 7 112093946.52407  87345916.74005  21330766.582 5
  23696720.908 5 126450219.09805
  22606828.763 6 120761625.01406
  21961332.771 7 117272282.96907
  20225534.031 7 108306832.95607
  20364614.857 6 108936957.28406
 18 10 16 19 11  9.0000000  0 13G30G15G20G21R07R24G27G13R06R16R09R08
                                R23
  25044779.705 5 131611293.48505
  20137020.104 8 105820751.77608  82457727.26906  20137018.273 6
  22494919.557 7 118211598.10807  92112938.33904  22494917.964 4
  21767163.353 6 114387214.93706  89132895.72102  21767161.414 2
  20239665.179 7 108344526.44607
  22754766.240 6 121679923.12406
  24880047.287 6 130745530.74406 101879647.73702  24880049.357 2
  21331121.077 7 112095801.36307  87347362.06605  21331119.532 5
  23697271.017 5 126453155.05205
  22607054.455 6 120762829.70306
  21960799.509 7 117269435.07807
  20225208.714 7 108305089.19807
  20364562.660 6 108936675.20006
 18 10 16 19 11 10.0000000  0 13G30G15G20G21R07R24G27G13R06R16R09R08
                                R23
  25045233.280 5 131613677.31405
  20136933.794 8 105820298.15508  82457373.79806  20136931.948 6
  22494311.887 7 118208403.81307  92110449.28104  22494310.105 4
  21766892.481 6 114385790.72806  89131785.94602  21766890.394 2
  20239907.627 7 108345823.55407
  22754093.138 6 121676323.25906
  24879737.098 6 130743900.53306 101878377.43402  24879739.147 2
  21331474.203 7 112097656.74207  87348807.81105  21331472.585 5
  23697820.413 5 126456091.11005
  22607280.315 6 120764035.38506
  21960266.454 7 117266587.95907
  20224883.265 7 108303345.91407
  20364510.295 6 108936394.15006
 18 10 16 19 11 11.0000000  0 13G30G15G20G21R07R24G27G13R06R16R09R08
                                R23
  25045686.538 5 131616061.39605
  20136847.575 8 105819844.95708  82457020.65806  20136845.690 6
  22493704.193 7 118205209.56207  92107960.26104  22493702.264 4
  21766621.544 6 114384366.86206  89130676.43702  21766619.471 2
  20240149.881 7 108347120.84907
  22753419.778 6 121672723.87406
  24879427.042 6 130742270.81206 101877107.52102  24879429.004 2
  21331827.296 7 112099512.39407  87350253.77505  21331825.704 5
  23698370.795 5 126459027.06805
  22607506.325 6 120765241.74006
  21959733.410 7 117263741.36907
  20224557.640 7 108301602.84307
  20364458.072 6 108936114.00506
 18 10 16 19 11 12.0000000  0 13G30G15G20G21R07R24G27G13R06R16R09R08
                                R23
  25046140.692 5 131618446.06705
  20136761.530 8 105819392.54208  82456668.12706  20136759.589 6
  22493096.416 7 118202015.69507  92105471.53404  22493094.476 4
  21766350.721 6 114382943.73306  89129567.50202  21766348.670 2
  20240392.143 7 108348418.69707
  22752746.258 6 121669125.33606
  24879116.930 6 130740641.91106 101875838.24202  24879118.977 2
  21332180.451 7 112101368.68507  87351700.23605  21332178.967 5
  23698921.143 5 126461963.27805
  22607732.221 6 120766449.16206
  21959200.461 7 117260895.66607
  20224232.226 7 108299860.36407
  20364406.117 6 108935835.02506
 18 10 16 19 11 13.0000000  0 13G30G15G20G21R07R24G27G13R06R16R09R08
                                R23
  25046594.555 5 131620830.95405
  20136675.475 8 105818940.48908  82456315.87806  20136673.560 6
  22492488.623 7 118198821.79807  92102982.78304  22492486.653 4
  21766079.994 6 114381520.88806  89128458.78602  21766077.891 2
  20240634.540 7 108349716.65807
  22752073.568 6 121665527.20406
  24878806.960 6 130739013.41306 101874569.29003  24878809.022 3
  21332533.695 7 112103225.17907  87353146.85405  21332532.256 5
  23699471.182 5 126464899.31905
  22607957.937 6 120767657.22306
  21958667.471 7 117258050.42307
  20223906.742 7 108298118.04607
  20364353.651 6 108935556.77306
 18 10 16 19 11 14.0000000  0 13G30G15G20G21R07R24G27G13R06R16R09R08
                                R23
  25047048.524 5 131623216.09805
  20136589.453 8 105818488.86508  82455963.96306  20136587.611 6
  22491880.728 7 118195627.96507  92100494.08104  22491878.848 4
  21765809.324 6 114380098.44006  89127350.38702  21765807.188 2
  20240876.979 7 108351014.82007
  22751400.547 6 121661929.55106
  24878497.192 6 130737385.39506 101873300.71602  24878499.202 2
  21332887.007 7 112105081.97407  87354593.70905  21332885.573 5
  23700021.501 5 126467835.26405
  22608183.642 6 120768865.96206
  21958134.803 7 117255205.71907
  20223581.455 7 108296375.99707
  20364300.983 6 108935279.37106
 18 10 16 19 11 15.0000000  0 13G30G15G20G21R07R24G27G13R06R16R09R08
                                R23
  25047503.759 5 131625602.07505
  20136503.621 8 105818038.32508  82455612.89506  20136501.867 6
  22491273.152 7 118192434.80707  92098005.90404  22491271.235 4
  21765538.896 6 114378677.01206  89126242.77502  21765536.731 2
  20241119.621 7 108352313.85907
  22750727.922 6 121658333.03406
  24878187.241 6 130735758.52506 101872033.01502  24878189.631 2
  21333240.553 7 112106939.70707  87356041.29505  21333239.090 5
  23700572.029 5 126470771.76205
  22608410.314 6 120770076.09306
  21957602.135 7 117252362.22307
  20223256.255 7 108294634.86807
  20364249.670 5 108935003.46105
 18 10 16 19 11 16.0000000  0 13G30G15G20G21R07R24G27G13R06R16R09R08
                                R23
  25047958.319 5 131627988.33905
  20136417.905 8 105817588.14808  82455262.10606  20136416.195 6
  22490665.646 7 118189241.63807  92095517.72204  22490663.608 4
  21765268.314 6 114377255.89106  89125135.42202  21765266.327 2
  20241362.433 7 108353613.01407
  22750055.121 6 121654736.89406
  24877877.298 6 130734132.00706 101870765.58102  24877880.114 2
  21333594.185 7 112108797.66407  87357489.05605  21333592.652 5
  23701122.764 5 126473708.09605
  22608636.611 6 120771286.85506
  21957069.749 7 117249519.17207
  20222931.146 7 108292893.88207
  20364198.195 5 108934728.28405
 18 10 16 19 11 17.0000000  0 13G30G15G20G21R07R24G27G13R06R16R09R08
                                R23
  25048412.365 5 131630374.84105
  20136332.201 8 105817138.37108  82454911.63206  20136330.600 6
  22490058.050 7 118186048.49307  92093029.55904  22490055.991 4
  21764997.695 6 114375835.08806  89124028.30102  21764995.964 2
  20241605.123 7 108354912.32407
  22749382.589 6 121651141.19906
  24877567.532 6 130732505.97706 101869498.54702  24877570.701 2
  21333947.770 7 112110655.88307  87358937.01505  21333946.259 5
  23701672.753 5 126476644.24205
  22608863.304 6 120772498.32106
  21956537.294 7 117246676.63507
  20222605.951 7 108291153.11907
  20364146.639 5 108934453.92605
 18 10 16 19 11 18.0000000  0 13G30G15G20G21R07R24G27G13R06R16R09R08
                                R23
  25048866.893 4 131632761.45704
  20136246.656 8 105816688.92608  82454561.41606  20136245.066 6
  22489450.454 7 118182855.25607  92090541.32004  22489448.360 4
  21764727.523 6 114374414.56906  89122921.39402  21764725.672 2
  20241847.986 7
  22748710.301 6 121647545.87506
  24877257.782 6 130730880.29806 101868231.78902  24877261.363 2
  21334301.397 7 112112514.27307  87360385.11305  21334299.880 5
  23702222.405 5 126479580.19405
  22609090.062 6 120773710.39106
  21956005.273 7 117243834.53707
  20222281.048 7 108289412.47807
  20364095.491 6 108934180.33306
 18 10 16 19 11 19.0000000  0 13G30G15G20G21R07R24G27G13R06R16R09R08
                                R23
  25049321.187 4 131635148.57104
  20136161.223 8 105816240.20508  82454211.76306  20136159.667 6
  22488842.772 7 118179662.38907  92088053.37904  22488840.778 4
  21764457.354 6 114372994.72906  89121815.03102  21764455.488 2
  20242090.667 7
  22748038.268 6 121643951.34906
  24876948.382 6 130729255.42406 101866965.65102  24876952.186 2
  21334655.115 7 112114373.25907  87361833.67705  21334653.634 5
  23702772.319 5 126482516.36905
  22609317.249 6 120774923.45606
  21955473.066 7 117240993.26907
  20221956.028 7 108287672.38907
  20364044.808 6 108933907.85306
 18 10 16 19 11 20.0000000  0 12G15G20G21R07R24G27G13R06R16R09R08R23
  20136075.921 8 105815792.12708  82453862.61306  20136074.389 6
  22488235.216 7 118176469.78407  92085565.63304  22488233.259 4
  21764187.566 6 114371575.45806  89120709.10002  21764185.384 2
  20242333.507 7
  22747366.122 6 121640357.54206
  24876639.560 6 130727631.24006 101865700.06202  24876643.147 2
  21335008.945 7 112116232.72907  87363282.61705  21335007.451 5
  23703322.783 5 126485452.62705
  22609544.515 6 120776137.46006
  21954941.059 7 117238152.73207
  20221631.397 7 108285932.73707
  20363993.674 6 108933636.45306
 18 10 16 19 11 20.0000000  4  1
ANTENNA;APSAPS-3L       NONE;0.094;0.082                    COMMENT             
 18 10 16 19 11 21.0000000  0 13G30G15G20G21R07R24G27G13R06R16R09R08
                                R23
  25050227.902 4 131639924.01004
  20135990.748 8 105815344.34508  82453513.69206  20135989.182 6
  22487627.607 7 118173277.06607  92083077.80204  22487625.686 4
  21763917.748 6 114370156.42106  89119603.37802  21763915.325 2
  20242576.379 7
  22746694.084 6 121636764.05606
  24876330.722 6 130726007.37406 101864434.72702  24876334.122 2
  21335362.770 7 112118092.34707  87364731.66905  21335361.295 5
  23703873.061 5 126488388.59105
  22609772.038 6 120777351.98706
  21954409.226 7 117235312.58807
  20221306.465 7 108284193.15107
  20363943.243 6 108933365.73406
 18 10 16 19 11 22.0000000  0 13G30G15G20G21R07R24G27G13R06R16R09R08
                                R23
  25050680.678 4 131642312.49604
  20135905.796 8 105814897.41808  82453165.43806  20135904.128 6
  22487019.991 7 118170084.80807  92080590.33204  22487018.234 4
  21763647.864 6 114368738.17906  89118498.24602  21763645.426 2
  20242819.328 7
  22746022.113 6 121633171.47806
  24876021.926 6 130724384.41706 101863170.06602  24876025.160 2
  21335716.754 7 112119952.67207  87366181.27405  21335715.282 5
  23704423.551 5 126491324.94105
  22609999.912 6 120778567.67406
  21953877.358 7 117232473.41307
  20220981.681 7 108282454.23907
  20363893.404 6 108933096.27106
 18 10 16 19 11 23.0000000  0  6G30G15G20G21G27G13
  25051134.806 4 131644701.30904
  20135820.861 8 105814451.04108  82452817.61106  20135819.180 6
  22486412.686 7 118166892.72707  92078102.99204  22486410.809 4
  21763378.250 6 114367320.40306  89117393.47002  21763375.636 2
  24875713.629 6 130722762.06206 101861905.90502  24875716.368 2
  21336070.670 7 112121813.40207  87367631.19205  21336069.345 5
 18 10 16 19 11 24.0000000  0  9G30G15G20G21R08G27G13R09R07
  25051590.222 5 131647090.13405
  20135736.032 8 105814004.88608  82452469.96006  20135734.295 6
  22485805.093 7 118163700.46607  92075615.51504  22485803.335 4
  21763108.262 6 114365902.78706  89116288.83402  21763105.894 2
  20220334.103 7
  24875405.219 6 130721139.94306 101860641.92602  24875407.683 2
  21336424.764 7 112123674.19507  87369081.16005  21336423.422 5
  21952813.215 7
  20243305.033 7
 18 10 16 19 11 25.0000000  0  9G30G15G20G21R08G27G13R09R07
  25052045.354 5 131649479.13205
  20135651.234 8 105813559.05008  82452122.55506  20135649.460 6
  22485197.711 7 118160508.13807  92073127.99204  22485195.883 4
  21762838.490 6 114364485.42406  89115184.38602  21762836.170 2
  20220009.047 7 108277233.75017
  24875097.024 6 130719518.20106 101859378.21802  24875099.056 2
  21336778.962 7 112125535.16007  87370531.26105  21336777.539 5
  21952282.075 7 117223958.90517
  20243548.124 7 108365296.80417
 18 10 16 19 11 26.0000000  0 12G30G15G20G21R08R16G27G13R24R09R07R23
  25052501.415 5 131651868.79205
  20135566.587 8 105813114.02808  82451775.78506  20135564.772 6
  22484590.402 7 118157316.24107  92070640.80104  22484588.498 4
  21762568.920 6 114363068.81806  89114080.53502  21762566.585 2
  20219683.991 7 108275495.98507
  22610911.017 6 120783415.46516
  24874788.676 6 130717897.30906 101858115.18602  24874790.577 2
  21337133.146 7 112127396.80907  87371981.89705  21337131.799 5
  22743337.205 6 121618854.00816
  21951750.931 7 117221122.02707
  20243791.286 7 108366598.69907
  20363693.015 6
 18 10 16 19 11 27.0000000  0 13G30G15G20G21R08R16G27G13R24R09R07R23
                                R06
  25052956.816 5 131654258.44405
  20135481.948 8 105812669.18108  82451429.15206  20135480.110 6
  22483982.950 7 118154124.13507  92068153.44704  22483981.072 4
  21762299.376 6 114361652.34006  89112976.79602  21762297.049 2
  20219359.115 7 108273758.20007
  22611139.249 6 120784634.58206
  24874480.419 6 130716276.67106 101856852.34802  24874482.187 2
  21337487.443 7 112129258.45107  87373432.52205  21337486.063 5
  22742665.384 6 121615263.75206
  21951219.944 7 117218285.43207
  20244034.409 7 108367900.48607
  20363643.832 6 108931762.29916
  23707174.850 5 126506046.04115
 18 10 16 19 11 28.0000000  0 13G30G15G20G21R08R16G27G13R24R09R07R23
                                R06
  25053412.747 5 131656648.23905
  20135397.385 8 105812224.68408  82451082.78806  20135395.525 6
  22483375.496 7 118150931.97007  92065666.05304  22483373.661 4
  21762029.926 6 114360236.12706  89111873.26102  21762027.580 2
  20219034.223 7 108272020.56007
  22611368.236 6 120785854.33706
  24874172.038 6 130714656.40906 101855589.80902  24874173.882 2
  21337841.727 7 112131120.31207  87374883.32305  21337840.327 5
  22741994.309 6 121611673.86506
  21950688.777 7 117215449.28907
  20244277.627 7 108369202.37307
  20363594.327 6 108931497.67106
  23707724.484 5 126508981.61405
 18 10 16 19 11 29.0000000  0 13G30G15G20G21R08R16G27G13R24R09R07R23
                                R06
  25053867.870 5 131659038.06405
  20135312.828 8 105811780.38008  82450736.57906  20135310.985 6
  22482768.005 7 118147739.63107  92063178.51704  22482766.217 4
  21761760.303 6 114358820.04106  89110769.82702  21761758.147 2
  20218709.630 7 108270282.89007
  22611596.830 6 120787074.54306
  24873863.427 6 130713036.39306 101854327.46202  24873865.595 2
  21338196.075 7 112132982.21607  87376334.15805  21338194.641 5
  22741322.511 6 121608084.20006
  21950157.745 7 117212613.43107
  20244520.890 7 108370504.18507
  20363545.215 6 108931233.63506
  23708274.113 5 126511916.76705
 18 10 16 19 11 30.0000000  0 13G30G15G20G21R08R16G27G13R24R09R07R23
                                R06
  25054323.280 5 131661428.91005 102593277.37911  25054326.162 1
  20135228.549 8 105811337.30808  82450391.32806  20135226.681 6
  22482160.716 7 118144548.13407  92060691.63604  22482158.931 4
  21761491.061 6 114357405.15106  89109667.32302  21761488.906 2
  20218385.403 7 108268546.27807
  22611825.826 6 120788296.26206
  24873555.221 6 130711417.65506 101853066.10702  24873557.513 2
  21338550.609 7 112134845.21907  87377785.84805  21338549.182 5
  22740651.328 6 121604495.85606
  21949626.870 7 117209778.93807
  20244764.308 7 108371807.05107
  20363496.675 6 108930971.24606
  23708824.074 5 126514852.60605
 18 10 16 19 11 31.0000000  0 13G30G15G20G21R08R16G27G13R24R09R07R23
                                R06
  25054778.979 5 131663820.08305 102595140.62501  25054780.967 1
  20135144.257 8 105810894.64908  82450046.39806  20135142.436 6
  22481553.571 7 118141356.66207  92058204.76804  22481551.653 4
  21761221.841 6 114355990.58806  89108565.06602  21761219.723 2
  20218061.108 7 108266809.91507
  22612054.632 6 120789518.67306
  24873247.253 6 130709799.34606 101851805.08402  24873249.530 2
  21338905.365 7 112136708.47707  87379237.73205  21338903.742 5
  22739980.240 6 121600907.96406
  21949096.023 7 117206944.96907
  20245007.589 7 108373110.08607
  20363447.526 6 108930709.72106
  23709375.101 5 126517788.36805
 18 10 16 19 11 31.0000000  4  1
ANTENNA;APSAPS-3L       NONE;0.094;0.082                    COMMENT             
 18 10 16 19 11 32.0000000  0 13G30G15G20G21R08R16G27G13R24R09R07R23
                                R06
  25055233.635 5 131666211.35205 102597003.99001  25055235.878 1
  20135060.008 8 105810452.23208  82449701.65806  20135058.240 6
  22480946.310 7 118138165.05207  92055717.80104  22480944.358 4
  21760952.542 6 114354576.21906  89107462.94302  21760950.567 2
  20217736.933 7 108265073.60007
  22612283.822 6 120790741.57806
  24872939.001 6 130708181.38206 101850544.35102  24872941.650 2
  21339260.026 7 112138571.84007  87380689.70805  21339258.310 5
  22739309.507 6 121597320.37706
  21948565.388 7 117204111.33207
  20245250.927 7 108374413.12307
  20363398.470 6 108930448.77206
  23709924.834 5 126520723.77505
 18 10 16 19 11 33.0000000  0 13G30G15G20G21R08R16G27G13R24R09R07R23
                                R06
  25055688.753 5 131668603.36305 102598867.89401  25055690.812 1
  20134975.986 8 105810010.87408  82449357.74406  20134974.272 6
  22480339.112 7 118134974.11207  92053231.35704  22480337.210 4
  21760683.450 6 114353162.86106  89106361.62002  21760681.608 2
  20217412.835 7 108263338.15107
  22612512.750 6 120791965.83106
  24872631.219 6 130706564.48506 101849284.43202  24872633.953 2
  21339614.773 7 112140436.10007  87382142.37805  21339613.062 5
  22738638.625 6 121593733.95106
  21948035.116 7 117201278.85907
  20245494.535 7 108375716.96307
  20363349.528 6 108930189.32506
  23710474.517 5 126523659.76005
 18 10 16 19 11 34.0000000  0 13G30G15G20G21R08R16G27G13R24R09R07R23
                                R06
  25056143.057 5 131670995.51905 102600731.98901  25056145.612 1
  20134892.023 8 105809569.73508  82449014.00106  20134890.330 6
  22479731.773 7 118131783.00207  92050744.77404  22479729.959 4
  21760414.467 6 114351749.65006  89105260.41302  21760412.734 2
  20217088.737 7 108261602.71607
  22612741.830 6 120793190.59106
  24872323.443 6 130704947.84906 101848024.71402  24872326.270 2
  21339969.675 7 112142300.45307  87383595.11905  21339967.836 5
  22737967.545 6 121590147.80306
  21947504.914 7 117198446.70707
  20245738.068 7 108377020.79907
  20363301.153 6 108929930.49506
  23711024.968 5 126526595.44405
 18 10 16 19 11 35.0000000  0 13G30G15G20G21R08R16G27G13R24R09R07R23
                                R06
  25056597.753 4 131673388.28904 102602596.32801  25056600.993 1
  20134808.223 8 105809129.38208  82448670.86806  20134806.545 6
  22479124.511 7 118128592.29307  92048258.51104  22479122.798 4
  21760145.660 6 114350337.16206  89104159.77602  21760143.989 2
  20216764.709 7 108259867.89807
  22612971.666 6 120794416.41806
  24872016.090 6 130703332.08406 101846765.67402  24872018.788 2
  21340324.533 7 112144165.43907  87385048.35605  21340322.713 5
  22737296.715 6 121586562.48706
  21946974.654 7 117195615.45907
  20245981.743 7 108378325.17907
  20363252.953 6 108929672.79706
  23711575.159 5 126529531.33305
 18 10 16 19 11 36.0000000  0 13G30G15G20G21R08R16G27G13R24R09R07R23
                                R06
  25057053.105 4 131675781.62304 102604461.27501  25057056.432 1
  20134724.557 8 105808689.85008  82448328.37506  20134722.899 6
  22478517.387 7 118125402.01107  92045772.57704  22478515.761 4
  21759877.004 6 114348925.41306  89103059.71102  21759875.370 2
  20216441.001 7 108258133.72807
  22613201.494 6 120795643.36806
  24871708.594 6 130701717.14706 101845507.29002  24871711.507 2
  21340679.543 7 112146031.08607  87386502.10505  21340677.692 5
  22736626.791 6 121582978.02506
  21946444.578 7 117192785.13107
  20246225.600 7 108379630.13407
  20363205.301 6 108929416.32906
  23712125.576 5 126532467.56105
 18 10 16 19 11 37.0000000  0 13G30G15G20G21R08R16G27G13R24R09R07R23
                                R06
  25057507.542 4 131678175.05504 102606326.34301  25057511.321 1
  20134640.935 8 105808250.47808  82447986.00906  20134639.289 6
  22477910.279 7 118122211.50907  92043286.47304  22477908.645 4
  21759608.558 6 114347513.78106  89101959.76702  21759606.769 2
  20216116.981 7 108256399.52507
  22613431.801 6 120796870.80106
  24871401.536 6 130700102.42106 101844249.07002  24871404.261 2
  21341034.592 7 112147896.75607  87387955.87605  21341032.694 5
  22735956.460 6 121579393.73106
  21945915.120 7 117189955.08207
  20246469.510 7 108380935.01407
  20363157.323 6 108929160.46506
  23712674.313 5 126535403.43805
 18 10 16 19 11 38.0000000  0 13G30G15G20G21R08R16G27G13R24R09R07R23
                                R06
  25057963.589 4 131680568.45804 102608191.27701  25057966.653 1
  20134557.418 8 105807811.34508  82447643.82606  20134555.723 6
  22477303.151 7 118119020.86707  92040800.26004  22477301.501 4
  21759339.767 6 114346102.32306  89100859.91502  21759338.154 2
  20215793.151 7 108254665.33307
  22613661.608 6 120798098.67906
  24871094.224 6 130698487.99006 101842991.08402  24871097.012 2
  21341389.657 7 112149762.52307  87389409.71805  21341387.714 5
  22735286.320 6 121575809.69006
  21945385.243 7 117187125.37007
  20246713.461 7 108382239.90607
  20363109.341 6 108928905.23206
  23713224.143 5 126538338.97805
 18 10 16 19 11 39.0000000  0 13G30G15G20G21R08R16G27G13R24R09R07R23
                                R06
  25058418.920 4 131682962.30504 102610056.66901  25058422.021 1
  20134473.983 8 105807372.75308  82447302.06706  20134472.265 6
  22476695.920 7 118115830.37107  92038314.15504  22476694.385 4
  21759071.216 6 114344691.35106  89099760.44802  21759069.642 2
  20215469.362 7 108252931.48807
  22613891.322 6 120799327.34606
  24870786.584 6 130696874.13206 101841733.52402  24870789.865 2
  21341744.773 7 112151628.67207  87390863.86105  21341742.811 5
  22734616.083 6 121572226.22906
  21944855.566 7 117184296.27307
  20246957.423 7 108383545.07607
  20363062.104 6 108928650.93606
  23713773.888 5 126541274.51505
 18 10 16 19 11 40.0000000  0 13G30G15G20G21R08R16G27G13R24R09R07R23
                                R06
  25058875.144 4 131685356.44504 102611922.28101  25058877.478 1
  20134390.649 8 105806934.67208  82446960.70506  20134388.905 6
  22476088.860 7 118112639.99807  92035828.15404  22476087.272 4
  21758802.891 6 114343280.78906  89098661.31502  21758801.260 2
  20215145.628 7 108251197.96707
  22614121.557 6 120800556.82806
  24870479.995 5 130695260.85005 101840476.40602  24870482.830 2
  21342099.913 7 112153495.19207  87392318.29305  21342097.991 5
  22733946.099 6 121568643.35506
  21944325.920 7 117181467.82107
  20247201.250 7 108384850.51007
  20363014.750 6 108928397.57006
  23714323.862 5 126544210.03805
 18 10 16 19 11 41.0000000  0 13G30G15G20G21R08R16G27G13R24R09R07R23
                                R06
  25059329.707 4 131687750.90104 102613788.12801  25059332.953 1
  20134307.357 8 105806497.01008  82446619.67106  20134305.634 6
  22475481.707 7 118109449.67007  92033342.18504  22475480.187 4
  21758534.547 6 114341870.63506  89097562.48402  21758532.909 2
  20214822.105 7 108249464.67607
  22614351.656 6 120801787.01106
  24870173.148 6 130693648.03906 101839219.68602  24870175.871 2
  21342455.116 7 112155361.99007  87393772.94305  21342453.213 5
  22733276.248 6 121565060.94906
  21943796.071 7 117178639.88807
  20247445.195 7 108386156.09907
  20362967.567 6 108928144.99506
  23714874.727 5 126547145.39405
 18 10 16 19 11 41.0000000  4  1
ANTENNA;APSAPS-3L       NONE;0.094;0.082                    COMMENT             
 18 10 16 19 11 42.0000000  0 13G30G15G20G21R08R16G27G13R24R09R07R23
                                R06
  25059785.575 4 131690145.61104 102615654.17701  25059788.482 1
  20134224.162 8 105806059.83608  82446279.01806  20134222.444 6
  22474874.675 7 118106259.43507  92030856.29004  22474873.111 4
  21758266.644 6 114340460.89306  89096463.98902  21758264.647 2
  20214498.704 7 108247731.70907
  22614582.494 6 120803017.94106
  24869866.364 6 130692035.75006 101837963.34102  24869869.019 2
  21342810.415 7 112157229.12607  87395227.85405  21342808.514 5
  22732606.453 6 121561479.11906
  21943266.595 7 117175812.53207
  20247689.227 7 108387461.93607
  20362920.369 6 108927893.40906
  23715424.469 5 126550080.71805
 18 10 16 19 11 43.0000000  0 13G30G15G20G21R08R16G27G13R24R09R07R23
                                R06
  25060240.275 4 131692541.08304 102617520.72301  25060243.706 1
  20134141.157 8 105805623.56308  82445939.06506  20134139.424 6
  22474267.542 7 118103069.71307  92028370.78904  22474266.141 4
  21757998.538 6 114339051.99206  89095366.14102  21757996.537 2
  20214175.036 7 108245999.46707
  22614813.020 6 120804250.05506
  24869560.384 6 130690424.43006 101836707.76602  24869562.382 2
  21343165.854 7 112159097.01207  87396683.35105  21343163.955 5
  22731936.908 6 121557898.27906
  21942737.385 7 117172986.21407
  20247933.309 7 108388768.45707
  20362873.697 6 108927643.11706
  23715973.972 5 126553016.49005
 18 10 16 19 11 44.0000000  0 13G30G15G20G21R08R16G27G13R24R09R07R23
                                R06
  25060697.260 4 131694936.17104 102619386.93501  25060699.293 1
  20134058.134 8 105805187.17508  82445599.02406  20134056.382 6
  22473660.369 7 118099879.50907  92025884.92004  22473659.061 4
  21757730.505 6 114337642.92606  89094268.17302  21757728.419 2
  20213851.399 7 108244266.88807
  22615043.578 6 120805482.32506
  24869253.819 6 130688813.01806 101835452.12702  24869255.750 2
  21343521.072 8 112160964.64508  87398138.64805  21343519.324 5
  22731266.965 6 121554317.37006
  21942207.843 7 117170159.89607
  20248177.321 7 108390074.59607
  20362826.732 6 108927393.09006
  23716524.422 5 126555951.52105
 18 10 16 19 11 45.0000000  0 13G30G15G20G21R08R16G27G13R24R09R07R23
                                R06
  25061155.318 4 131697331.57004 102621253.47701  25061154.929 1
  20133975.189 8 105804751.26008  82445259.35106  20133973.428 6
  22473053.207 7 118096689.36307  92023399.09404  22473051.993 4
  21757462.353 6 114336234.26506  89093170.52902  21757460.385 2
  20213528.039 7 108242534.57007
  22615274.462 6 120806715.32606
  24868947.471 5 130687202.12505 101834196.88902  24868949.238 2
  21343876.511 8 112162832.58708  87399594.18805  21343874.768 5
  22730597.538 6 121550736.94906
  21941678.578 7 117167334.12207
  20248421.288 7 108391380.94907
  20362779.943 6 108927143.94406
  23717075.166 5 126558886.52805
 18 10 16 19 11 46.0000000  0 13G30G15G20G21R08R16G27G13R24R09R07R23
                                R06
  25061609.532 3 131699727.55003 102623120.44301  25061610.368 1
  20133892.363 8 105804316.03408  82444920.21406  20133890.614 6
  22472446.308 7 118093499.52507  92020913.50604  22472445.024 4
  21757194.587 6 114334826.20606  89092073.32602  21757192.437 2
  20213204.631 7 108240802.73407
  22615505.241 6 120807949.31706
  24868640.742 6 130685591.99806 101832942.24202  24868642.829 2
  21344232.032 8 112164701.06108  87401050.14105  21344230.320 5
  22729928.474 6 121547157.26706
  21941149.456 7 117164509.15307
  20248665.453 7 108392687.76107
  20362733.887 6 108926895.83106
  23717626.103 5 126561821.75905
 18 10 16 19 11 47.0000000  0 13G30G15G20G21R08R16G27G13R24R09R07R23
                                R06
  25062064.703 4 131702124.21904 102624987.99801  25062066.519 1
  20133809.656 8 105803881.73608  82444581.79906  20133807.983 6
  22471839.389 7 118090310.23707  92018428.34604  22471838.153 4
  21756926.814 6 114333419.05306  89090976.84302  21756924.694 2
  20212881.337 7 108239071.66407
  22615736.440 6 120809184.49906
  24868334.658 6 130683982.82106 101831688.34302  24868336.567 2
  21344587.826 8 112166570.33908  87402506.72105  21344586.038 5
  22729259.189 6 121543578.57606
  21940620.884 7 117161685.23907
  20248909.634 7 108393995.28307
  20362687.697 6 108926649.06606
  23718176.678 5 126564757.31005
 18 10 16 19 11 48.0000000  0 13G30G15G20G21R08R16G27G13R24R09R07R23
                                R06
  25062518.479 3 131704521.09403 102626855.74601  25062522.477 1
  20133727.130 8 105803447.81208  82444243.67606  20133725.405 6
  22471232.599 7 118087120.92807  92015943.17104  22471231.265 4
  21756659.128 6 114332012.20206  89089880.58802  21756656.996 2
  20212558.022 7 108237340.78807
  22615967.867 6 120810420.31706
  24868028.566 6 130682374.06706 101830434.77502  24868030.418 2
  21344943.676 8 112168439.82108  87403963.45905  21344941.792 5
  22728590.091 6 121540000.31906
  21940092.131 7 117158861.79307
  20249153.762 7 108395302.91607
  20362641.938 6 108926403.09406
  23718727.464 4 126567692.72004
 18 10 16 19 11 49.0000000  0 12G15G20G21R08R16G27G13R24R09R07R23R06
  20133644.662 8 105803014.57408  82443906.09006  20133642.953 6
  22470625.871 7 118083931.94307  92013458.24704  22470624.430 4
  21756391.514 6 114330605.95406  89088784.80402  21756389.392 2
  20212234.869 7 108235610.43307
  22616199.588 6 120811657.09606
  24867722.609 5 130680766.06805 101829181.77602  24867724.375 2
  21345299.677 8 112170309.86008  87405420.63105  21345297.653 5
  22727921.134 6 121536422.83306
  21939563.720 7 117156039.15307
  20249397.842 7 108396611.01907
  20362596.495 6 108926158.22206
  23719277.273 5 126570628.26105
 18 10 16 19 11 50.0000000  0 13G30G15G20G21R08R16G27G13R24R09R07R23
                                R06
  25063426.826 3
  20133562.352 8 105802582.17808  82443569.15806  20133560.662 6
  22470019.178 7 118080743.39607  92010973.66304  22470017.639 4
  21756124.076 6 114329200.49706  89087689.66702  21756121.966 2
  20211911.891 7 108233880.69607
  22616431.496 6 120812895.04006
  24867416.227 6 130679158.95006 101827929.48402  24867418.490 2
  21345655.781 8 112172180.59408  87406878.34805  21345653.629 5
  22727252.037 6 121532846.20206
  21939035.308 7 117153217.45107
  20249642.095 7 108397919.68907
  20362550.926 6 108925914.60106
  23719827.409 5 126573564.12805
 18 10 16 19 11 51.0000000  0 13G30G15G20G21R08R16G27G13R24R09R07R23
                                R06
  25063884.354 4
  20133480.170 8 105802150.31208  82443232.64006  20133478.474 6
  22469412.522 7 118077554.98707  92008489.19004  22469410.858 4
  21755856.573 6 114327795.51106  89086594.88602  21755854.644 2
  20211589.038 7 108232151.27407
  22616663.371 6 120814133.79106
  24867110.344 6 130677552.41606 101826677.64302  24867112.747 2
  21346011.937 8 112174051.70008  87408336.35605  21346009.682 5
  22726583.423 6 121529270.17806
  21938506.959 7 117150396.40107
  20249886.541 7 108399228.66707
  20362505.384 6 108925671.88206
  23720377.349 4 126576499.93004
 18 10 16 19 11 52.0000000  0 13G30G15G20G21R08R16G27G13R24R09R07R23
                                R06
  25064343.066 4
  20133398.021 8 105801718.73208  82442896.34206  20133396.357 6
  22468805.781 7 118074366.49107  92006004.65004  22468804.072 4
  21755589.114 6 114326390.75406  89085500.27602  21755587.321 2
  20211266.127 7 108230421.94907
  22616894.702 6 120815373.08906
  24866804.409 6 130675946.17006 101825426.02302  24866807.049 2
  21346368.030 8 112175922.95208  87409794.47105  21346365.776 5
  22725915.141 6 121525694.50806
  21937978.871 7 117147575.75307
  20250131.044 7 108400537.68807
  20362460.112 6 108925429.90506
  23720927.494 4 126579435.56604
 18 10 16 19 11 53.0000000  0 13G30G15G20G21R08R16G27G13R24R09R07R23
                                R06
  25064801.045 4
  20133315.994 8 105801287.68708  82442560.46406  20133314.330 6
  22468199.080 7 118071178.15307  92003520.22804  22468197.278 4
  21755321.843 6 114324986.48806  89084406.04102  21755320.061 2
  20210943.214 7 108228692.99307
  22617126.926 6 120816613.16206
  24866498.870 6 130674340.53906 101824174.88402  24866501.485 2
  21346724.235 8 112177794.60108  87411252.89905  21346721.954 5
  22725246.699 6 121522119.43806
  21937450.885 7 117144755.73307
  20250375.670 7 108401847.03507
  20362415.527 6 108925188.83106
  23721477.911 5 126582371.16805
 18 10 16 19 11 54.0000000  0 13G30G15G20G21R08R16G27G13R24R09R07R23
                                R06
  25065258.327 4
  20133234.027 8 105800856.68708  82442224.62006  20133232.311 6
  22467592.333 7 118067989.47107  92001035.54204  22467590.429 4
  21755054.648 6 114323582.17606  89083311.76502  21755052.797 2
  20210620.239 7 108226963.90607
  22617358.891 6 120817853.57706
  24866193.905 6 130672734.99106 101822923.80702  24866195.979 2
  21347080.325 8 112179666.13508  87412711.23905  21347078.105 5
  22724577.836 6 121518544.40706
  21936922.944 7 117141935.85207
  20250620.312 7 108403156.15407
  20362370.551 6 108924948.23106
  23722027.863 5 126585306.24105
 18 10 16 19 11 55.0000000  0 13G30G15G20G21R08R16G27G13R24R09R07R23
                                R06
  25065715.993 4
  20133152.106 8 105800426.04208  82441889.05506  20133150.364 6
  22466985.527 7 118064800.75207  91998550.83104  22466983.608 4
  21754787.509 6 114322178.17406  89082217.73602  21754785.582 2
  20210297.423 7 108225234.97907
  22617591.127 6 120819094.59706
  24865888.503 6 130671129.87906 101821673.07202  24865890.581 2
  21347436.485 8 112181537.87108  87414169.73205  21347434.297 5
  22723909.546 6 121514969.81906
  21936394.994 7 117139116.42707
  20250864.884 7 108404465.37907
  20362325.661 6 108924708.37606
  23722577.105 4 126588241.10104
 18 10 16 19 11 56.0000000  0 13G30G15G20G21R08R16G27G13R24R09R07R23
                                R06
  25066172.005 4
  20133070.344 8 105799996.15708  82441554.07806  20133068.569 6
  22466378.662 7 118061612.42407  91996066.41704  22466376.911 4
  21754520.415 6 114320774.88206  89081124.26702  21754518.487 2
  20209974.702 7 108223506.59407
  22617823.466 6 120820336.69406
  24865583.281 6 130669525.55106 101820422.95302  24865585.321 2
  21347792.798 8 112183410.23708  87415628.72005  21347790.604 5
  22723241.307 6 121511396.03506
  21935867.035 7 117136297.91407
  20251109.881 7 108405775.12407
  20362280.872 6 108924469.68906
  23723126.848 5 126591176.26705
 18 10 16 19 11 57.0000000  0 13G30G15G20G21R08R16G27G13R24R09R07R23
                                R06
  25066627.632 4
  20132988.572 8 105799566.47208  82441219.26006  20132986.810 6
  22465771.921 7 118058423.89207  91993581.84804  22465770.161 4
  21754253.340 6 114319371.72506  89080030.87002  21754251.437 2
  20209652.247 7 108221778.18707
  22618056.459 6 120821579.26106
  24865277.941 6 130667921.47106 101819173.00402  24865280.066 2
  21348149.054 8 112185282.64408  87417087.73905  21348146.926 5
  22722573.032 6 121507822.50906
  21935339.037 7 117133479.68007
  20251354.574 7 108407084.80007
  20362236.371 6 108924231.55006
  23723676.796 5 126594111.07705
 18 10 16 19 11 58.0000000  0 13G30G15G20G21R08R16G27G13R24R09R07R23
                                R06
  25067084.989 4
  20132906.882 8 105799137.18208  82440884.74806  20132905.118 6
  22465165.118 7 118055235.38207  91991097.29604  22465163.380 4
  21753986.565 6 114317968.91306  89078937.77202  21753984.486 2
  20209329.458 7 108220049.96607
  22618289.152 6 120822822.50606
  24864972.727 6 130666317.85106 101817923.43302  24864974.922 2
  21348505.348 8 112187155.30608  87418546.95405  21348503.305 5
  22721904.946 6 121504249.42506
  21934811.233 7 117130661.95107
  20251599.397 7 108408394.64707
  20362191.726 6 108923994.25806
  23724225.987 4 126597045.70404
 18 10 16 19 11 59.0000000  0 13G30G15G20G21R08R16G27G13R24R09R07R23
                                R06
  25067541.108 4
  20132825.317 8 105798708.58808  82440550.77906  20132823.565 6
  22464558.479 7 118052047.17307  91988612.97604  22464556.675 4
  21753719.804 6 114316566.72406  89077845.15402  21753717.660 2
  20209006.953 7 108218322.25207
  22618522.140 6 120824066.68006
  24864667.766 6 130664714.95706 101816674.42402  24864669.931 2
  21348861.797 8 112189028.50608  87420006.59505  21348859.769 5
  22721236.523 6 121500677.11006
  21934283.836 7 117127845.06107
  20251844.181 7 108409704.95507
  20362147.327 6 108923758.06806
  23724776.536 4 126599980.53104
 18 10 16 19 12  0.0000000  0 13G30G15G20G21R08R16G27G13R24R09R07R23
                                R06
  25067999.575 4
  20132743.879 8 105798280.48408  82440217.19206  20132742.092 6
  22463951.782 7 118048859.07107  91986128.74204  22463949.987 4
  21753452.750 6 114315164.96606  89076752.89302  21753450.887 2
  20208684.376 7 108216594.86907
  22618755.247 6 120825311.63506
  24864362.893 6 130663112.60006 101815425.83802  24864365.024 2
  21349218.343 8 112190902.04508  87421466.49505  21349216.319 5
  22720568.633 6 121497105.34706
  21933756.244 7 117125028.71907
  20252088.901 7 108411015.52507
  20362103.430 6 108923522.78806
  23725326.380 4 126602915.31204
 18 10 16 19 12  1.0000000  0 13G30G15G20G21R08R16G27G13R24R09R07R23
                                R06
  25068458.081 3
  20132662.432 8 105797852.73208  82439883.87706  20132660.699 6
  22463345.109 7 118045670.94107  91983644.48404  22463343.309 4
  21753185.770 6 114313763.50606  89075660.83602  21753184.182 2
  20208361.769 7 108214867.66007
  22618988.075 6 120826557.21006
  24864058.020 6 130661510.66206 101814177.58302  24864060.171 2
  21349574.863 8 112192775.77608  87422926.54405  21349572.904 5
  22719900.789 6 121493533.95006
  21933228.872 7 117122212.84607
  20252333.817 7 108412326.21507
  20362060.001 6 108923288.23806
  23725875.839 5 126605849.91805
 18 10 16 19 12  2.0000000  0 13G30G15G20G21R08R16G27G13R24R09R07R23
                                R06
  25068912.801 3
  20132581.145 8 105797425.48708  82439550.96006  20132579.396 6
  22462738.571 7 118042482.93407  91981160.32204  22462736.648 4
  21752918.879 6 114312362.51806  89074569.15502  21752917.606 2
  20208039.127 7 108213140.75507
  22619221.668 6 120827803.53306
  24863753.627 6 130659909.25106 101812929.74102  24863755.395 2
  21349931.480 8 112194649.88608  87424386.89005  21349929.565 5
  22719233.006 6 121489963.15306
  21932701.572 7 117119397.62307
  20252578.803 7 108413637.13907
  20362016.244 6 108923054.61406
  23726424.938 4 126608784.48904
 18 10 16 19 12  3.0000000  0 13G30G15G20G21R08R16G27G13R24R09R07R23
                                R06
  25069369.255 4
  20132499.996 8 105796998.95108  82439218.59406  20132498.232 6
  22462131.999 7 118039295.25907  91978676.42604  22462130.046 4
  21752652.563 6 114310962.15506  89073477.95902  21752651.133 2
  20207716.559 7 108211414.38707
  22619455.023 6 120829050.85906
  24863448.872 6 130658308.61906 101811682.50102  24863450.761 2
  21350288.328 8 112196524.54508  87425847.66105  21350286.342 5
  22718564.966 6 121486393.10006
  21932174.415 7 117116583.22107
  20252824.116 7 108414948.49307
  20361972.642 6 108922822.12906
  23726975.164 4 126611719.19804
 18 10 16 19 12  4.0000000  0 13G30G15G20G21R08R16G27G13R24R09R07R23
                                R06
  25069827.149 4
  20132419.066 8 105796573.65108  82438887.19506  20132417.309 6
  22461525.557 7 118036108.43707  91976193.18304  22461523.587 4
  21752386.488 6 114309562.97106  89072387.67902  21752384.875 2
  20207394.286 7 108209689.09007
  22619689.141 6 120830299.72006
  24863144.346 6 130656709.26806 101810436.25102  24863146.373 2
  21350645.289 8 112198400.30408  87427309.29005  21350643.294 5
  22717897.357 6 121482824.35206
  21931647.570 7 117113770.18107
  20253069.223 7 108416260.85207
  20361929.207 6 108922591.27806
  23727525.700 4 126614654.70004
 18 10 16 19 12  5.0000000  0 13G30G15G20G21R08R16G27G13R24R09R07R23
                                R06
  25070284.104 4
  20132338.215 8 105796149.12408  82438556.39306  20132336.524 6
  22460919.043 7 118032922.00907  91973710.25704  22460917.185 4
  21752120.481 6 114308164.50706  89071297.97302  21752118.755 2
  20207072.068 7 108207964.34507
  22619923.359 6 120831549.63606
  24862840.294 6 130655110.74406 101809190.65802  24862842.168 2
  21351002.387 8 112200276.67608  87428771.40105  21351000.375 5
  22717230.109 6 121479256.43206
  21931121.230 7 117110958.00607
  20253314.649 7 108417573.78307
  20361886.321 6 108922361.61706
  23728076.768 4 126617590.45204
 18 10 16 19 12  6.0000000  0 13G30G15G20G21R08R16G27G13R24R09R07R23
                                R06
  25070740.389 4
  20132257.452 8 105795724.79908  82438225.75106  20132255.780 6
  22460312.569 7 118029735.39207  91971227.17804  22460310.757 4
  21751854.341 6 114306766.18406  89070208.36602  21751852.676 2
  20206749.878 7 108206239.61407
  22620157.522 6 120832800.04506
  24862535.847 6 130653512.45206 101807945.23202  24862538.036 2
  21351359.417 8 112202153.10808  87430233.55405  21351357.470 5
  22716562.753 6 121475688.75406
  21930594.623 7 117108146.16707
  20253559.911 7 108418886.70807
  20361843.908 6 108922132.55906
  23728627.506 4 126620525.74404
 18 10 16 19 12  7.0000000  0 13G30G15G20G21R08R16G27G13R24R09R07R23
                                R06
  25071197.142 4
  20132176.718 8 105795300.39808  82437895.04906  20132175.027 6
  22459706.011 7 118026548.30907  91968743.73804  22459704.231 4
  21751588.185 6 114305367.72306  89069118.66602  21751586.569 2
  20206427.827 7 108204514.62307
  22620392.030 6 120834050.62306
  24862231.502 6 130651914.18506 101806699.85202  24862233.907 2
  21351716.406 8 112204029.31108  87431695.53005  21351714.511 5
  22715895.867 6 121472121.05106
  21930068.061 7 117105334.29807
  20253805.065 7 108420199.31007
  20361801.135 6 108921903.79606
  23729176.586 4 126623460.50204
 18 10 16 19 12  8.0000000  0 13G30G15G20G21R08R16G27G13R24R09R07R23
                                R06
  25071653.534 4
  20132096.052 8 105794876.51108  82437564.74906  20132094.359 6
  22459099.609 7 118023361.37607  91966260.41204  22459097.727 4
  21751322.283 6 114303969.74206  89068029.33702  21751320.553 2
  20206105.687 7 108202789.96707
  22620626.198 6 120835302.03006
  24861927.104 5 130650316.44005 101805454.85502  24861929.850 2
  21352073.463 8 112205905.89508  87433157.80105  21352071.638 5
  22715228.901 6 121468553.94106
  21929541.508 6 117102523.08806
  20254050.199 7 108421512.19307
  20361758.840 6 108921675.96806
  23729727.117 4 126626395.19304
 18 10 16 19 12  9.0000000  0 13G30G15G20G21R08R16G27G13R24R09R07R23
                                R06
  25072111.902 4
  20132015.402 8 105794452.98408  82437234.72906  20132013.772 6
  22458493.180 7 118020174.40907  91963777.06304  22458491.236 4
  21751056.664 6 114302572.04006  89066940.23502  21751054.607 2
  20205783.457 7 108201065.46107
  22620860.439 6 120836554.03906
  24861622.846 5 130648719.08805 101804210.15802  24861625.874 2
  21352430.706 8 112207782.67508  87434620.23005  21352428.804 5
  22714561.539 6 121464987.25006
  21929015.063 6 117099712.32906
  20254295.482 7 108422825.14107
  20361716.662 6 108921448.88506
  23730276.547 4 126629329.60504
 18 10 16 19 12 10.0000000  0 13G30G15G20G21R08R16G27G13R24R09R07R23
                                R06
  25072570.472 5
  20131934.973 8 105794030.22008  82436905.30306  20131933.327 6
  22457886.708 7 118016987.80707  91961293.99504  22457884.844 4
  21750790.817 6 114301175.03606  89065851.65302  21750788.778 2
  20205461.881 7 108199341.53907
  22621094.205 6 120837807.02406
  24861318.668 5 130647122.56505 101802966.12502  24861322.081 2
  21352787.909 8 112209660.08208  87436083.14305  21352786.082 5
  22713894.228 6 121461421.36206
  21928488.911 6 117096902.45006
  20254540.930 7 108424138.58907
  20361674.209 6 108921223.02206
  23730825.756 4 126632264.38104
 18 10 16 19 12 11.0000000  0 13G30G15G20G21R08R16G27G13R24R09R07R23
                                R06
  25073028.379 4
  20131854.776 8 105793608.58108  82436576.75206  20131853.084 6
  22457280.393 7 118013801.92807  91958811.49004  22457278.595 4
  21750524.854 6 114299779.12806  89064763.93802  21750523.137 2
  20205140.256 7 108197618.53107
  22621328.721 6 120839061.43506
  24861014.620 5 130645527.22605 101801722.97602  24861018.480 2
  21353145.367 8 112211538.45508  87437546.81105  21353143.562 5
  22713227.554 6 121457856.68906
  21927962.716 6 117094093.84606
  20254786.446 7 108425452.91407
  20361633.046 6 108920998.65106
  23731376.264 4 126635199.78804
 18 10 16 19 12 12.0000000  0 13G30G15G20G21R08R16G27G13R24R09R07R23
                                R06
  25073486.577 5
  20131774.444 8 105793186.76108  82436248.06106  20131772.805 6
  22456674.137 7 118010615.48307  91956328.55004  22456672.221 4
  21750259.025 6 114298382.95706  89063676.01402  21750257.411 2
  20204818.433 7 108195895.12107
  22621563.214 5 120840315.94105
  24860710.986 6 130643931.75306 101800479.74402  24860714.870 2
  21353502.770 8 112213416.49308  87439010.21705  21353500.951 5
  22712560.719 6 121454291.86606
  21927436.705 6 117091285.12706
  20255031.778 7 108426766.81607
  20361591.479 6 108920774.49806
  23731927.231 4 126638134.39304
 18 10 16 19 12 13.0000000  0 13G30G15G20G21R08R16G27G13R24R09R07R23
                                R06
  25073945.344 5
  20131694.361 8 105792765.62108  82435919.90106  20131692.651 6
  22456067.940 7 118007429.33207  91953845.83504  22456065.864 4
  21749993.618 6 114296987.38706  89062588.54702  21749991.823 2
  20204496.801 7 108194172.19507
  22621798.355 5 120841571.38205
  24860407.443 6 130642337.00406 101799237.09702  24860411.412 2
  21353860.275 8 112215295.05608  87440474.03105  21353858.453 5
  22711894.412 6 121450727.82006
  21926911.057 7 117088477.19107
  20255277.191 7 108428081.20807
  20361549.521 6 108920551.47606
  23732477.068 4 126641069.20104
 18 10 16 19 12 14.0000000  0 13G30G15G20G21R08R16G27G13R24R09R07R23
                                R06
  25074403.461 4
  20131614.300 8 105792345.13708  82435592.25206  20131612.631 6
  22455461.692 7 118004243.45707  91951363.33304  22455459.534 4
  21749728.033 6 114295592.44106  89061501.57602  21749726.361 2
  20204174.973 7 108192449.77907
  22622033.001 5 120842827.83005
  24860104.223 6 130640742.95706 101797994.99502  24860108.053 2
  21354217.971 8 112217174.12308  87441938.24105  21354216.053 5
  22711228.097 6 121447164.47806
  21926385.669 7 117085670.06807
  20255522.687 7 108429396.02007
  20361508.486 6 108920329.46906
  23733027.580 4 126644004.12004
 18 10 16 19 12 15.0000000  0 13G30G15G20G21R08R16G27G13R24R09R07R23
                                R06
  25074860.412 4
  20131534.384 8 105791925.18508  82435265.01506  20131532.715 6
  22454855.469 7 118001057.72407  91948880.94704  22454853.281 4
  21749462.662 6 114294197.95406  89060414.95902  21749460.979 2
  20203853.423 7 108190727.71207
  22622268.457 6 120844085.05206
  24859801.205 6 130639149.49106 101796753.33602  24859804.792 2
  21354575.579 8 112219053.57208  87443402.74605  21354573.721 5
  22710561.982 6 121443601.69706
  21925860.331 6 117082863.55206
  20255768.413 7 108430711.10707
  20361467.313 6 108920108.37206
  23733576.621 4 126646938.99804
 18 10 16 19 12 16.0000000  0 13G30G15G20G21R08R16G27G13R24R09R07R23
                                R06
  25075319.004 5
  20131454.536 8 105791505.52808  82434938.00906  20131452.860 6
  22454249.135 7 117997871.91607  91946398.49604  22454247.063 4
  21749197.688 6 114292803.69906  89059328.52402  21749195.660 2
  20203531.891 7 108189005.74807
  22622504.108 6 120845342.87506
  24859498.833 6 130637556.34806 101795511.91202  24859501.594 2
  21354933.191 8 112220933.16508  87444867.36305  21354931.415 5
  22709895.814 6 121440039.28906
  21925334.930 7 117080057.44207
  20256014.366 7 108432026.23307
  20361425.965 6 108919888.00106
  23734126.313 4 126649873.63804
 18 10 16 19 12 17.0000000  0 13G30G15G20G21R08R16G27G13R24R09R07R23
                                R06
  25075777.014 5
  20131374.710 8 105791086.02308  82434611.12406  20131373.037 6
  22453642.809 7 117994685.86907  91943915.86404  22453640.769 4
  21748932.149 6 114291409.55106  89058242.15802  21748930.385 2
  20203210.383 7 108187283.73807
  22622739.592 5 120846601.08905
  24859195.882 6 130635963.41106 101794270.67802  24859198.449 2
  21355290.887 8 112222812.77108  87446331.98905  21355289.109 5
  22709230.136 6 121436477.07706
  21924809.440 7 117077251.58907
  20256259.970 7 108433341.22807
  20361384.797 6 108919668.15606
  23734676.068 4 126652807.81604
 18 10 16 19 12 18.0000000  0 13G30G15G20G21R08R16G27G13R24R09R07R23
                                R06
  25076235.414 5
  20131295.025 8 105790667.07008  82434284.66706  20131293.317 6
  22453036.562 7 117991499.99707  91941433.36604  22453034.475 4
  21748667.024 6 114290015.88106  89057156.18602  21748665.214 2
  20202889.176 7 108185562.08207
  22622975.573 6 120847860.05306
  24858892.728 6 130634371.10006 101793029.90502  24858895.412 2
  21355648.615 8 112224692.78308  87447796.93405  21355646.870 5
  22708564.589 6 121432915.47106
  21924284.227 7 117074446.42107
  20256505.804 7 108434656.54807
  20361343.708 6 108919449.26506
  23735226.466 4 126655742.04304
 18 10 16 19 12 19.0000000  0 13G30G15G20G21R08R16G27G13R24R09R07R23
                                R06
  25076693.415 5
  20131215.374 8 105790248.46208  82433958.48006  20131213.664 6
  22452430.263 7 117988314.09207  91938950.84404  22452428.221 4
  21748401.859 6 114288622.49606  89056070.42202  21748400.087 2
  20202567.822 7 108183840.57707
  22623211.294 6 120849119.72506
  24858590.126 6 130632779.18206 101791789.44802  24858592.450 2
  21356006.367 8 112226572.98208  87449262.02405  21356004.676 5
  22707898.664 6 121429354.22706
  21923758.798 7 117071641.68707
  20256751.507 7 108435972.01407
  20361302.838 6 108919231.14506
  23735776.138 4 126658676.01904
 18 10 16 19 12 20.0000000  0 13G30G15G20G21R08R16G27G13R24R09R07R23
                                R06
  25077150.898 5
  20131135.789 8 105789829.97008  82433632.38206  20131134.029 6
  22451823.968 7 117985127.93607  91936468.12404  22451821.919 4
  21748136.854 6 114287229.19506  89054984.73902  21748134.973 2
  20202246.352 7 108182118.99007
  22623447.033 6 120850379.77006
  24858287.289 6 130631187.46306 101790549.14602  24858289.529 2
  21356364.134 8 112228453.15508  87450727.09605  21356362.499 5
  22707232.650 6 121425793.22906
  21923233.900 7 117068837.21207
  20256997.359 7 108437287.33607
  20361261.695 6 108919013.55306
  23736325.856 4 126661609.68804
 18 10 16 19 12 21.0000000  0 13G30G15G20G21R08R16G27G13R24R09R07R23
                                R06
  25077609.150 5
  20131056.314 8 105789412.22308  82433306.86606  20131054.528 6
  22451217.670 7 117981942.13207  91933985.68104  22451215.647 4
  21747871.675 6 114285836.56806  89053899.57402  21747869.971 2
  20201925.126 7 108180397.96107
  22623682.864 5 120851640.82405
  24857984.388 6 130629596.46006 101789309.40902  24857986.764 2
  21356722.042 8 112230333.92508  87452192.63205  21356720.439 5
  22706566.964 6 121422232.97906
  21922708.705 7 117066033.57907
  20257243.263 7 108438603.17807
  20361220.493 6 108918797.11306
  23736875.946 5 126664543.52305
 18 10 16 19 12 22.0000000  0 13G30G15G20G21R08R16G27G13R24R09R07R23
                                R06
  25078067.876 5
  20130976.920 8 105788995.04608  82432981.79206  20130975.148 6
  22450611.416 7 117978756.51107  91931503.37904  22450609.425 4
  21747606.765 6 114284444.44206  89052814.79902  21747605.068 2
  20201603.691 7 108178677.28407
  22623918.797 6 120852902.73006
  24857682.052 6 130628006.12806 101788070.19602  24857684.147 2
  21357080.084 8 112232215.10408  87453658.48405  21357078.424 5
  22705900.857 6 121418673.35606
  21922183.689 7 117063230.61407
  20257489.128 7 108439919.30307
  20361179.993 6 108918581.60906
  23737426.360 5 126667477.44105
 18 10 16 19 12 23.0000000  0 13G30G15G20G21R08R16G27G13R24R09R07R23
                                R06
  25078526.946 5
  20130897.556 8 105788578.03908  82432656.85306  20130895.790 6
  22450005.163 7 117975570.67707  91929020.90604  22450003.189 4
  21747342.017 6 114283052.42806  89051730.11902  21747340.169 2
  20201282.274 7 108176956.61007
  22624155.227 6 120854165.03306
  24857379.421 6 130626416.01006 101786831.13802  24857381.539 2
  21357438.139 8 112234096.31508  87455124.36305  21357436.426 5
  22705235.341 6 121415114.00206
  21921658.696 7 117060427.92207
  20257734.883 7 108441235.32707
  20361139.030 6 108918366.76306
  23737976.124 5 126670410.94705
 18 10 16 19 12 24.0000000  0 13G30G15G20G21R08R16G27G13R24R09R07R23
                                R06
  25078985.546 5
  20130818.238 8 105788161.76308  82432332.48006  20130816.566 6
  22449398.872 7 117972385.19307  91926538.70904  22449397.016 4
  21747077.168 6 114281661.09706  89050645.95702  21747075.382 2
  20200960.998 7 108175236.45807
  22624391.673 5 120855428.32605
  24857076.938 6 130624826.65006 101785592.66902  24857079.065 2
  21357796.255 8 112235978.09808  87456590.68805  21357794.545 5
  22704569.703 6 121411555.39606
  21921134.148 7 117057626.10007
  20257980.736 7 108442551.86707
  20361099.448 6 108918153.00306
  23738526.377 5 126673344.67105
 18 10 16 19 12 25.0000000  0 13G30G15G20G21R08R16G27G13R24R09R07R23
                                R06
  25079444.840 5
  20130739.090 8 105787745.98808  82432008.49906  20130737.436 6
  22448792.605 7 117969199.83507  91924056.61304  22448790.843 4
  21746812.325 6 114280270.20606  89049562.14202  21746810.702 2
  20200639.915 7 108173516.63607
  22624628.483 6 120856692.43206
  24856774.442 6 130623237.88506 101784354.67802  24856776.726 2
  21358154.376 8 112237860.24308  87458057.29205  21358152.736 5
  22703904.127 6 121407997.37206
  21920609.525 7 117054824.89707
  20258226.630 7 108443868.68107
  20361059.822 6 108917940.19606
  23739076.474 5 126676278.39405
 18 10 16 19 12 26.0000000  0 13G30G15G20G21R08R16G27G13R24R09R07R23
                                R06
  25079903.432 5
  20130660.026 8 105787330.75308  82431684.94006  20130658.423 6
  22448186.516 7 117966014.62907  91921574.63304  22448184.678 4
  21746547.661 6 114278879.80006  89048478.71502  21746546.152 2
  20200318.574 7 108171797.16407
  22624865.831 6 120857957.33706
  24856471.972 6 130621649.67406 101783117.10602  24856474.466 2
  21358512.597 8 112239742.77808  87459524.20405  21358510.975 5
  22703238.859 6 121404439.93306
  21920084.958 7 117052024.32807
  20258472.758 7 108445185.79007
  20361020.837 6 108917728.30406
  23739626.665 5 126679212.06105
 18 10 16 19 12 27.0000000  0 13G30G15G20G21R08R16G27G13R24R09R07R23
                                R06
  25080362.341 5
  20130581.073 8 105786916.24608  82431361.94906  20130579.539 6
  22447580.312 7 117962829.77407  91919092.93404  22447578.644 4
  21746283.324 6 114277490.05906  89047395.79402  21746281.705 2
  20199997.552 7 108170078.22707
  22625102.709 5 120859223.24705
  24856169.959 6 130620062.23006 101781880.14002  24856172.354 2
  21358870.862 8 112241625.89108  87460991.56705  21358869.309 5
  22702574.355 6 121400883.30306
  21919560.890 7 117049224.61007
  20258718.776 7 108446503.39607
  20360981.278 6 108917517.54406
  23740176.144 5 126682145.92405
 18 10 16 19 12 28.0000000  0 13G30G15G20G21R08R16G27G13R24R09R07R23
                                R06
  25080820.946 5
  20130502.356 8 105786502.44208  82431039.50406  20130500.789 6
  22446974.462 7 117959645.22807  91916611.47404  22446972.668 4
  21746018.679 6 114276100.99006  89046313.41502  21746017.383 2
  20199676.618 7 108168359.81807
  22625339.100 5 120860490.14205
  24855868.047 6 130618475.56906 101780643.78102  24855870.399 2
  21359229.178 8 112243509.55308  87462459.35105  21359227.799 5
  22701909.724 6 121397327.45606
  21919036.927 7 117046425.76007
  20258965.189 7 108447821.47807
  20360942.407 6 108917307.90206
  23740725.978 5 126685079.96605
 18 10 16 19 12 29.0000000  0 13G30G15G20G21R08R16G27G13R24R09R07R23
                                R06
  25081279.645 5
  20130423.727 8 105786089.15708  82430717.46306  20130422.151 6
  22446368.517 7 117956460.78607  91914130.09104  22446366.705 4
  21745754.739 6 114274712.33906  89045231.35302  21745753.155 2
  20199355.568 7 108166641.68307
  22625576.049 6 120861757.83306
  24855566.364 6 130616889.42206 101779407.81202  24855568.524 2
  21359587.682 8 112245393.59008  87463927.43505  21359586.351 5
  22701243.981 6 121393772.10506
  21918513.141 7 117043627.49307
  20259211.507 7
  20360903.425 6 108917099.13806
  23741276.566 5 126688013.97305
 18 10 16 19 12 30.0000000  0 13G30G15G20G21R08R16G27G13R24R09R07R23
                                R06
  25081736.931 5
  20130345.169 8 105785676.02108  82430395.54006  20130343.540 6
  22445762.766 7 117953276.15207  91911648.55904  22445760.666 4
  21745490.628 6 114273323.78906  89044149.37802  21745488.931 2
  20199034.650 7 108164923.56207
  22625813.995 6 120863025.95806
  24855264.804 6 130615303.51006 101778172.03402  24855266.708 2
  21359946.243 8 112247277.60508  87465395.49705  21359944.890 5
  22700578.847 6 121390217.04806
  21917989.168 7 117040829.46407
  20259457.844 7
  20360865.175 6 108916890.95206
  23741825.440 5 126690947.56305
 18 10 16 19 12 31.0000000  0 13G30G15G20G21R08R16G27G13R24R09R07R23
                                R06
  25082193.053 5 131807834.12915
  20130266.657 8 105785263.35908  82430073.98706  20130265.014 6
  22445156.827 7 117950091.61107  91909167.09404  22445154.653 4
  21745226.525 6 114271935.70006  89043067.76102  21745224.788 2
  20198713.595 7 108163205.70007
  22626051.909 6 120864294.80606
  24854963.036 6 130613718.12506 101776936.68302  24854965.016 2
  21360304.800 8 112249161.94308  87466863.81005  21360303.506 5
  22699913.762 6 121386662.50206
  21917465.190 7 117038032.05007
  20259704.130 7 108451776.50207
  20360826.450 6 108916683.59006
  23742374.676 5 126693881.14305
 18 10 16 19 12 32.0000000  0 13G30G15G20G21R08R16G27G13R24R09R07R23
                                R06
  25082651.724 6 131810245.19306
  20130188.224 8 105784851.36408  82429752.95206  20130186.618 6
  22444550.893 7 117946907.36507  91906685.86304  22444548.722 4
  21744962.404 6 114270548.18606  89041986.57302  21744960.734 2
  20198392.874 7 108161488.34007
  22626290.444 6 120865564.64106
  24854661.345 6 130612133.46306 101775701.87602  24854663.468 2
  21360663.573 8 112251046.83408  87468332.55405  21360662.228 5
  22699249.278 6 121383108.67906
  21916941.237 7 117035235.44707
  20259950.562 7 108453095.42307
  20360788.085 6 108916477.37706
  23742924.043 5 126696814.85505
 18 10 16 19 12 33.0000000  0 13G30G15G20G21R08R16G27G13R24R09R07R23
                                R06
  25083110.755 5 131812656.88305
  20130109.931 8 105784440.18308  82429432.55006  20130108.364 6
  22443945.154 7 117943723.54807  91904204.97104  22443942.866 4
  21744698.495 6 114269161.44306  89040905.98602  21744696.815 2
  20198072.107 7 108159771.65307
  22626528.666 6 120866835.53306
  24854359.709 6 130610549.66706 101774467.77002  24854362.063 2
  21361022.501 8 112252932.36908  87469801.80105  21361021.045 5
  22698585.005 6 121379555.76706
  21916417.464 7 117032439.75507
  20260197.145 7 108454414.89407
  20360749.927 6 108916272.39306
  23743472.778 5 126699748.92305
 18 10 16 19 12 34.0000000  0 13G30G15G20G21R08R16G27G13R24R09R07R23
                                R06
  25083569.776 5 131815068.84705
  20130031.795 8 105784029.45308  82429112.50206  20130030.205 6
  22443339.480 7 117940539.78607  91901724.11604  22443337.037 4
  21744434.942 6 114267775.06106  89039825.67102  21744432.949 2
  20197751.561 7 108158055.18907
  22626766.248 6 120868107.12806
  24854058.450 6 130608966.40906 101773234.03502  24854060.761 2
  21361381.416 8 112254818.20708  87471271.28705  21361379.919 5
  22697920.645 6 121376003.33606
  21915893.879 7 117029644.60607
  20260443.649 7 108455734.56707
  20360710.934 5 108916068.18905
  23744022.111 5 126702682.80605
 18 10 16 19 12 35.0000000  0 13G30G15G20G21R08R16G27G13R24R09R07R23
                                R06
  25084028.856 5 131817481.82405
  20129953.847 8 105783619.88308  82428793.35506  20129952.269 6
  22442733.813 7 117937356.81507  91899243.87904  22442731.320 4
  21744171.580 6 114266389.81406  89038746.26402  21744169.351 2
  20197431.455 7 108156339.68107
  22627004.215 6 120869380.19006
  24853757.611 6 130607384.31706 101772001.22802  24853759.708 2
  21361740.515 8 112256705.06208  87472741.56405  21361738.981 5
  22697256.602 5 121372452.16805
  21915370.532 7 117026850.75707
  20260690.308 7 108457055.18507
  20360672.042 5 108915865.60105
  23744571.692 5 126705617.38005
 18 10 16 19 12 36.0000000  0 13G30G15G20G21R08R16G27G13R24R09R07R23
                                R06
  25084488.108 5 131819894.81405
  20129875.940 8 105783210.48008  82428474.33906  20129874.364 6
  22442128.054 7 117934173.64407  91896763.49004  22442125.563 4
  21743908.058 6 114265004.68206  89037666.94202  21743905.789 2
  20197111.172 7 108154624.11507
  22627242.624 6 120870653.66306
  24853456.577 6 130605802.47806 101770768.63402  24853458.719 2
  21362099.675 8 112258591.93508  87474211.85505  21362098.062 5
  22696592.434 5 121368901.19705
  21914847.523 7 117024057.19607
  20260936.847 7 108458375.72307
  20360634.148 5 108915663.61505
  23745121.222 5 126708551.56505
 18 10 16 19 12 37.0000000  0 13G30G15G20G21R08R16G27G13R24R09R07R23
                                R06
  25084947.060 5 131822307.79205
  20129798.100 9 105782801.27209  82428155.47706  20129796.482 6
  22441522.201 7 117930990.26007  91894282.93404  22441519.761 4
  21743644.681 6 114263619.67606  89036587.73002  21743642.249 2
  20196790.919 7 108152908.57907
  22627481.095 6 120871927.61206
  24853155.582 6 130604220.86106 101769536.20102  24853157.779 2
  21362458.870 8 112260478.84908  87475682.17605  21362457.146 5
  22695928.551 6 121365350.49006
  21914324.399 7 117021263.96707
  20261183.449 7 108459696.19607
  20360596.291 5 108915462.21005
  23745671.909 5 126711485.40905
 18 10 16 19 12 38.0000000  0 13G30G15G20G21R08R16G27G13R24R09R07R23
                                R06
  25085406.453 5 131824720.92705
  20129720.338 8 105782392.42108  82427836.89306  20129718.676 6
  22440916.489 7 117927806.88407  91891802.37504  22440913.963 4
  21743381.109 6 114262234.99006  89035508.75502  21743378.741 2
  20196470.685 7 108151193.22807
  22627719.951 6 120873202.19006
  24852854.862 6 130602639.64206 101768304.09302  24852856.902 2
  21362817.921 8 112262365.98008  87477152.66505  21362816.285 5
  22695264.547 5 121361800.22305
  21913801.532 7 117018471.16507
  20261430.038 8 108461016.77408
  20360559.105 5 108915261.52905
  23746222.366 5 126714419.01205
 18 10 16 19 12 39.0000000  0 13G30G15G20G21R08R16G27G13R24R09R07R23
                                R06
  25085865.930 5 131827134.43405
  20129642.634 9 105781984.07809  82427518.70606  20129640.972 6
  22440310.726 7 117924623.62007  91889321.91304  22440308.215 4
  21743117.934 6 114260850.74106  89034430.11102  21743115.273 2
  20196150.691 7 108149478.21507
  22627958.852 6 120874477.59706
  24852553.881 6 130601059.00806 101767072.44002  24852556.145 2
  21363177.070 8 112264253.46408  87478623.43205  21363175.459 5
  22694601.067 5 121358250.48205
  21913278.755 7 117015679.00807
  20261676.753 7 108462337.64107
  20360521.934 5 108915061.80405
  23746772.468 5 126717352.62005
 18 10 16 19 12 40.0000000  0 13G30G15G20G21R08R16G27G13R24R09R07R23
                                R06
  25086325.189 5 131829547.99705
  20129565.016 9 105781576.01809  82427200.73606  20129563.318 6
  22439704.916 7 117921440.22207  91886841.34404  22439702.458 4
  21742854.494 6 114259466.73806  89033351.64402  21742851.877 2
  20195830.310 7 108147763.28807
  22628197.664 6 120875753.52206
  24852253.293 6 130599478.72606 101765841.03202  24852255.477 2
  21363536.226 8 112266141.07308  87480094.29705  21363534.633 5
  22693936.980 6 121354701.08906
  21912756.179 7 117012887.23307
  20261923.315 8 108463658.55808
  20360484.672 6 108914862.75806
  23747321.166 5 126720286.00005
 18 10 16 19 12 41.0000000  0 13G30G15G20G21R08R16G27G13R24R09R07R23
                                R06
  25086784.276 5 131831962.03505
  20129487.512 9 105781168.62009  82426883.28206  20129485.785 6
  22439099.181 7 117918257.11507  91884361.00504  22439096.736 4
  21742590.845 6 114258083.31606  89032273.65002  21742588.628 2
  20195510.004 7 108146048.83407
  22628436.703 6 120877030.40606
  24851952.615 6 130597899.10806 101764610.15102  24851954.881 2
  21363895.544 8 112268029.19308  87481565.55805  21363893.941 5
  22693273.247 6 121351152.38206
  21912233.355 7 117010096.24107
  20262170.036 7 108464979.87007
  20360447.506 6 108914664.77006
  23747870.105 5 126723219.45005
 18 10 16 19 12 42.0000000  0 13G30G15G20G21R08R16G27G13R24R09R07R23
                                R06
  25087243.731 5 131834376.50205
  20129410.153 8 105780761.76308  82426566.25206  20129408.349 6
  22438493.311 7 117915074.18707  91881880.80204  22438491.082 4
  21742327.305 6 114256700.37806  89031196.05102  21742325.477 2
  20195189.694 7 108144334.74307
  22628675.952 6 120878308.06706
  24851652.115 6 130596320.11106 101763379.75502  24851654.362 2
  21364254.888 8 112269917.70708  87483037.12705  21364253.330 5
  22692609.574 6 121347604.32706
  21911710.828 7 117007305.90507
  20262416.941 7 108466301.47607
  20360410.862 6 108914467.70506
  23748419.332 5 126726152.94505
 18 10 16 19 12 43.0000000  0 13G30G15G20G21R08R16G27G13R24R09R07R23
                                R06
  25087703.121 5 131836791.42805
  20129332.888 8 105780355.60408  82426249.76506  20129331.044 6
  22437887.590 7 117911891.55307  91879400.82504  22437885.454 4
  21742063.859 6 114255318.08906  89030118.92802  21742062.434 2
  20194869.628 7 108142621.14207
  22628915.123 6 120879586.70706
  24851352.091 6 130594741.83706 101762149.94702  24851354.052 2
  21364614.426 8 112271806.75708  87484509.11305  21364612.826 5
  22691945.923 6 121344057.01306
  21911188.217 7 117004516.39007
  20262663.967 7 108467623.53007
  20360373.930 6 108914271.82306
  23748969.128 5 126729086.60805
 18 10 16 19 12 44.0000000  0 13G30G15G20G21R08R16G27G13R24R09R07R23
                                R06
  25088163.219 5 131839207.30805
  20129255.780 9 105779950.56609  82425934.15106  20129253.962 6
  22437282.139 7 117908709.67007  91876921.43304  22437279.952 4
  21741801.079 6 114253936.87106  89029042.66002  21741799.597 2
  20194549.777 7 108140908.45507
  22629154.024 6 120880866.76406
  24851051.884 6 130593164.77606 101760921.04802  24851053.966 2
  21364974.066 8 112273696.79208  87485981.86505  21364972.515 5
  22691283.077 6 121340510.94606
  21910665.750 7 117001728.14607
  20262911.112 7 108468946.47807
  20360337.966 6 108914077.46006
  23749519.735 5 126732020.86205
 18 10 16 19 12 45.0000000  0 13G30G15G20G21R08R16G27G13R24R09R07R23
                                R06
  25088622.761 5 131841623.03105
  20129178.640 9 105779545.49709  82425618.51306  20129176.876 6
  22436676.535 7 117905527.36507  91874441.72004  22436674.413 4
  21741538.136 6 114252555.54606  89027966.31602  21741536.750 2
  20194229.629 7 108139195.51007
  22629393.644 6 120882147.04006
  24850751.853 6 130591587.65906 101759692.11902  24850753.889 2
  21365333.645 8 112275586.63308  87487454.47105  21365332.145 5
  22690620.418 6 121336964.87806
  21910143.240 7 116998939.94407
  20263158.044 7 108470269.10407
  20360301.895 5 108913883.42705
  23750069.764 5 126734954.54405
 18 10 16 19 12 46.0000000  0 13G30G15G20G21R08R16G27G13R24R09R07R23
                                R06
  25089082.489 5 131844038.68605
  20129101.642 9 105779140.54609  82425302.96606  20129099.816 6
  22436070.965 7 117902344.79907  91871961.79804  22436068.831 4
  21741275.442 6 114251174.28906  89026889.99202  21741273.940 2
  20193909.542 7 108137482.50507
  22629633.883 6 120883427.72106
  24850451.928 6 130590010.80606 101758463.42702  24850453.865 2
  21365693.251 8 112277476.45008  87488927.05405  21365691.771 5
  22689957.047 6 121333418.98906
  21909620.964 7 116996151.99107
  20263405.104 7 108471591.63807
  20360265.641 5 108913689.94905
  23750619.100 5 126737887.80905
